$GPGGA,121540.42,1304.091766,N,07735.506678,E,1,17,0.61,878.87,M,0.0,M,0.0,0000*7B
$GPGSV,3,1,11,5,41,020,40.6,11,11,060,39.4,12,40,185,47.1,13,35,099,40.6*4C
$GPGSV,3,2,11,15,55,143,40.5,18,18,300,38.8,21,16,034,40.6,23,31,236,42.6*7E
$GPGSV,3,3,11,24,10,172,31.6,25,50,244,49.8,29,45,346,47.9*54
$GLGSV,2,1,6,3,35,043,34.7,4,64,121,37.8,9,19,289,33.1,16,30,230,37.1*69
$GLGSV,2,2,6,18,26,038,35.7,19,21,341,37.8*55
$GPRMC,121540.42,A,1304.091766,N,07735.506678,E,000.0,,020326,,,A*75
$GPGGA,121541.42,1304.092676,N,07735.505988,E,1,17,0.61,881.72,M,0.0,M,0.0,0000*76
$GPGSV,3,1,11,5,41,020,40.5,11,11,060,39.9,12,40,185,47.3,13,35,099,40.1*47
$GPGSV,3,2,11,15,55,143,40.3,18,18,300,38.6,21,16,034,40.4,23,31,236,42.7*75
$GPGSV,3,3,11,24,10,172,32.4,25,50,244,49.7,29,45,346,48.0*5C
$GLGSV,2,1,6,3,35,043,33.3,4,64,121,37.4,9,19,289,31.8,16,30,230,36.0*6D
$GLGSV,2,2,6,18,26,038,36.3,19,21,341,36.6*5D
$GPRMC,121541.42,A,1304.092676,N,07735.505988,E,000.0,,020326,,,A*74
$GPGGA,121542.42,1304.092388,N,07735.505171,E,1,17,0.61,874.81,M,0.0,M,0.0,0000*79
$GPGSV,3,1,11,5,41,020,41.6,11,11,060,40.3,12,40,185,48.2,13,35,099,41.4*4B
$GPGSV,3,2,11,15,55,143,40.8,18,18,300,38.9,21,16,034,41.4,23,31,236,43.5*73
$GPGSV,3,3,11,24,10,172,32.5,25,50,244,50.8,29,45,346,48.9*53
$GLGSV,2,1,6,3,35,043,36.8,4,64,121,41.6,9,19,289,35.5,16,30,230,38.6*61
$GLGSV,2,2,6,18,26,038,39.8,19,21,341,39.9*59
$GPRMC,121542.42,A,1304.092388,N,07735.505171,E,000.0,,020326,,,A*7D
$GPGGA,121543.42,1304.091371,N,07735.506364,E,1,17,0.61,881.21,M,0.0,M,0.0,0000*78
$GPGSV,3,1,11,5,41,020,41.4,11,11,060,40.6,12,40,185,48.4,13,35,099,41.4*4A
$GPGSV,3,2,11,15,55,143,41.3,18,18,300,39.8,21,15,034,41.7,23,31,236,43.7*7B
$GPGSV,3,3,11,24,10,172,33.0,25,50,244,50.9,29,45,346,49.1*5F
$GLGSV,2,1,6,3,35,043,38.2,4,64,121,42.4,9,19,289,36.8,16,30,230,40.4*67
$GLGSV,2,2,6,18,26,038,40.2,19,21,341,41.6*5D
$GPRMC,121543.42,A,1304.091371,N,07735.506364,E,000.0,,020326,,,A*7C
$GPGGA,121544.42,1304.092597,N,07735.505403,E,1,17,0.61,874.07,M,0.0,M,0.0,0000*79
$GPGSV,3,1,11,5,41,020,41.8,11,11,060,40.5,12,40,185,48.3,13,35,099,41.5*43
$GPGSV,3,2,11,15,55,143,41.2,18,18,300,39.6,21,15,034,41.4,23,31,236,44.0*77
$GPGSV,3,3,11,24,10,172,32.9,25,50,244,51.2,29,45,346,49.2*5E
$GLGSV,2,1,6,3,35,043,38.6,4,64,121,41.8,9,19,289,36.4,16,30,230,40.5*61
$GLGSV,2,2,6,18,26,038,39.4,19,21,341,41.8*5B
$GPRMC,121544.42,A,1304.092597,N,07735.505403,E,000.0,,020326,,,A*73
$GPGGA,121545.42,1304.091872,N,07735.505820,E,1,17,0.61,874.98,M,0.0,M,0.0,0000*76
$GPGSV,3,1,11,5,41,020,41.9,11,11,060,40.5,12,40,185,48.7,13,35,099,41.9*4A
$GPGSV,3,2,11,15,55,143,41.4,18,18,300,39.4,21,15,034,41.6,23,31,236,44.0*71
$GPGSV,3,3,11,24,10,172,33.0,25,50,244,51.1,29,45,346,49.3*54
$GLGSV,2,1,6,3,35,043,37.0,4,64,120,42.4,9,19,289,36.4,16,30,230,39.3*6E
$GLGSV,2,2,6,18,26,038,40.8,19,21,341,40.9*59
$GPRMC,121545.42,A,1304.091872,N,07735.505820,E,000.0,,020326,,,A*7A
$GPGGA,121546.42,1304.091720,N,07735.506590,E,1,17,0.61,882.90,M,0.0,M,0.0,0000*79
$GPGSV,3,1,11,5,41,020,40.0,11,11,060,38.8,12,40,185,46.6,13,35,099,40.0*47
$GPGSV,3,2,11,15,55,143,39.9,18,18,300,37.7,21,15,034,40.2,23,31,236,42.4*79
$GPGSV,3,3,11,24,10,172,31.6,25,50,244,49.3,29,45,346,47.5*53
$GLGSV,2,1,6,3,35,043,32.2,4,64,120,37.2,9,19,289,33.4,16,30,230,35.3*64
$GLGSV,2,2,6,18,26,038,36.9,19,21,341,36.7*56
$GPRMC,121546.42,A,1304.091720,N,07735.506590,E,000.0,,020326,,,A*74
$GPGGA,121547.42,1304.092153,N,07735.505701,E,1,17,0.61,876.85,M,0.0,M,0.0,0000*7F
$GPGSV,3,1,11,5,41,020,41.6,11,11,060,40.6,12,40,185,48.4,13,35,099,41.7*4B
$GPGSV,3,2,11,15,55,143,41.5,18,18,300,39.4,21,15,034,41.9,23,31,236,44.1*7E
$GPGSV,3,3,11,24,10,172,33.5,25,50,244,51.0,29,45,346,49.3*50
$GLGSV,2,1,6,3,35,043,38.1,4,64,120,41.5,9,19,289,37.7,16,30,230,40.7*6A
$GLGSV,2,2,6,18,26,038,40.0,19,21,341,42.1*5B
$GPRMC,121547.42,A,1304.092153,N,07735.505701,E,000.0,,020326,,,A*7D
$GPGGA,121548.42,1304.092206,N,07735.505383,E,1,17,0.61,872.83,M,0.0,M,0.0,0000*7F
$GPGSV,3,1,11,5,41,020,42.2,11,11,060,41.4,12,40,185,49.4,13,35,099,42.8*42
$GPGSV,3,2,11,15,55,143,42.0,18,18,300,39.3,21,15,034,42.7,23,31,236,44.9*7A
$GPGSV,3,3,11,24,10,172,33.7,25,50,244,51.8,29,45,346,50.2*53
$GLGSV,2,1,6,3,35,043,40.0,4,64,120,43.7,9,19,289,38.2,16,30,230,41.6*6E
$GLGSV,2,2,6,18,26,038,41.2,19,21,341,43.2*5A
$GPRMC,121548.42,A,1304.092206,N,07735.505383,E,000.0,,020326,,,A*7F
$GPGGA,121549.42,1304.092495,N,07735.506097,E,1,17,0.61,871.45,M,0.0,M,0.0,0000*7E
$GPGSV,3,1,11,5,41,020,42.8,11,11,060,41.6,12,40,185,49.3,13,35,099,42.5*40
$GPGSV,3,2,11,15,55,143,42.2,18,18,300,39.4,21,15,034,42.8,23,31,236,45.0*78
$GPGSV,3,3,11,24,10,172,34.1,25,50,244,52.3,29,45,346,50.1*59
$GLGSV,2,1,6,3,35,043,39.9,4,64,120,44.9,9,19,289,38.7,16,30,230,41.3*60
$GLGSV,2,2,6,18,26,038,42.5,19,21,341,43.9*55
$GPRMC,121549.42,A,1304.092495,N,07735.506097,E,000.0,,020326,,,A*77
$GPGGA,121550.42,1304.091930,N,07735.505891,E,1,17,0.61,872.04,M,0.0,M,0.0,0000*7C
$GPGSV,3,1,11,5,41,020,43.0,11,11,060,41.8,12,40,185,49.5,13,35,099,42.8*4C
$GPGSV,3,2,11,15,55,143,42.4,18,18,300,39.5,21,15,034,43.0,23,31,236,45.2*74
$GPGSV,3,3,11,24,10,172,34.2,25,50,244,52.1,29,45,346,50.6*5F
$GLGSV,2,1,6,3,35,043,40.5,4,64,120,45.3,9,19,289,39.8,16,30,230,42.7*60
$GLGSV,2,2,6,18,26,038,43.1,19,21,341,45.0*5F
$GPRMC,121550.42,A,1304.091930,N,07735.505891,E,000.0,,020326,,,A*73
$GPGGA,121551.42,1304.091811,N,07735.505631,E,1,17,0.61,871.43,M,0.0,M,0.0,0000*7B
$GPGSV,3,1,11,5,41,020,42.8,11,11,060,41.4,12,40,185,49.6,13,35,099,43.0*43
$GPGSV,3,2,11,15,55,143,42.0,18,18,300,39.4,21,15,034,43.4,23,31,236,44.9*7F
$GPGSV,3,3,11,24,10,172,34.2,25,50,244,52.6,29,45,346,50.6*58
$GLGSV,2,1,6,3,35,043,41.1,4,64,120,44.3,9,19,289,39.7,16,30,230,42.7*6B
$GLGSV,2,2,6,18,26,038,42.1,19,21,341,45.1*5F
$GPRMC,121551.42,A,1304.091811,N,07735.505631,E,000.0,,020326,,,A*74
$GPGGA,121552.42,1304.092116,N,07735.505661,E,1,17,0.61,873.04,M,0.0,M,0.0,0000*71
$GPGSV,3,1,11,5,41,020,42.8,11,11,060,41.5,12,40,185,49.4,13,35,099,42.8*49
$GPGSV,3,2,11,15,55,143,42.5,18,18,300,39.2,21,15,034,43.2,23,31,236,44.9*7A
$GPGSV,3,3,11,24,10,172,34.3,25,50,244,52.8,29,45,346,50.4*55
$GLGSV,2,1,6,3,35,043,40.6,4,64,120,44.5,9,19,289,38.9,16,30,230,41.8*68
$GLGSV,2,2,6,18,26,038,42.2,19,21,341,44.2*5E
$GPRMC,121552.42,A,1304.092116,N,07735.505661,E,000.0,,020326,,,A*7F
$GPGGA,121553.42,1304.092094,N,07735.505190,E,1,17,0.61,876.50,M,0.0,M,0.0,0000*76
$GPGSV,3,1,11,5,41,020,42.7,11,11,060,41.6,12,40,185,49.8,13,35,099,42.6*47
$GPGSV,3,2,11,15,55,143,42.5,18,18,300,39.0,21,15,034,43.3,23,31,236,45.2*73
$GPGSV,3,3,11,24,10,172,33.9,25,50,244,52.7,29,45,346,50.4*57
$GLGSV,2,1,6,3,35,043,40.5,4,64,120,45.7,9,19,289,39.4,16,30,230,42.3*6C
$GLGSV,2,2,6,18,26,038,43.6,19,21,341,44.7*5E
$GPRMC,121553.42,A,1304.092094,N,07735.505190,E,000.0,,020326,,,A*7C
$GPGGA,121554.42,1304.091606,N,07735.504457,E,1,17,0.61,870.65,M,0.0,M,0.0,0000*70
$GPGSV,3,1,11,5,41,020,43.0,11,11,060,41.3,12,40,185,49.7,13,35,099,42.2*4F
$GPGSV,3,2,11,15,55,143,42.8,18,18,300,39.3,21,15,034,43.1,23,31,236,44.9*75
$GPGSV,3,3,11,24,10,172,33.8,25,50,244,52.3,29,45,346,50.5*53
$GLGSV,2,1,6,3,35,043,41.3,4,64,120,45.5,9,19,289,39.5,16,30,230,42.6*6D
$GLGSV,2,2,6,18,26,038,42.8,19,21,341,45.2*55
$GPRMC,121554.42,A,1304.091606,N,07735.504457,E,000.0,,020326,,,A*7A
$GPGGA,121555.42,1304.091432,N,07735.505503,E,1,17,0.61,871.72,M,0.0,M,0.0,0000*72
$GPGSV,3,1,11,5,41,020,42.8,11,11,060,42.1,12,40,185,49.8,13,35,099,42.7*4D
$GPGSV,3,2,11,15,55,143,42.5,18,18,300,39.6,21,15,034,43.1,23,31,236,45.1*74
$GPGSV,3,3,11,24,10,172,34.3,25,50,244,52.8,29,45,346,50.7*56
$GLGSV,2,1,6,3,35,043,40.9,4,64,120,44.8,9,19,289,38.8,16,30,230,42.8*68
$GLGSV,2,2,6,18,26,038,42.1,19,21,341,45.1*5F
$GPRMC,121555.42,A,1304.091432,N,07735.505503,E,000.0,,020326,,,A*7F
$GPGGA,121556.42,1304.092101,N,07735.505492,E,1,17,0.61,873.31,M,0.0,M,0.0,0000*7B
$GPGSV,3,1,11,5,41,020,42.8,11,11,060,41.5,12,40,185,49.8,13,35,099,42.5*48
$GPGSV,3,2,11,15,55,143,42.6,18,18,300,39.4,21,15,034,43.5,23,31,236,45.0*70
$GPGSV,3,3,11,24,10,172,34.0,25,50,244,52.5,29,45,346,50.5*5A
$GLGSV,2,1,6,3,35,043,39.0,4,64,120,44.6,9,19,289,37.5,16,30,230,41.3*6B
$GLGSV,2,2,6,18,26,038,42.5,19,21,341,43.5*59
$GPRMC,121556.42,A,1304.092101,N,07735.505492,E,000.0,,020326,,,A*73
$GPGGA,121557.42,1304.092795,N,07735.504237,E,1,17,0.61,867.69,M,0.0,M,0.0,0000*71
$GPGSV,3,1,11,5,41,020,43.0,11,11,060,42.2,12,40,185,49.6,13,35,099,42.6*48
$GPGSV,3,2,11,15,55,143,43.0,18,18,300,39.1,21,15,034,44.0,23,31,236,45.3*73
$GPGSV,3,3,11,24,10,172,34.1,25,50,244,53.3,29,45,346,50.7*5E
$GLGSV,2,1,6,3,35,043,38.9,4,64,120,45.0,9,19,289,38.7,16,30,230,41.9*63
$GLGSV,2,2,6,18,26,038,43.4,19,21,341,44.3*58
$GPRMC,121557.42,A,1304.092795,N,07735.504237,E,000.0,,020326,,,A*71
$GPGGA,121558.42,1304.091634,N,07735.505343,E,1,17,0.61,872.19,M,0.0,M,0.0,0000*77
$GPGSV,3,1,11,5,41,020,43.3,11,11,060,41.7,12,40,185,49.7,13,35,099,42.5*4F
$GPGSV,3,2,11,15,55,143,42.9,18,18,300,39.2,21,15,034,44.0,23,31,236,45.0*7B
$GPGSV,3,3,11,24,10,172,34.3,25,50,244,52.4,29,45,346,50.7*5A
$GLGSV,2,1,6,3,35,043,40.8,4,64,120,44.7,9,19,289,39.2,16,30,230,43.1*65
$GLGSV,2,2,6,18,26,038,42.9,19,21,341,45.1*57
$GPRMC,121558.42,A,1304.091634,N,07735.505343,E,000.0,,020326,,,A*74
$GPGGA,121559.42,1304.092181,N,07735.504796,E,1,17,0.61,874.87,M,0.0,M,0.0,0000*70
$GPGSV,3,1,11,5,41,020,43.0,11,11,060,42.3,12,40,185,49.8,13,35,099,42.8*49
$GPGSV,3,2,11,15,55,143,43.3,18,18,300,39.0,21,15,034,44.0,23,31,236,45.0*72
$GPGSV,3,3,11,24,10,172,33.9,25,50,244,53.4,29,45,346,50.8*59
$GLGSV,2,1,6,3,35,043,40.7,4,64,120,44.5,9,19,289,37.8,16,30,230,43.0*6D
$GLGSV,2,2,6,18,26,038,42.8,19,21,341,44.5*53
$GPRMC,121559.42,A,1304.092181,N,07735.504796,E,000.0,,020326,,,A*72
$GPGGA,121600.42,1304.092929,N,07735.505751,E,1,17,0.61,873.34,M,0.0,M,0.0,0000*70
$GPGSV,3,1,11,5,41,020,43.0,11,11,060,42.4,12,40,185,49.8,13,35,099,42.7*41
$GPGSV,3,2,11,15,55,143,43.4,18,18,300,39.0,21,15,034,43.8,23,31,236,45.0*7A
$GPGSV,3,3,11,24,10,172,33.9,25,50,244,52.8,29,45,346,50.6*5A
$GLGSV,2,1,6,3,35,043,39.6,4,64,120,45.3,9,19,289,37.3,16,30,230,42.2*6D
$GLGSV,2,2,6,18,26,038,43.6,19,21,341,44.0*59
$GPRMC,121600.42,A,1304.092929,N,07735.505751,E,000.0,,020326,,,A*7D
$GPGGA,121601.42,1304.092074,N,07735.505023,E,1,17,0.61,871.27,M,0.0,M,0.0,0000*72
$GPGSV,3,1,11,5,41,020,42.9,11,11,060,42.1,12,40,185,49.8,13,35,099,42.7*4C
$GPGSV,3,2,11,15,55,143,43.0,18,18,300,39.1,21,15,034,44.4,23,31,236,45.1*75
$GPGSV,3,3,11,24,10,171,34.0,25,50,244,52.1,29,45,346,50.6*5E
$GLGSV,2,1,6,3,35,043,40.4,4,64,120,45.3,9,19,289,38.3,16,30,230,42.8*64
$GLGSV,2,2,6,18,26,038,43.6,19,21,341,45.0*58
$GPRMC,121601.42,A,1304.092074,N,07735.505023,E,000.0,,020326,,,A*7F
$GPGGA,121602.42,1304.092846,N,07735.503726,E,1,17,0.61,869.97,M,0.0,M,0.0,0000*7E
$GPGSV,3,1,11,5,41,020,42.8,11,11,060,41.8,12,40,185,50.0,13,35,099,42.4*44
$GPGSV,3,2,11,15,55,143,43.2,18,18,300,38.7,21,15,034,44.2,23,31,236,45.0*77
$GPGSV,3,3,11,24,10,171,34.8,25,50,244,52.7,29,45,346,50.5*53
$GLGSV,2,1,6,3,35,043,41.1,4,64,120,44.9,9,19,289,37.7,16,30,230,42.9*61
$GLGSV,2,2,6,18,26,038,43.0,19,21,341,45.3*5D
$GPRMC,121602.42,A,1304.092846,N,07735.503726,E,000.0,,020326,,,A*71
$GPGGA,121603.42,1304.092070,N,07735.505850,E,1,17,0.61,873.59,M,0.0,M,0.0,0000*73
$GPGSV,3,1,11,5,41,020,42.8,11,11,060,41.6,12,40,185,49.7,13,35,099,42.3*42
$GPGSV,3,2,11,15,55,143,44.0,18,18,300,38.8,21,15,034,44.1,23,31,236,44.9*76
$GPGSV,3,3,11,24,10,171,34.5,25,50,244,52.3,29,45,346,50.3*5C
$GLGSV,2,1,6,3,35,043,40.6,4,64,120,44.5,9,19,289,36.1,16,30,230,42.2*67
$GLGSV,2,2,6,18,26,038,43.1,19,21,341,44.2*5C
$GPRMC,121603.42,A,1304.092070,N,07735.505850,E,000.0,,020326,,,A*75
$GPGGA,121604.42,1304.092895,N,07735.504983,E,1,17,0.61,869.73,M,0.0,M,0.0,0000*7A
$GPGSV,3,1,11,5,41,020,42.7,11,11,060,41.6,12,40,185,49.9,13,35,099,42.3*43
$GPGSV,3,2,11,15,55,143,43.6,18,18,300,39.0,21,15,034,44.5,23,31,236,45.0*72
$GPGSV,3,3,11,24,10,171,34.0,25,50,244,53.2,29,45,346,50.6*5C
$GLGSV,2,1,6,3,35,043,39.9,4,64,120,44.7,9,19,289,35.9,16,30,230,41.2*6C
$GLGSV,2,2,6,18,26,038,43.1,19,21,341,43.8*51
$GPRMC,121604.42,A,1304.092895,N,07735.504983,E,000.0,,020326,,,A*7F
$GPGGA,121605.42,1304.092716,N,07735.505513,E,1,17,0.61,875.16,M,0.0,M,0.0,0000*75
$GPGSV,3,1,11,5,41,020,42.8,11,11,060,41.5,12,40,185,49.5,13,35,099,42.3*43
$GPGSV,3,2,11,15,55,143,43.8,18,18,300,39.2,21,15,034,44.1,23,31,236,45.2*78
$GPGSV,3,3,11,24,10,171,33.9,25,50,244,53.2,29,45,346,50.3*57
$GLGSV,2,1,6,3,35,043,41.0,4,64,120,45.0,9,19,289,36.0,16,29,230,42.5*6A
$GLGSV,2,2,6,18,26,038,43.4,19,21,341,45.0*5A
$GPRMC,121605.42,A,1304.092716,N,07735.505513,E,000.0,,020326,,,A*7E
$GPGGA,121606.42,1304.092494,N,07735.504100,E,1,17,0.61,870.21,M,0.0,M,0.0,0000*79
$GPGSV,3,1,11,5,41,020,42.7,11,11,060,41.4,12,40,185,49.8,13,35,099,42.1*42
$GPGSV,3,2,11,15,55,143,43.5,18,18,300,38.7,21,15,034,44.1,23,31,236,44.9*7B
$GPGSV,3,3,11,24,10,171,34.1,25,50,244,53.0,29,45,346,50.5*5C
$GLGSV,2,1,6,3,35,043,40.7,4,64,120,44.3,9,19,289,35.3,16,29,230,42.8*63
$GLGSV,2,2,6,18,26,038,43.0,19,21,341,44.9*56
$GPRMC,121606.42,A,1304.092494,N,07735.504100,E,000.0,,020326,,,A*73
$GPGGA,121607.42,1304.092346,N,07735.504141,E,1,17,0.61,871.55,M,0.0,M,0.0,0000*77
$GPGSV,3,1,11,5,41,020,43.1,11,11,060,42.2,12,40,185,49.4,13,35,099,41.8*46
$GPGSV,3,2,11,15,55,143,43.5,18,18,300,38.8,21,15,034,44.5,23,31,236,44.9*70
$GPGSV,3,3,11,24,10,171,34.3,25,50,244,52.3,29,45,346,51.0*58
$GLGSV,2,1,6,3,35,043,39.3,4,64,120,44.7,9,19,289,34.2,16,29,230,41.7*61
$GLGSV,2,2,6,18,26,038,43.5,19,21,341,43.6*5B
$GPRMC,121607.42,A,1304.092346,N,07735.504141,E,000.0,,020326,,,A*7F
$GPGGA,121608.42,1304.092149,N,07735.504523,E,1,17,0.61,871.30,M,0.0,M,0.0,0000*76
$GPGSV,3,1,11,5,41,020,42.9,11,11,060,42.5,12,40,185,49.9,13,35,099,42.1*4F
$GPGSV,3,2,11,15,55,143,43.6,18,18,300,39.0,21,15,034,44.1,23,31,236,45.3*75
$GPGSV,3,3,11,24,10,171,34.3,25,50,244,52.4,29,45,346,50.7*59
$GLGSV,2,1,6,3,35,043,39.6,4,64,120,44.4,9,19,289,34.5,16,29,230,41.8*6F
$GLGSV,2,2,6,18,26,038,43.2,19,21,341,44.3*5E
$GPRMC,121608.42,A,1304.092149,N,07735.504523,E,000.0,,020326,,,A*7D
$GPGGA,121609.42,1304.092847,N,07735.504501,E,1,17,0.61,876.38,M,0.0,M,0.0,0000*7F
$GPGSV,3,1,11,5,41,020,43.1,11,11,060,42.3,12,40,185,50.1,13,35,099,41.9*4B
$GPGSV,3,2,11,15,55,143,44.1,18,18,300,38.5,21,15,034,44.1,23,31,236,45.4*76
$GPGSV,3,3,11,24,10,171,34.2,25,50,244,52.3,29,45,346,50.9*51
$GLGSV,2,1,6,3,35,043,40.9,4,64,120,44.7,9,19,289,34.3,16,29,230,43.0*61
$GLGSV,2,2,6,18,26,038,43.7,19,21,341,45.4*5D
$GPRMC,121609.42,A,1304.092847,N,07735.504501,E,000.0,,020326,,,A*7B
$GPGGA,121610.42,1304.091677,N,07735.505368,E,1,17,0.61,873.15,M,0.0,M,0.0,0000*7B
$GPGSV,3,1,11,5,41,020,43.0,11,11,060,42.3,12,40,185,50.0,13,35,099,41.8*4A
$GPGSV,3,2,11,15,55,143,43.7,18,18,300,38.8,21,15,034,44.5,23,31,236,45.5*7F
$GPGSV,3,3,11,24,10,171,34.2,25,50,244,52.5,29,45,346,50.7*59
$GLGSV,2,1,6,3,35,043,40.6,4,64,120,44.3,9,19,289,32.8,16,29,230,42.8*6E
$GLGSV,2,2,6,18,26,038,42.9,19,21,341,44.8*5F
$GPRMC,121610.42,A,1304.091677,N,07735.505368,E,000.0,,020326,,,A*75
$GPGGA,121611.42,1304.091873,N,07735.504804,E,1,17,0.61,872.16,M,0.0,M,0.0,0000*72
$GPGSV,3,1,11,5,41,020,42.9,11,11,060,42.0,12,40,185,49.8,13,35,099,41.5*4C
$GPGSV,3,2,11,15,55,143,43.8,18,18,300,39.4,21,15,034,44.9,23,31,236,45.2*76
$GPGSV,3,3,11,24,10,171,34.1,25,50,244,52.7,29,45,346,50.8*57
$GLGSV,2,1,6,3,35,043,39.5,4,64,120,45.1,9,19,289,32.6,16,29,230,42.1*67
$GLGSV,2,2,6,18,26,038,43.9,19,21,341,44.8*5E
$GPRMC,121611.42,A,1304.091873,N,07735.504804,E,000.0,,020326,,,A*7E
$GPGGA,121612.42,1304.092506,N,07735.506778,E,1,17,0.61,881.97,M,0.0,M,0.0,0000*7E
$GPGSV,3,1,11,5,41,020,43.0,11,11,060,42.2,12,40,185,49.7,13,35,099,41.4*48
$GPGSV,3,2,11,15,55,143,44.1,18,18,300,39.6,21,15,034,44.2,23,31,236,45.2*71
$GPGSV,3,3,11,24,10,171,33.8,25,50,244,52.2,29,45,346,50.4*50
$GLGSV,2,1,6,3,35,043,39.4,4,64,120,44.3,9,19,289,33.5,16,29,230,42.9*6F
$GLGSV,2,2,6,18,26,038,43.5,19,21,341,45.2*59
$GPRMC,121612.42,A,1304.092506,N,07735.506778,E,000.0,,020326,,,A*77
$GPGGA,121613.42,1304.092423,N,07735.505980,E,1,17,0.61,882.21,M,0.0,M,0.0,0000*7D
$GPGSV,3,1,11,5,41,020,43.3,11,11,060,42.4,12,40,185,50.1,13,35,099,41.2*45
$GPGSV,3,2,11,15,55,143,44.1,18,18,300,39.2,21,15,034,44.5,23,31,236,45.4*74
$GPGSV,3,3,11,24,10,171,33.5,25,50,244,52.4,29,45,346,50.6*59
$GLGSV,2,1,6,3,35,043,40.3,4,64,120,43.9,9,19,289,33.0,16,29,230,43.0*66
$GLGSV,2,2,6,18,26,038,42.9,19,21,341,45.2*54
$GPRMC,121613.42,A,1304.092423,N,07735.505980,E,000.0,,020326,,,A*7A
$GPGGA,121614.42,1304.092601,N,07735.505154,E,1,17,0.61,876.69,M,0.0,M,0.0,0000*7E
$GPGSV,3,1,11,5,41,020,43.3,11,11,060,42.1,12,40,185,49.6,13,35,099,40.9*45
$GPGSV,3,2,11,15,55,143,44.2,18,18,300,39.2,21,15,034,44.5,23,31,236,45.2*71
$GPGSV,3,3,11,24,10,171,33.6,25,50,244,52.1,29,45,346,50.6*5F
$GLGSV,2,1,6,3,35,043,39.6,4,64,120,44.0,9,19,289,31.4,16,29,230,42.1*65
$GLGSV,2,2,6,18,26,038,42.6,19,21,341,44.3*5B
$GPRMC,121614.42,A,1304.092601,N,07735.505154,E,000.0,,020326,,,A*7E
$GPGGA,121615.42,1304.091793,N,07735.504415,E,1,17,0.61,871.60,M,0.0,M,0.0,0000*79
$GPGSV,3,1,11,5,41,020,43.3,11,11,060,41.9,12,40,185,49.8,13,35,099,41.4*4C
$GPGSV,3,2,11,15,55,143,44.0,18,18,300,39.4,21,15,034,44.5,23,31,236,45.2*75
$GPGSV,3,3,11,24,10,171,34.1,25,50,244,51.9,29,45,346,50.7*55
$GLGSV,2,1,6,3,35,043,38.7,4,64,120,44.2,9,19,289,32.2,16,29,230,41.3*63
$GLGSV,2,2,6,18,26,038,43.3,19,21,341,43.8*53
$GPRMC,121615.42,A,1304.091793,N,07735.504415,E,000.0,,020326,,,A*77
$GPGGA,121616.42,1304.092897,N,07735.505868,E,1,17,0.61,875.11,M,0.0,M,0.0,0000*77
$GPGSV,3,1,11,5,41,020,43.2,11,11,060,41.5,12,40,185,49.8,13,35,099,40.7*43
$GPGSV,3,2,11,15,55,143,44.2,18,18,300,39.4,21,15,034,44.5,23,31,236,45.4*71
$GPGSV,3,3,11,24,10,171,33.2,25,50,244,52.4,29,45,346,50.4*5C
$GLGSV,2,1,6,3,35,043,40.1,4,64,120,43.9,9,19,289,31.8,16,29,230,41.9*65
$GLGSV,2,2,6,18,26,039,42.6,19,21,341,44.5*5C
$GPRMC,121616.42,A,1304.092897,N,07735.505868,E,000.0,,020326,,,A*7B
$GPGGA,121617.42,1304.091769,N,07735.506578,E,1,17,0.61,872.70,M,0.0,M,0.0,0000*74
$GPGSV,3,1,11,5,41,020,43.2,11,11,060,41.8,12,40,185,49.4,13,35,099,40.9*4C
$GPGSV,3,2,11,15,55,143,44.5,18,18,300,39.3,21,15,034,44.7,23,31,236,45.1*76
$GPGSV,3,3,11,24,10,171,34.1,25,50,244,51.9,29,45,346,50.7*55
$GLGSV,2,1,6,3,35,043,40.2,4,65,120,42.9,9,19,289,31.7,16,29,230,42.1*62
$GLGSV,2,2,6,18,26,039,42.2,19,21,342,44.5*5B
$GPRMC,121617.42,A,1304.091769,N,07735.506578,E,000.0,,020326,,,A*78
$GPGGA,121618.42,1304.092469,N,07735.505890,E,1,17,0.61,873.49,M,0.0,M,0.0,0000*78
$GPGSV,3,1,11,5,41,020,43.3,11,11,060,41.6,12,40,185,49.7,13,35,099,41.3*4B
$GPGSV,3,2,11,15,55,143,44.3,18,18,300,39.6,21,15,034,44.6,23,31,236,45.1*74
$GPGSV,3,3,11,24,10,171,33.4,25,50,244,52.7,29,45,346,50.6*5B
$GLGSV,2,1,6,3,35,043,39.2,4,65,120,43.8,9,19,289,31.2,16,29,230,41.5*6E
$GLGSV,2,2,6,18,26,039,43.1,19,21,342,43.6*5D
$GPRMC,121618.42,A,1304.092469,N,07735.505890,E,000.0,,020326,,,A*7F
$GPGGA,121619.42,1304.092045,N,07735.504971,E,1,17,0.61,870.36,M,0.0,M,0.0,0000*77
$GPGSV,3,1,11,5,41,020,43.7,11,11,060,41.7,12,40,185,49.6,13,35,099,41.4*48
$GPGSV,3,2,11,15,55,143,44.7,18,18,300,39.9,21,15,034,44.6,23,31,236,45.5*7B
$GPGSV,3,3,11,24,10,171,33.3,25,50,243,52.4,29,45,346,50.8*56
$GLGSV,2,1,6,3,35,043,40.0,4,65,120,44.2,9,19,289,32.9,16,29,230,41.5*67
$GLGSV,2,2,6,18,26,039,43.4,19,21,342,44.4*5D
$GPRMC,121619.42,A,1304.092045,N,07735.504971,E,000.0,,020326,,,A*7B
$GPGGA,121620.42,1304.091710,N,07735.506019,E,1,17,0.61,876.03,M,0.0,M,0.0,0000*7C
$GPGSV,3,1,11,5,41,020,44.1,11,11,060,42.2,12,40,185,49.6,13,35,099,41.4*4F
$GPGSV,3,2,11,15,55,143,44.6,18,18,300,39.6,21,15,034,45.0,23,31,236,45.3*74
$GPGSV,3,3,11,24,10,171,33.8,25,50,243,52.2,29,45,346,50.8*5B
$GLGSV,2,1,6,3,35,043,43.7,4,65,120,46.4,9,19,289,35.0,16,29,230,44.7*6E
$GLGSV,2,2,6,18,26,039,45.0,19,21,342,47.8*50
$GPRMC,121620.42,A,1304.091710,N,07735.506019,E,000.0,,020326,,,A*70
$GPGGA,121621.42,1304.091768,N,07735.506343,E,1,17,0.61,874.40,M,0.0,M,0.0,0000*7B
$GPGSV,3,1,11,5,41,020,43.9,11,11,060,42.6,12,40,185,49.9,13,35,099,41.6*49
$GPGSV,3,2,11,15,55,143,44.8,18,18,300,40.3,21,15,034,45.1,23,31,236,45.8*7B
$GPGSV,3,3,11,24,10,171,34.1,25,50,243,52.3,29,45,346,51.2*5F
$GLGSV,2,1,6,3,35,043,43.1,4,65,120,46.4,9,19,289,34.2,16,29,230,44.3*6F
$GLGSV,2,2,6,18,26,039,44.5,19,21,342,46.8*55
$GPRMC,121621.42,A,1304.091768,N,07735.506343,E,000.0,,020326,,,A*72
$GPGGA,121622.42,1304.092326,N,07735.506283,E,1,17,0.61,875.52,M,0.0,M,0.0,0000*7A
$GPGSV,3,1,11,5,41,020,43.5,11,11,060,41.7,12,40,185,49.7,13,35,099,41.8*47
$GPGSV,3,2,11,15,55,143,44.3,18,18,300,40.0,21,15,034,45.0,23,31,236,45.3*79
$GPGSV,3,3,11,24,10,171,33.7,25,50,243,51.7,29,45,346,50.5*5F
$GLGSV,2,1,6,3,35,043,42.0,4,65,120,46.2,9,19,289,33.4,16,29,230,43.0*6C
$GLGSV,2,2,6,18,26,039,44.7,19,21,342,45.9*55
$GPRMC,121622.42,A,1304.092326,N,07735.506283,E,000.0,,020326,,,A*71
$GPGGA,121623.42,1304.091439,N,07735.505420,E,1,17,0.61,874.83,M,0.0,M,0.0,0000*70
$GPGSV,3,1,11,5,41,020,43.8,11,11,060,41.8,12,40,185,49.2,13,35,099,41.5*4D
$GPGSV,3,2,11,15,55,143,44.3,18,18,300,40.0,21,15,034,45.1,23,31,236,45.4*7F
$GPGSV,3,3,11,24,10,171,33.9,25,50,243,51.9,29,45,346,50.6*5C
$GLGSV,2,1,6,3,35,043,41.7,4,65,120,46.0,9,19,289,35.0,16,29,229,43.9*69
$GLGSV,2,2,6,18,26,039,45.0,19,21,342,46.5*5C
$GPRMC,121623.42,A,1304.091439,N,07735.505420,E,000.0,,020326,,,A*76
$GPGGA,121624.42,1304.091690,N,07735.505331,E,1,17,0.61,876.94,M,0.0,M,0.0,0000*75
$GPGSV,3,1,11,5,41,020,43.9,11,11,060,41.6,12,40,185,49.4,13,35,099,41.9*48
$GPGSV,3,2,11,15,55,143,44.6,18,18,300,40.3,21,15,034,45.0,23,31,236,45.7*7B
$GPGSV,3,3,11,24,10,171,33.9,25,50,243,52.5,29,45,346,50.6*53
$GLGSV,2,1,6,3,35,043,42.3,4,65,120,44.9,9,19,289,35.1,16,29,229,43.8*65
$GLGSV,2,2,6,18,26,039,43.7,19,21,342,46.4*5C
$GPRMC,121624.42,A,1304.091690,N,07735.505331,E,000.0,,020326,,,A*77
$GPGGA,121625.42,1304.091926,N,07735.506194,E,1,17,0.61,877.15,M,0.0,M,0.0,0000*70
$GPGSV,3,1,11,5,41,020,43.9,11,11,060,42.0,12,40,185,49.3,13,35,099,42.0*40
$GPGSV,3,2,11,15,55,143,44.9,18,18,300,40.4,21,15,034,45.0,23,31,236,46.0*77
$GPGSV,3,3,11,24,10,171,34.2,25,50,243,52.3,29,45,346,51.1*5F
$GLGSV,2,1,6,3,35,043,42.2,4,65,120,45.4,9,19,289,34.3,16,29,229,42.9*6B
$GLGSV,2,2,6,18,26,039,44.0,19,21,342,45.6*5D
$GPRMC,121625.42,A,1304.091926,N,07735.506194,E,000.0,,020326,,,A*7A
$GPGGA,121626.42,1304.091490,N,07735.505841,E,1,17,0.61,873.91,M,0.0,M,0.0,0000*79
$GPGSV,3,1,11,5,41,020,44.0,11,11,060,41.7,12,40,185,49.2,13,35,099,42.0*4B
$GPGSV,3,2,11,15,55,143,44.5,18,18,300,40.5,21,15,034,44.9,23,31,236,45.5*74
$GPGSV,3,3,11,24,10,171,34.2,25,50,243,52.7,29,45,346,51.2*58
$GLGSV,2,1,6,3,35,043,42.4,4,65,120,47.0,9,19,289,35.6,16,29,229,43.4*63
$GLGSV,2,2,6,18,26,039,45.8,19,21,342,46.3*52
$GPRMC,121626.42,A,1304.091490,N,07735.505841,E,000.0,,020326,,,A*7B
$GPGGA,121627.42,1304.092708,N,07735.505036,E,1,17,0.61,875.32,M,0.0,M,0.0,0000*7E
$GPGSV,3,1,11,5,41,020,44.3,11,11,060,42.1,12,40,185,50.1,13,35,099,42.4*42
$GPGSV,3,2,11,15,55,143,44.8,18,18,300,40.5,21,15,034,45.2,23,31,236,45.9*7F
$GPGSV,3,3,11,24,10,171,34.3,25,50,243,52.6,29,45,346,51.2*58
$GLGSV,2,1,6,3,35,043,43.7,4,65,120,47.2,9,19,289,36.3,16,29,229,44.9*6F
$GLGSV,2,2,6,18,26,039,46.1,19,21,342,47.6*5C
$GPRMC,121627.42,A,1304.092708,N,07735.505036,E,000.0,,020326,,,A*73
$GPGGA,121628.42,1304.092901,N,07735.505376,E,1,17,0.61,878.23,M,0.0,M,0.0,0000*7C
$GPGSV,3,1,11,5,41,020,44.2,11,11,060,42.2,12,40,185,49.8,13,35,099,42.2*47
$GPGSV,3,2,11,15,55,143,44.7,18,18,300,40.3,21,15,034,45.7,23,31,236,46.0*79
$GPGSV,3,3,11,24,10,171,34.6,25,50,243,52.6,29,45,346,50.8*56
$GLGSV,2,1,6,3,35,043,43.4,4,65,120,45.6,9,19,289,35.4,16,29,229,44.5*62
$GLGSV,2,2,6,18,26,039,44.7,19,21,342,47.1*5F
$GPRMC,121628.42,A,1304.092901,N,07735.505376,E,000.0,,020326,,,A*7C
$GPGGA,121629.42,1304.093115,N,07735.505357,E,1,17,0.61,877.68,M,0.0,M,0.0,0000*72
$GPGSV,3,1,11,5,41,020,44.2,11,11,060,42.1,12,40,185,49.7,13,35,099,41.8*42
$GPGSV,3,2,11,15,55,143,45.2,18,18,300,40.1,21,15,034,45.1,23,31,236,46.1*78
$GPGSV,3,3,11,24,10,171,34.5,25,50,243,52.7,29,45,346,51.0*5D
$GLGSV,2,1,6,3,35,043,42.2,4,65,120,46.4,9,19,289,35.0,16,29,229,43.2*60
$GLGSV,2,2,6,18,26,039,45.6,19,21,342,46.1*5E
$GPRMC,121629.42,A,1304.093115,N,07735.505357,E,000.0,,020326,,,A*72
$GPGGA,121630.42,1304.092845,N,07735.505486,E,1,17,0.61,877.18,M,0.0,M,0.0,0000*7B
$GPGSV,3,1,11,5,41,020,44.3,11,11,060,42.2,12,40,185,49.5,13,35,099,42.2*4B
$GPGSV,3,2,11,15,55,143,44.6,18,18,300,40.3,21,15,034,45.1,23,31,236,46.2*7C
$GPGSV,3,3,11,24,10,171,33.9,25,50,243,52.3,29,45,346,51.0*52
$GLGSV,2,1,6,3,35,043,42.4,4,65,120,46.3,9,19,289,35.8,16,29,229,43.2*69
$GLGSV,2,2,6,18,26,039,45.7,19,21,342,46.4*5A
$GPRMC,121630.42,A,1304.092845,N,07735.505486,E,000.0,,020326,,,A*7C
$GPGGA,121631.42,1304.094130,N,07735.505119,E,1,17,0.61,881.26,M,0.0,M,0.0,0000*70
$GPGSV,3,1,11,5,41,020,44.5,11,11,060,42.3,12,40,185,49.7,13,35,099,41.9*46
$GPGSV,3,2,11,15,55,143,45.3,18,18,300,39.7,21,15,034,45.1,23,31,236,45.8*7B
$GPGSV,3,3,11,24,10,171,34.1,25,50,243,52.2,29,45,346,51.1*5D
$GLGSV,2,1,6,3,35,043,43.3,4,65,120,45.9,9,19,289,35.8,16,29,229,44.1*62
$GLGSV,2,2,6,18,26,039,44.7,19,21,342,46.7*58
$GPRMC,121631.42,A,1304.094130,N,07735.505119,E,000.0,,020326,,,A*73
$GPGGA,121632.42,1304.092943,N,07735.506308,E,1,17,0.61,879.46,M,0.0,M,0.0,0000*79
$GPGSV,3,1,11,5,41,020,44.2,11,11,060,42.6,12,40,185,49.2,13,35,099,42.1*4A
$GPGSV,3,2,11,15,55,143,45.5,18,18,300,40.2,21,15,034,45.1,23,31,236,45.6*78
$GPGSV,3,3,11,24,10,171,33.8,25,50,243,52.3,29,45,346,51.0*53
$GLGSV,2,1,6,3,35,043,43.0,4,65,120,45.6,9,19,289,34.5,16,29,229,43.6*62
$GLGSV,2,2,6,18,26,039,44.5,19,21,342,46.1*5C
$GPRMC,121632.42,A,1304.092943,N,07735.506308,E,000.0,,020326,,,A*7B
$GPGGA,121633.42,1304.092956,N,07735.505887,E,1,17,0.61,882.48,M,0.0,M,0.0,0000*79
$GPGSV,3,1,11,5,41,020,43.9,11,11,060,42.1,12,40,185,49.9,13,35,099,42.5*4E
$GPGSV,3,2,11,15,55,143,45.4,18,18,300,40.0,21,15,034,44.7,23,31,236,45.5*7F
$GPGSV,3,3,11,24,10,171,34.8,25,50,243,51.8,29,45,346,50.9*54
$GLGSV,2,1,6,3,35,043,42.3,4,65,120,46.5,9,19,289,34.4,16,29,229,42.9*6F
$GLGSV,2,2,6,18,26,039,45.1,19,21,342,45.5*5E
$GPRMC,121633.42,A,1304.092956,N,07735.505887,E,000.0,,020326,,,A*71
$GPGGA,121634.42,1304.092893,N,07735.505643,E,1,17,0.61,879.60,M,0.0,M,0.0,0000*7E
$GPGSV,3,1,11,5,41,020,43.7,11,11,060,42.5,12,40,185,49.7,13,35,099,42.4*4B
$GPGSV,3,2,11,15,55,143,45.3,18,18,300,40.2,21,15,034,45.1,23,31,236,45.6*7E
$GPGSV,3,3,11,24,10,171,34.7,25,50,243,52.4,29,45,346,50.8*55
$GLGSV,2,1,6,3,35,043,42.7,4,65,120,45.8,9,19,289,35.1,16,29,229,43.5*6C
$GLGSV,2,2,6,18,26,039,45.1,19,21,342,46.1*59
$GPRMC,121634.42,A,1304.092893,N,07735.505643,E,000.0,,020326,,,A*78
$GPGGA,121635.42,1304.092932,N,07735.504889,E,1,17,0.61,877.85,M,0.0,M,0.0,0000*79
$GPGSV,3,1,11,5,41,020,43.8,11,11,060,42.7,12,40,185,49.5,13,35,099,42.6*46
$GPGSV,3,2,11,15,55,143,45.4,18,18,300,39.9,21,15,034,45.0,23,31,236,46.0*78
$GPGSV,3,3,11,24,10,171,34.6,25,50,243,52.1,29,45,346,50.7*5E
$GLGSV,2,1,6,3,35,043,43.2,4,65,120,45.5,9,19,289,34.7,16,29,229,44.0*60
$GLGSV,2,2,6,18,26,039,43.9,19,21,342,46.1*57
$GPRMC,121635.42,A,1304.092932,N,07735.504889,E,000.0,,020326,,,A*7A
$GPGGA,121636.42,1304.092454,N,07735.505434,E,1,17,0.61,878.28,M,0.0,M,0.0,0000*74
$GPGSV,3,1,11,5,41,020,44.0,11,11,060,42.9,12,40,185,49.6,13,35,099,42.7*45
$GPGSV,3,2,11,15,55,143,45.7,18,18,300,40.5,21,15,034,44.9,23,32,236,46.2*70
$GPGSV,3,3,11,24,10,171,34.4,25,50,243,52.6,29,45,346,51.0*5D
$GLGSV,2,1,6,3,35,043,42.9,4,65,119,45.6,9,19,289,33.7,16,29,229,43.2*61
$GLGSV,2,2,6,18,26,039,44.5,19,21,342,45.9*57
$GPRMC,121636.42,A,1304.092454,N,07735.505434,E,000.0,,020326,,,A*7F
$GPGGA,121637.42,1304.093295,N,07735.505026,E,1,17,0.61,877.62,M,0.0,M,0.0,0000*79
$GPGSV,3,1,11,5,41,020,44.3,11,11,060,42.6,12,40,185,49.5,13,35,099,43.0*4C
$GPGSV,3,2,11,15,55,143,44.9,18,18,300,40.6,21,15,034,44.8,23,32,236,46.0*7F
$GPGSV,3,3,11,24,10,171,34.2,25,50,243,52.8,29,45,346,50.7*53
$GLGSV,2,1,6,3,35,043,42.9,4,65,119,46.5,9,19,288,34.0,16,29,229,43.0*62
$GLGSV,2,2,6,18,26,039,45.2,19,21,342,45.8*50
$GPRMC,121637.42,A,1304.093295,N,07735.505026,E,000.0,,020326,,,A*73
$GPGGA,121638.42,1304.093209,N,07735.504783,E,1,17,0.61,874.80,M,0.0,M,0.0,0000*75
$GPGSV,3,1,11,5,41,020,44.3,11,11,060,42.8,12,40,185,49.4,13,35,099,42.8*4A
$GPGSV,3,2,11,15,55,143,45.3,18,18,300,40.3,21,15,034,45.5,23,32,236,46.1*7C
$GPGSV,3,3,11,24,10,171,33.9,25,50,243,52.6,29,45,346,50.8*5E
$GLGSV,2,1,6,3,35,043,43.6,4,65,119,46.4,9,19,288,33.8,16,29,229,43.7*65
$GLGSV,2,2,6,18,26,039,45.1,19,21,342,46.5*5D
$GPRMC,121638.42,A,1304.093209,N,07735.504783,E,000.0,,020326,,,A*70
$GPGGA,121639.42,1304.093913,N,07735.504376,E,1,17,0.61,875.51,M,0.0,M,0.0,0000*77
$GPGSV,3,1,11,5,41,020,43.9,11,11,060,43.0,12,40,185,49.4,13,35,099,42.7*41
$GPGSV,3,2,11,15,55,143,45.4,18,18,300,40.3,21,15,034,45.3,23,32,236,46.0*7C
$GPGSV,3,3,11,24,10,171,34.4,25,50,243,52.8,29,45,346,50.7*55
$GLGSV,2,1,6,3,35,043,43.6,4,65,119,46.2,9,19,288,32.6,16,29,229,44.1*6D
$GLGSV,2,2,6,18,26,039,45.0,19,21,342,46.5*5C
$GPRMC,121639.42,A,1304.093913,N,07735.504376,E,000.0,,020326,,,A*7F
$GPGGA,121640.42,1304.093328,N,07735.504421,E,1,17,0.61,877.20,M,0.0,M,0.0,0000*7A
$GPGSV,3,1,11,5,41,020,43.9,11,11,060,42.5,12,40,185,49.3,13,35,099,43.1*45
$GPGSV,3,2,11,15,55,143,45.1,18,18,300,40.3,21,15,034,45.1,23,32,236,45.8*70
$GPGSV,3,3,11,24,10,171,33.7,25,50,243,51.8,29,45,346,50.4*51
$GLGSV,2,1,6,3,35,043,42.3,4,65,119,46.2,9,19,288,32.3,16,29,229,42.4*6F
$GLGSV,2,2,6,18,26,039,45.1,19,21,342,45.0*5B
$GPRMC,121640.42,A,1304.093328,N,07735.504421,E,000.0,,020326,,,A*76
$GPGGA,121641.42,1304.093604,N,07735.505786,E,1,17,0.61,878.12,M,0.0,M,0.0,0000*71
$GPGSV,3,1,11,5,41,020,44.2,11,11,060,42.9,12,40,185,49.5,13,35,099,43.2*40
$GPGSV,3,2,11,15,55,143,45.0,18,18,300,40.6,21,15,034,45.0,23,32,236,45.9*74
$GPGSV,3,3,11,24,10,171,34.1,25,50,243,52.2,29,45,346,50.7*5A
$GLGSV,2,1,6,3,35,043,43.2,4,65,119,46.7,9,19,288,32.6,16,29,229,43.0*6A
$GLGSV,2,2,6,18,26,039,45.8,19,21,342,46.1*50
$GPRMC,121641.42,A,1304.093604,N,07735.505786,E,000.0,,020326,,,A*73
$GPGGA,121642.42,1304.093440,N,07735.504247,E,1,17,0.61,877.12,M,0.0,M,0.0,0000*76
$GPGSV,3,1,11,5,41,020,43.9,11,11,060,42.8,12,40,185,48.9,13,35,099,43.5*47
$GPGSV,3,2,11,15,55,143,45.0,18,18,300,39.9,21,15,034,44.9,23,32,236,45.8*7C
$GPGSV,3,3,11,24,10,171,34.1,25,50,243,52.2,29,45,346,50.7*5A
$GLGSV,2,1,6,3,35,043,44.2,4,65,119,45.8,9,19,288,33.3,16,29,229,44.2*60
$GLGSV,2,2,6,18,26,039,44.2,19,21,342,46.8*52
$GPRMC,121642.42,A,1304.093440,N,07735.504247,E,000.0,,020326,,,A*7B
$GPGGA,121643.42,1304.093621,N,07735.504304,E,1,17,0.61,875.94,M,0.0,M,0.0,0000*78
$GPGSV,3,1,11,5,41,020,44.2,11,11,061,42.4,12,40,185,49.5,13,35,099,43.7*49
$GPGSV,3,2,11,15,55,143,45.4,18,18,300,40.3,21,15,034,45.1,23,32,236,45.7*7A
$GPGSV,3,3,11,24,10,171,33.9,25,50,243,52.6,29,45,346,50.7*51
$GLGSV,2,1,6,3,35,043,44.0,4,65,119,46.1,9,19,288,31.9,16,29,229,43.8*6D
$GLGSV,2,2,6,18,26,039,44.8,19,21,342,46.1*51
$GPRMC,121643.42,A,1304.093621,N,07735.504304,E,000.0,,020326,,,A*79
$GPGGA,121644.42,1304.093515,N,07735.505302,E,1,17,0.61,875.70,M,0.0,M,0.0,0000*76
$GPGSV,3,1,11,5,41,020,43.9,11,11,061,42.8,12,40,185,49.8,13,35,099,43.3*40
$GPGSV,3,2,11,15,55,143,45.6,18,18,300,40.2,21,15,034,45.1,23,32,236,46.1*7C
$GPGSV,3,3,11,24,10,171,33.8,25,50,243,52.1,29,45,346,50.8*58
$GLGSV,2,1,6,3,35,043,43.4,4,65,119,47.0,9,19,288,31.7,16,29,229,43.4*6C
$GLGSV,2,2,6,18,26,039,45.6,19,21,342,45.9*55
$GPRMC,121644.42,A,1304.093515,N,07735.505302,E,000.0,,020326,,,A*7D
$GPGGA,121645.42,1304.092882,N,07735.504124,E,1,17,0.61,878.06,M,0.0,M,0.0,0000*7E
$GPGSV,3,1,11,5,41,020,44.1,11,11,061,42.7,12,40,185,49.5,13,35,099,43.5*4B
$GPGSV,3,2,11,15,55,143,45.3,18,18,300,40.5,21,15,034,45.3,23,32,236,45.7*79
$GPGSV,3,3,11,24,10,171,34.5,25,50,243,52.5,29,45,346,50.9*57
$GLGSV,2,1,6,3,35,043,43.7,4,65,119,47.2,9,19,288,32.7,16,29,229,44.3*6E
$GLGSV,2,2,6,18,26,039,45.6,19,21,342,46.8*57
$GPRMC,121645.42,A,1304.092882,N,07735.504124,E,000.0,,020326,,,A*79
$GPGGA,121646.42,1304.093317,N,07735.504258,E,1,17,0.61,872.90,M,0.0,M,0.0,0000*76
$GPGSV,3,1,11,5,41,020,43.4,11,11,061,43.2,12,40,185,49.9,13,35,098,43.5*40
$GPGSV,3,2,11,15,55,143,45.0,18,18,300,40.4,21,15,034,45.5,23,32,236,45.6*7C
$GPGSV,3,3,11,24,10,171,34.2,25,50,243,52.2,29,45,346,50.7*59
$GLGSV,2,1,6,3,35,043,44.3,4,65,119,46.4,9,19,288,33.2,16,29,229,44.1*6C
$GLGSV,2,2,6,18,26,039,44.6,19,21,342,46.8*56
$GPRMC,121646.42,A,1304.093317,N,07735.504258,E,000.0,,020326,,,A*74
$GPGGA,121647.42,1304.092330,N,07735.504875,E,1,17,0.61,871.91,M,0.0,M,0.0,0000*74
$GPGSV,3,1,11,5,41,020,43.5,11,11,061,42.8,12,40,185,49.4,13,35,098,43.5*47
$GPGSV,3,2,11,15,55,143,45.1,18,18,300,40.5,21,15,034,44.6,23,32,236,45.8*70
$GPGSV,3,3,11,24,10,171,33.8,25,50,243,52.1,29,45,346,50.8*58
$GLGSV,2,1,6,3,35,043,43.7,4,65,119,46.6,9,19,288,32.9,16,29,229,43.0*61
$GLGSV,2,2,6,18,26,039,44.3,19,21,342,45.8*50
$GPRMC,121647.42,A,1304.092330,N,07735.504875,E,000.0,,020326,,,A*74
$GPGGA,121648.42,1304.093020,N,07735.505386,E,1,17,0.61,875.54,M,0.0,M,0.0,0000*73
$GPGSV,3,1,11,5,41,020,43.7,11,11,061,42.9,12,40,185,49.1,13,35,098,42.9*4C
$GPGSV,3,2,11,15,55,143,45.3,18,18,300,40.1,21,15,034,44.5,23,32,236,45.6*7B
$GPGSV,3,3,11,24,10,171,34.1,25,50,243,51.6,29,45,346,50.5*5F
$GLGSV,2,1,6,3,35,043,43.3,4,65,119,47.3,9,19,288,32.7,16,29,229,42.9*67
$GLGSV,2,2,6,18,26,039,45.1,19,21,342,45.6*5D
$GPRMC,121648.42,A,1304.093020,N,07735.505386,E,000.0,,020326,,,A*7E
$GPGGA,121649.42,1304.092808,N,07735.504519,E,1,17,0.61,873.52,M,0.0,M,0.0,0000*70
$GPGSV,3,1,11,5,41,020,44.1,11,11,061,42.8,12,40,185,49.5,13,35,098,43.3*43
$GPGSV,3,2,11,15,55,143,45.4,18,18,300,40.0,21,15,034,44.5,23,32,236,45.9*72
$GPGSV,3,3,11,24,10,171,34.1,25,50,243,52.2,29,45,346,50.6*5B
$GLGSV,2,1,6,3,35,043,44.0,4,65,119,47.0,9,19,288,33.5,16,29,229,43.6*6D
$GLGSV,2,2,6,18,26,039,44.9,19,21,342,46.5*54
$GPRMC,121649.42,A,1304.092808,N,07735.504519,E,000.0,,020326,,,A*7D
$GPGGA,121650.42,1304.092564,N,07735.505236,E,1,17,0.61,871.94,M,0.0,M,0.0,0000*7C
$GPGSV,3,1,11,5,41,020,43.9,11,11,061,42.8,12,40,185,49.2,13,35,098,43.5*4D
$GPGSV,3,2,11,15,55,143,45.2,18,18,300,40.0,21,15,034,44.8,23,32,236,46.0*73
$GPGSV,3,3,11,24,10,171,33.5,25,50,243,52.1,29,45,346,50.6*5B
$GLGSV,2,1,6,3,35,043,44.2,4,65,119,46.4,9,19,288,32.4,16,29,229,43.5*69
$GLGSV,2,2,6,18,26,039,43.7,19,21,342,46.6*5E
$GPRMC,121650.42,A,1304.092564,N,07735.505236,E,000.0,,020326,,,A*79
$GPGGA,121651.42,1304.092745,N,07735.503851,E,1,17,0.61,870.19,M,0.0,M,0.0,0000*75
$GPGSV,3,1,11,5,41,020,43.9,11,11,061,42.5,12,40,185,49.7,13,35,098,43.6*46
$GPGSV,3,2,11,15,55,143,45.0,18,18,300,39.9,21,15,034,45.2,23,32,236,45.7*79
$GPGSV,3,3,11,24,10,171,34.2,25,50,243,52.4,29,45,346,50.5*5D
$GLGSV,2,1,6,3,35,043,43.0,4,65,119,46.9,9,19,288,32.6,16,29,229,42.2*65
$GLGSV,2,2,6,18,26,039,44.6,19,21,342,45.0*5D
$GPRMC,121651.42,A,1304.092745,N,07735.503851,E,000.0,,020326,,,A*74
$GPGGA,121652.42,1304.093167,N,07735.504553,E,1,17,0.61,874.79,M,0.0,M,0.0,0000*7B
$GPGSV,3,1,11,5,41,020,43.6,11,11,061,42.8,12,40,185,49.7,13,35,098,43.6*44
$GPGSV,3,2,11,15,55,143,45.1,18,18,300,40.3,21,15,034,45.0,23,32,236,45.7*7E
$GPGSV,3,3,11,24,10,171,34.0,25,50,243,52.0,29,45,346,50.7*59
$GLGSV,2,1,6,3,35,043,43.1,4,65,119,46.8,9,19,288,34.3,16,29,229,42.5*61
$GLGSV,2,2,6,18,26,039,45.2,19,21,342,45.4*5C
$GPRMC,121652.42,A,1304.093167,N,07735.504553,E,000.0,,020326,,,A*78
$GPGGA,121653.42,1304.092572,N,07735.505625,E,1,17,0.61,871.30,M,0.0,M,0.0,0000*70
$GPGSV,3,1,11,5,41,020,43.5,11,11,061,42.8,12,40,185,49.4,13,35,098,43.1*43
$GPGSV,3,2,11,15,55,143,45.1,18,18,300,39.6,21,15,034,45.2,23,32,236,45.5*75
$GPGSV,3,3,11,24,10,171,33.7,25,50,243,52.5,29,45,346,50.6*5D
$GLGSV,2,1,6,3,35,043,44.2,4,65,119,46.0,9,19,288,34.5,16,29,229,43.6*69
$GLGSV,2,2,6,18,26,039,44.2,19,21,342,46.2*58
$GPRMC,121653.42,A,1304.092572,N,07735.505625,E,000.0,,020326,,,A*7B
$GPGGA,121654.42,1304.092464,N,07735.504943,E,1,17,0.61,872.99,M,0.0,M,0.0,0000*7F
$GPGSV,3,1,11,5,41,020,43.6,11,11,061,43.0,12,40,185,49.7,13,35,098,43.2*49
$GPGSV,3,2,11,15,55,142,45.1,18,18,300,39.9,21,15,034,45.1,23,32,236,45.7*7A
$GPGSV,3,3,11,24,10,171,34.0,25,50,243,52.1,29,45,346,50.7*58
$GLGSV,2,1,6,3,35,043,43.6,4,65,119,46.2,9,19,288,34.1,16,29,229,43.2*68
$GLGSV,2,2,6,18,26,039,44.1,19,21,342,45.8*52
$GPRMC,121654.42,A,1304.092464,N,07735.504943,E,000.0,,020326,,,A*74
$GPGGA,121655.42,1304.092917,N,07735.504912,E,1,17,0.61,874.60,M,0.0,M,0.0,0000*73
$GPGSV,3,1,11,5,41,020,43.9,11,11,061,43.2,12,40,185,49.6,13,35,098,43.3*44
$GPGSV,3,2,11,15,55,142,44.9,18,18,300,39.9,21,15,034,45.2,23,32,236,45.8*7F
$GPGSV,3,3,11,24,10,171,33.5,25,50,243,51.9,29,45,346,50.7*51
$GLGSV,2,1,6,3,35,043,43.3,4,65,119,47.4,9,19,288,35.1,16,29,229,43.5*6C
$GLGSV,2,2,6,18,26,039,45.3,19,21,342,45.7*5E
$GPRMC,121655.42,A,1304.092917,N,07735.504912,E,000.0,,020326,,,A*78
$GPGGA,121656.42,1304.092703,N,07735.503584,E,1,17,0.61,870.43,M,0.0,M,0.0,0000*7A
$GPGSV,3,1,11,5,41,020,43.9,11,11,061,43.3,12,40,185,49.5,13,35,098,43.2*47
$GPGSV,3,2,11,15,55,142,45.2,18,18,300,40.0,21,15,034,44.9,23,32,236,45.4*74
$GPGSV,3,3,11,24,10,171,33.4,25,50,243,51.8,29,45,346,50.8*5E
$GLGSV,2,1,6,3,35,042,44.1,4,65,119,47.9,9,19,288,36.5,16,29,229,44.5*65
$GLGSV,2,2,6,18,26,039,45.6,19,21,342,47.3*5D
$GPRMC,121656.42,A,1304.092703,N,07735.503584,E,000.0,,020326,,,A*74
$GPGGA,121657.42,1304.092772,N,07735.503674,E,1,17,0.61,870.16,M,0.0,M,0.0,0000*71
$GPGSV,3,1,11,5,41,020,43.8,11,11,061,42.7,12,40,185,49.4,13,35,098,43.5*45
$GPGSV,3,2,11,15,55,142,44.9,18,18,300,40.0,21,15,034,45.1,23,32,236,45.6*75
$GPGSV,3,3,11,24,10,171,34.0,25,50,243,52.6,29,45,346,50.9*51
$GLGSV,2,1,6,3,35,042,45.1,4,65,119,47.2,9,19,288,37.4,16,29,229,44.8*62
$GLGSV,2,2,6,18,26,039,44.7,19,21,342,47.4*5A
$GPRMC,121657.42,A,1304.092772,N,07735.503674,E,000.0,,020326,,,A*7F
$GPGGA,121658.42,1304.092147,N,07735.504403,E,1,17,0.61,873.86,M,0.0,M,0.0,0000*71
$GPGSV,3,1,11,5,41,020,43.9,11,11,061,43.6,12,40,185,49.6,13,35,098,43.4*47
$GPGSV,3,2,11,15,55,142,45.2,18,18,300,40.5,21,15,034,45.1,23,32,236,45.5*79
$GPGSV,3,3,11,24,10,171,33.9,25,50,243,52.0,29,45,346,50.8*58
$GLGSV,2,1,6,3,35,042,44.5,4,65,119,47.4,9,19,288,37.1,16,29,229,43.9*62
$GLGSV,2,2,6,18,26,039,44.8,19,21,342,46.5*55
$GPRMC,121658.42,A,1304.092147,N,07735.504403,E,000.0,,020326,,,A*75
$GPGGA,121659.42,1304.092670,N,07735.504606,E,1,17,0.61,870.41,M,0.0,M,0.0,0000*7C
$GPGSV,3,1,11,5,41,020,43.8,11,11,061,42.8,12,40,185,49.5,13,35,098,43.4*4A
$GPGSV,3,2,11,15,55,142,45.1,18,18,300,40.2,21,15,034,45.3,23,32,236,45.4*7E
$GPGSV,3,3,11,24,10,171,34.0,25,50,243,52.0,29,45,346,50.9*57
$GLGSV,2,1,6,3,35,042,44.0,4,65,119,48.5,9,19,288,37.7,16,29,229,44.1*60
$GLGSV,2,2,6,18,26,039,45.8,19,21,342,46.6*57
$GPRMC,121659.42,A,1304.092670,N,07735.504606,E,000.0,,020326,,,A*70
$GPGGA,121700.42,1304.091789,N,07735.504471,E,1,17,0.61,869.47,M,0.0,M,0.0,0000*79
$GPGSV,3,1,11,5,41,020,43.9,11,11,061,43.0,12,40,185,49.4,13,35,098,43.0*47
$GPGSV,3,2,11,15,55,142,44.9,18,18,300,40.3,21,15,034,44.8,23,32,236,45.4*7C
$GPGSV,3,3,11,24,10,171,34.1,25,50,243,52.5,29,45,346,50.8*52
$GLGSV,2,1,6,3,35,042,45.0,4,65,119,48.2,9,19,288,38.7,16,29,229,44.7*6F
$GLGSV,2,2,6,18,26,039,45.5,19,21,342,47.1*5C
$GPRMC,121700.42,A,1304.091789,N,07735.504471,E,000.0,,020326,,,A*7B
$GPGGA,121701.42,1304.091800,N,07735.503877,E,1,17,0.61,868.87,M,0.0,M,0.0,0000*76
$GPGSV,3,1,11,5,41,020,43.5,11,11,061,43.1,12,40,185,49.4,13,35,098,42.6*4D
$GPGSV,3,2,11,15,55,142,44.4,18,18,300,39.6,21,15,034,45.1,23,32,236,44.7*70
$GPGSV,3,3,11,24,10,171,34.1,25,50,243,51.8,29,45,346,50.5*51
$GLGSV,2,1,6,3,35,042,44.8,4,65,119,47.8,9,19,288,38.3,16,29,229,44.7*67
$GLGSV,2,2,6,18,26,039,44.7,19,21,342,47.3*5D
$GPRMC,121701.42,A,1304.091800,N,07735.503877,E,000.0,,020326,,,A*79
$GPGGA,121702.42,1304.092578,N,07735.504111,E,1,17,0.61,868.79,M,0.0,M,0.0,0000*7B
$GPGSV,3,1,11,5,41,020,43.7,11,11,061,43.0,12,40,185,49.2,13,35,098,42.4*4A
$GPGSV,3,2,11,15,55,142,44.5,18,18,300,40.4,21,15,034,44.8,23,32,236,45.4*77
$GPGSV,3,3,11,24,10,171,33.8,25,50,243,51.7,29,45,346,50.8*5D
$GLGSV,2,1,6,3,35,042,44.3,4,65,119,48.4,9,19,288,37.9,16,29,229,43.9*63
$GLGSV,2,2,6,18,26,039,45.2,19,21,342,46.5*5E
$GPRMC,121702.42,A,1304.092578,N,07735.504111,E,000.0,,020326,,,A*75
$GPGGA,121703.42,1304.092232,N,07735.505220,E,1,17,0.61,873.35,M,0.0,M,0.0,0000*71
$GPGSV,3,1,11,5,41,020,43.3,11,11,061,42.7,12,40,185,49.1,13,35,098,42.9*46
$GPGSV,3,2,11,15,55,142,44.6,18,18,300,40.5,21,15,034,45.2,23,32,236,45.1*7B
$GPGSV,3,3,11,24,10,171,34.1,25,50,243,52.1,29,45,346,51.1*5E
$GLGSV,2,1,6,3,35,042,44.0,4,65,119,48.3,9,19,288,39.1,16,29,229,43.9*61
$GLGSV,2,2,6,18,26,039,45.9,19,21,342,46.6*56
$GPRMC,121703.42,A,1304.092232,N,07735.505220,E,000.0,,020326,,,A*7D
$GPGGA,121704.42,1304.092572,N,07735.504688,E,1,17,0.61,873.14,M,0.0,M,0.0,0000*71
$GPGSV,3,1,11,5,41,020,43.7,11,11,061,43.3,12,40,185,49.4,13,35,098,42.8*43
$GPGSV,3,2,11,15,55,142,44.7,18,18,300,40.3,21,15,034,44.9,23,32,236,45.5*72
$GPGSV,3,3,11,24,10,171,34.2,25,50,243,52.7,29,45,346,51.0*5A
$GLGSV,2,1,6,3,35,042,45.3,4,65,119,47.9,9,19,288,39.6,16,29,229,45.1*6F
$GLGSV,2,2,6,18,26,039,45.3,19,21,342,47.6*5D
$GPRMC,121704.42,A,1304.092572,N,07735.504688,E,000.0,,020326,,,A*7E
$GPGGA,121705.42,1304.092556,N,07735.503687,E,1,17,0.61,877.21,M,0.0,M,0.0,0000*7C
$GPGSV,3,1,11,5,41,020,43.2,11,11,061,43.1,12,40,185,49.2,13,35,098,42.6*4C
$GPGSV,3,2,11,15,55,142,44.5,18,18,300,40.4,21,15,034,45.2,23,32,236,45.3*7B
$GPGSV,3,3,11,24,10,171,34.0,25,50,243,52.6,29,45,346,50.6*5E
$GLGSV,2,1,6,3,35,042,44.9,4,65,119,47.9,9,19,288,38.5,16,29,229,44.8*6E
$GLGSV,2,2,6,18,26,039,45.1,19,21,342,46.8*50
$GPRMC,121705.42,A,1304.092556,N,07735.503687,E,000.0,,020326,,,A*71
$GPGGA,121706.42,1304.093052,N,07735.504852,E,1,17,0.61,875.33,M,0.0,M,0.0,0000*7F
$GPGSV,3,1,11,5,41,020,43.1,11,11,061,42.4,12,40,185,48.4,13,35,098,42.6*4C
$GPGSV,3,2,11,15,55,142,44.2,18,18,300,40.5,21,15,034,45.3,23,32,236,45.3*7C
$GPGSV,3,3,11,24,10,171,34.5,25,50,243,52.0,29,45,346,50.7*5C
$GLGSV,2,1,6,3,35,042,43.9,4,65,119,48.2,9,19,288,38.5,16,29,229,44.0*65
$GLGSV,2,2,6,18,26,039,45.5,19,21,342,46.5*59
$GPRMC,121706.42,A,1304.093052,N,07735.504852,E,000.0,,020326,,,A*73
$GPGGA,121707.42,1304.092923,N,07735.504366,E,1,17,0.61,873.19,M,0.0,M,0.0,0000*72
$GPGSV,3,1,11,5,41,020,42.7,11,11,061,42.3,12,40,185,49.1,13,35,098,42.3*4D
$GPGSV,3,2,11,15,55,142,43.9,18,18,300,40.4,21,15,034,44.9,23,32,236,45.0*79
$GPGSV,3,3,11,24,10,171,34.9,25,50,243,51.7,29,45,346,50.5*56
$GLGSV,2,1,6,3,35,042,44.2,4,65,119,48.1,9,19,288,38.9,16,29,229,44.4*62
$GLGSV,2,2,6,18,26,039,45.3,19,21,342,47.0*5B
$GPRMC,121707.42,A,1304.092923,N,07735.504366,E,000.0,,020326,,,A*70
$GPGGA,121708.42,1304.093065,N,07735.505143,E,1,17,0.61,878.76,M,0.0,M,0.0,0000*71
$GPGSV,3,1,11,5,41,020,43.1,11,11,061,43.0,12,40,185,48.8,13,35,098,42.5*46
$GPGSV,3,2,11,15,55,142,44.1,18,18,300,40.7,21,15,034,45.1,23,32,236,45.1*7D
$GPGSV,3,3,11,24,10,171,34.7,25,50,243,52.2,29,45,346,50.6*5D
$GLGSV,2,1,6,3,35,042,44.3,4,65,119,47.9,9,19,288,39.3,16,29,229,44.6*6D
$GLGSV,2,2,6,18,26,039,44.7,19,21,342,46.9*56
$GPRMC,121708.42,A,1304.093065,N,07735.505143,E,000.0,,020326,,,A*71
$GPGGA,121709.42,1304.092920,N,07735.505088,E,1,17,0.61,875.83,M,0.0,M,0.0,0000*78
$GPGSV,3,1,11,5,41,020,43.0,11,11,061,42.6,12,40,185,48.9,13,35,098,42.5*41
$GPGSV,3,2,11,15,55,142,44.4,18,18,300,40.3,21,15,034,45.3,23,32,236,45.6*79
$GPGSV,3,3,11,24,10,171,35.0,25,50,243,52.1,29,45,346,50.7*59
$GLGSV,2,1,6,3,35,042,43.9,4,65,119,47.8,9,19,288,38.3,16,29,229,43.9*68
$GLGSV,2,2,6,18,26,039,44.8,19,21,342,46.4*54
$GPRMC,121709.42,A,1304.092920,N,07735.505088,E,000.0,,020326,,,A*7F
$GPGGA,121710.42,1304.091599,N,07735.504475,E,1,17,0.61,875.46,M,0.0,M,0.0,0000*73
$GPGSV,3,1,11,5,41,020,42.9,11,11,061,42.7,12,40,185,48.9,13,35,098,42.3*4E
$GPGSV,3,2,11,15,55,142,44.5,18,18,300,40.2,21,15,034,45.5,23,32,236,45.4*7D
$GPGSV,3,3,11,24,10,171,34.9,25,50,243,52.1,29,45,346,50.4*52
$GLGSV,2,1,6,3,35,042,43.1,4,65,119,47.9,9,19,288,38.2,16,29,229,43.1*68
$GLGSV,2,2,6,18,26,039,44.9,19,21,342,45.7*55
$GPRMC,121710.42,A,1304.091599,N,07735.504475,E,000.0,,020326,,,A*7D
$GPGGA,121711.42,1304.091738,N,07735.503987,E,1,17,0.61,870.83,M,0.0,M,0.0,0000*70
$GPGSV,3,1,11,5,41,020,42.4,11,11,061,42.9,12,40,185,48.8,13,35,098,42.1*4E
$GPGSV,3,2,11,15,55,142,44.1,18,18,300,40.8,21,15,034,45.3,23,32,236,45.4*75
$GPGSV,3,3,11,24,10,171,35.4,25,50,243,51.6,29,45,346,50.4*5A
$GLGSV,2,1,6,3,35,042,44.2,4,65,119,47.9,9,19,288,38.5,16,29,229,44.1*6C
$GLGSV,2,2,6,18,26,039,44.4,19,21,342,46.3*5F
$GPRMC,121711.42,A,1304.091738,N,07735.503987,E,000.0,,020326,,,A*72
$GPGGA,121712.42,1304.091863,N,07735.504620,E,1,17,0.61,876.77,M,0.0,M,0.0,0000*7A
$GPGSV,3,1,11,5,41,020,42.8,11,11,061,42.5,12,40,185,48.9,13,35,098,42.0*4E
$GPGSV,3,2,11,15,55,142,44.2,18,18,300,40.2,21,15,034,45.1,23,32,236,45.3*79
$GPGSV,3,3,11,24,10,171,34.5,25,50,243,51.8,29,45,346,50.2*52
$GLGSV,2,1,6,3,35,042,43.6,4,65,119,46.2,9,19,288,37.1,16,29,229,43.7*6F
$GLGSV,2,2,6,18,26,039,43.1,19,21,342,45.7*5A
$GPRMC,121712.42,A,1304.091863,N,07735.504620,E,000.0,,020326,,,A*75
$GPGGA,121713.42,1304.092183,N,07735.504378,E,1,17,0.61,875.62,M,0.0,M,0.0,0000*70
$GPGSV,3,1,11,5,41,020,42.5,11,11,061,42.8,12,40,185,48.9,13,35,098,41.3*4E
$GPGSV,3,2,11,15,55,142,43.6,18,18,300,40.7,21,15,034,45.1,23,32,236,45.4*78
$GPGSV,3,3,11,24,10,171,35.0,25,50,243,51.6,29,45,346,50.2*58
$GLGSV,2,1,6,3,35,042,42.7,4,65,119,47.3,9,19,288,37.0,16,29,229,42.5*6D
$GLGSV,2,2,6,18,26,039,44.1,19,21,342,45.4*5E
$GPRMC,121713.42,A,1304.092183,N,07735.504378,E,000.0,,020326,,,A*78
$GPGGA,121714.42,1304.092497,N,07735.504302,E,1,17,0.61,874.36,M,0.0,M,0.0,0000*7A
$GPGSV,3,1,11,5,41,020,42.6,11,11,061,42.8,12,40,185,48.4,13,35,098,41.1*42
$GPGSV,3,2,11,15,55,142,43.5,18,18,300,40.7,21,15,034,44.9,23,32,236,45.1*77
$GPGSV,3,3,11,24,10,171,35.2,25,50,243,51.7,29,45,346,50.2*5B
$GLGSV,2,1,6,3,35,042,42.4,4,65,119,47.4,9,19,288,37.6,16,29,229,42.3*69
$GLGSV,2,2,6,18,26,039,44.3,19,21,342,45.5*5D
$GPRMC,121714.42,A,1304.092497,N,07735.504302,E,000.0,,020326,,,A*72
$GPGGA,121715.42,1304.092615,N,07735.504361,E,1,17,0.61,875.53,M,0.0,M,0.0,0000*74
$GPGSV,3,1,11,5,41,020,42.5,11,11,061,42.6,12,40,185,48.9,13,35,098,41.5*46
$GPGSV,3,2,11,15,55,142,43.5,18,18,300,40.7,21,15,034,45.2,23,32,236,45.1*7D
$GPGSV,3,3,11,24,10,171,35.0,25,50,243,51.6,29,45,346,50.3*59
$GLGSV,2,1,6,3,35,042,43.6,4,65,119,46.7,9,19,288,37.3,16,29,229,43.6*69
$GLGSV,2,2,6,18,26,039,43.4,19,21,342,46.2*59
$GPRMC,121715.42,A,1304.092615,N,07735.504361,E,000.0,,020326,,,A*7E
$GPGGA,121716.42,1304.091756,N,07735.504511,E,1,17,0.61,875.48,M,0.0,M,0.0,0000*79
$GPGSV,3,1,11,5,41,020,42.4,11,11,061,42.8,12,40,185,49.3,13,35,098,41.6*41
$GPGSV,3,2,11,15,55,142,43.7,18,18,300,41.3,21,15,034,45.1,23,32,236,45.3*7B
$GPGSV,3,3,11,24,10,171,35.0,25,50,243,52.1,29,45,346,50.3*5D
$GLGSV,2,1,6,3,35,042,43.0,4,65,119,47.3,9,19,288,36.4,16,29,229,43.4*6E
$GLGSV,2,2,6,18,26,039,43.6,19,21,342,45.6*5C
$GPRMC,121716.42,A,1304.091756,N,07735.504511,E,000.0,,020326,,,A*79
$GPGGA,121717.42,1304.092503,N,07735.503930,E,1,17,0.61,877.38,M,0.0,M,0.0,0000*74
$GPGSV,3,1,11,5,41,020,42.5,11,11,061,42.9,12,40,185,48.9,13,35,098,41.4*48
$GPGSV,3,2,11,15,55,142,43.2,18,18,300,40.6,21,15,034,44.9,23,32,236,45.3*73
$GPGSV,3,3,11,24,10,171,35.1,25,50,243,52.0,29,45,346,50.4*5A
$GLGSV,2,1,6,3,35,042,42.2,4,65,119,47.8,9,19,288,35.9,16,29,229,42.6*6B
$GLGSV,2,2,6,18,26,039,44.6,19,21,342,45.1*5C
$GPRMC,121717.42,A,1304.092503,N,07735.503930,E,000.0,,020326,,,A*71
$GPGGA,121718.42,1304.092063,N,07735.503752,E,1,17,0.61,871.73,M,0.0,M,0.0,0000*7B
$GPGSV,3,1,11,5,41,020,42.3,11,11,061,43.0,12,40,185,48.6,13,35,098,41.1*4C
$GPGSV,3,2,11,15,55,142,43.3,18,18,300,40.7,21,15,034,44.8,23,32,236,45.2*73
$GPGSV,3,3,11,24,10,171,34.8,25,50,243,51.7,29,45,346,50.4*56
$GLGSV,2,1,6,3,35,042,42.9,4,65,119,47.9,9,19,288,37.2,16,29,229,43.8*67
$GLGSV,2,2,6,18,26,039,44.5,19,21,342,46.6*5B
$GPRMC,121718.42,A,1304.092063,N,07735.503752,E,000.0,,020326,,,A*77
$GPGGA,121719.42,1304.092244,N,07735.504208,E,1,17,0.61,877.34,M,0.0,M,0.0,0000*75
$GPGSV,3,1,11,5,41,020,42.1,11,11,061,42.4,12,40,185,48.7,13,35,098,41.3*48
$GPGSV,3,2,11,15,55,142,43.4,18,18,300,40.9,21,15,034,45.3,23,32,236,45.0*72
$GPGSV,3,3,11,24,10,171,35.1,25,50,243,51.4,29,45,346,50.4*5D
$GLGSV,2,1,6,3,34,042,43.1,4,65,119,47.2,9,19,288,37.5,16,29,229,43.7*6C
$GLGSV,2,2,6,18,26,039,43.7,19,21,342,46.7*5F
$GPRMC,121719.42,A,1304.092244,N,07735.504208,E,000.0,,020326,,,A*7C
$GPGGA,121720.42,1304.092538,N,07735.504275,E,1,17,0.61,877.58,M,0.0,M,0.0,0000*73
$GPGSV,3,1,11,5,41,020,42.1,11,11,061,43.2,12,40,185,48.8,13,35,098,41.4*47
$GPGSV,3,2,11,15,55,142,43.0,18,18,300,41.4,21,15,034,45.7,23,32,236,45.1*7F
$GPGSV,3,3,11,24,10,171,34.5,25,50,243,51.5,29,45,346,50.7*5A
$GLGSV,2,1,6,3,34,042,42.5,4,65,119,46.9,9,19,288,35.9,16,29,229,42.4*6F
$GLGSV,2,2,6,18,26,039,43.3,19,21,342,45.3*5C
$GPRMC,121720.42,A,1304.092538,N,07735.504275,E,000.0,,020326,,,A*70
$GPGGA,121721.42,1304.092079,N,07735.502738,E,1,17,0.61,865.73,M,0.0,M,0.0,0000*72
$GPGSV,3,1,11,5,41,020,42.4,11,11,061,43.1,12,40,185,49.1,13,35,098,41.1*4C
$GPGSV,3,2,11,15,55,142,43.5,18,18,300,41.1,21,15,034,45.5,23,32,236,45.1*7D
$GPGSV,3,3,11,24,10,171,35.2,25,50,243,51.7,29,45,346,50.3*5A
$GLGSV,2,1,6,3,34,042,42.2,4,65,119,48.0,9,19,288,36.9,16,29,229,43.0*69
$GLGSV,2,2,6,18,26,039,44.4,19,21,342,45.9*56
$GPRMC,121721.42,A,1304.092079,N,07735.502738,E,000.0,,020326,,,A*7B
$GPGGA,121722.42,1304.092006,N,07735.504488,E,1,17,0.61,875.50,M,0.0,M,0.0,0000*77
$GPGSV,3,1,11,5,41,020,42.2,11,11,061,43.0,12,40,185,49.1,13,35,098,41.1*4B
$GPGSV,3,2,11,15,55,142,43.2,18,18,300,41.4,21,15,034,45.7,23,32,236,45.2*7E
$GPGSV,3,3,11,24,10,171,35.1,25,50,243,51.5,29,45,346,50.3*5B
$GLGSV,2,1,6,3,34,042,42.6,4,65,119,48.1,9,19,288,37.6,16,29,229,43.6*64
$GLGSV,2,2,6,18,26,039,44.0,19,21,342,46.4*5C
$GPRMC,121722.42,A,1304.092006,N,07735.504488,E,000.0,,020326,,,A*7E
$GPGGA,121723.42,1304.092402,N,07735.504559,E,1,17,0.61,872.35,M,0.0,M,0.0,0000*7F
$GPGSV,3,1,11,5,41,020,42.2,11,11,061,43.4,12,40,185,48.7,13,35,098,41.4*4D
$GPGSV,3,2,11,15,56,142,43.5,18,18,300,41.8,21,15,034,45.5,23,32,236,45.1*77
$GPGSV,3,3,11,24,10,171,35.1,25,50,243,52.0,29,45,346,50.2*5C
$GLGSV,2,1,6,3,34,042,42.6,4,65,119,47.7,9,19,288,36.9,16,29,229,43.6*63
$GLGSV,2,2,6,18,26,039,43.6,19,21,342,46.4*5D
$GPRMC,121723.42,A,1304.092402,N,07735.504559,E,000.0,,020326,,,A*72
$GPGGA,121724.42,1304.092085,N,07735.504914,E,1,17,0.61,877.09,M,0.0,M,0.0,0000*7C
$GPGSV,3,1,11,5,41,020,42.6,11,11,061,43.2,12,40,185,48.9,13,35,098,41.1*44
$GPGSV,3,2,11,15,56,142,43.7,18,18,300,41.7,21,15,034,45.7,23,32,236,45.0*79
$GPGSV,3,3,11,24,10,171,34.1,25,50,243,52.1,29,45,346,50.3*5D
$GLGSV,2,1,6,3,34,042,41.3,4,65,119,48.2,9,19,288,36.9,16,29,229,42.5*6D
$GLGSV,2,2,6,18,26,039,44.5,19,21,342,45.4*5A
$GPRMC,121724.42,A,1304.092085,N,07735.504914,E,000.0,,020326,,,A*7B
$GPGGA,121725.42,1304.093167,N,07735.503747,E,1,17,0.61,873.59,M,0.0,M,0.0,0000*7F
$GPGSV,3,1,11,5,41,020,42.1,11,11,061,42.8,12,40,185,48.8,13,35,098,41.0*48
$GPGSV,3,2,11,15,56,142,43.0,18,18,300,41.4,21,15,034,45.2,23,32,236,44.9*70
$GPGSV,3,3,11,24,10,171,34.8,25,50,243,51.8,29,45,346,50.2*5F
$GLGSV,2,1,6,3,34,042,41.8,4,65,118,48.0,9,19,288,37.8,16,29,229,42.6*66
$GLGSV,2,2,6,18,26,039,44.6,19,21,342,46.0*5E
$GPRMC,121725.42,A,1304.093167,N,07735.503747,E,000.0,,020326,,,A*79
$GPGGA,121726.42,1304.091127,N,07735.503987,E,1,17,0.61,873.54,M,0.0,M,0.0,0000*75
$GPGSV,3,1,11,5,41,020,42.0,11,11,061,43.1,12,40,185,48.3,13,35,098,40.5*4E
$GPGSV,3,2,11,15,56,142,42.9,18,18,300,41.2,21,15,034,45.1,23,32,236,44.6*72
$GPGSV,3,3,11,24,10,171,34.1,25,50,243,51.6,29,45,346,50.0*5A
$GLGSV,2,1,6,3,34,042,41.5,4,65,118,46.7,9,19,288,37.0,16,29,229,42.7*6B
$GLGSV,2,2,6,18,26,039,42.8,19,21,342,45.5*50
$GPRMC,121726.42,A,1304.091127,N,07735.503987,E,000.0,,020326,,,A*7E
$GPGGA,121727.42,1304.091883,N,07735.504046,E,1,17,0.61,871.97,M,0.0,M,0.0,0000*7D
$GPGSV,3,1,11,5,41,020,42.1,11,11,061,42.7,12,40,185,48.9,13,35,098,40.6*41
$GPGSV,3,2,11,15,56,142,43.2,18,18,300,41.4,21,15,034,45.4,23,32,236,45.1*7D
$GPGSV,3,3,11,24,10,171,34.2,25,50,243,51.0,29,45,346,50.0*5F
$GLGSV,2,1,6,3,34,042,41.2,4,65,118,46.2,9,19,288,37.3,16,29,229,42.3*6E
$GLGSV,2,2,6,18,26,039,42.5,19,21,342,45.0*58
$GPRMC,121727.42,A,1304.091883,N,07735.504046,E,000.0,,020326,,,A*7B
$GPGGA,121728.42,1304.091612,N,07735.504889,E,1,17,0.61,875.13,M,0.0,M,0.0,0000*77
$GPGSV,3,1,11,5,41,020,42.4,11,11,061,43.1,12,39,185,49.2,13,35,098,40.6*47
$GPGSV,3,2,11,15,56,142,43.6,18,18,300,41.3,21,15,034,45.2,23,32,236,44.9*71
$GPGSV,3,3,11,24,10,171,34.5,25,50,243,51.2,29,45,346,50.1*5B
$GLGSV,2,1,6,3,34,042,41.0,4,65,118,47.9,9,19,288,38.2,16,29,229,42.1*6A
$GLGSV,2,2,6,18,26,039,44.0,19,21,342,45.7*5C
$GPRMC,121728.42,A,1304.091612,N,07735.504889,E,000.0,,020326,,,A*79
$GPGGA,121729.42,1304.092068,N,07735.504130,E,1,17,0.61,870.73,M,0.0,M,0.0,0000*76
$GPGSV,3,1,11,5,41,020,42.5,11,11,061,43.3,12,39,185,49.4,13,35,098,41.0*45
$GPGSV,3,2,11,15,56,142,43.6,18,18,300,41.8,21,15,034,45.4,23,32,236,45.0*74
$GPGSV,3,3,11,24,10,171,34.2,25,50,243,51.8,29,45,346,50.3*54
$GLGSV,2,1,6,3,34,042,41.0,4,65,118,47.7,9,19,288,39.0,16,29,229,43.1*66
$GLGSV,2,2,6,18,26,039,44.5,19,21,342,46.0*5D
$GPRMC,121729.42,A,1304.092068,N,07735.504130,E,000.0,,020326,,,A*7B
$GPGGA,121730.42,1304.091291,N,07735.503446,E,1,17,0.61,870.03,M,0.0,M,0.0,0000*7D
$GPGSV,3,1,11,5,41,020,42.5,11,11,061,43.8,12,39,185,49.4,13,35,098,41.3*4D
$GPGSV,3,2,11,15,56,142,43.3,18,18,300,42.1,21,15,034,45.9,23,32,236,45.3*75
$GPGSV,3,3,11,24,10,171,34.5,25,50,243,52.0,29,45,346,50.7*5C
$GLGSV,2,1,6,3,34,042,42.4,4,65,118,47.8,9,19,288,40.0,16,29,229,43.7*66
$GLGSV,2,2,6,18,26,039,44.0,19,21,342,46.8*50
$GPRMC,121730.42,A,1304.091291,N,07735.503446,E,000.0,,020326,,,A*77
$GPGGA,121731.42,1304.091900,N,07735.504076,E,1,17,0.61,874.54,M,0.0,M,0.0,0000*79
$GPGSV,3,1,11,5,41,020,42.4,11,11,061,42.7,12,39,185,48.5,13,35,098,40.4*44
$GPGSV,3,2,11,15,56,142,43.2,18,18,300,41.5,21,15,034,45.5,23,32,236,44.5*78
$GPGSV,3,3,11,24,10,171,34.7,25,50,243,51.3,29,45,346,50.5*5C
$GLGSV,2,1,6,3,34,042,41.1,4,65,118,47.3,9,19,288,38.6,16,29,229,42.6*62
$GLGSV,2,2,6,18,26,039,43.6,19,21,342,45.5*5F
$GPRMC,121731.42,A,1304.091900,N,07735.504076,E,000.0,,020326,,,A*75
$GPGGA,121732.42,1304.091955,N,07735.504497,E,1,17,0.61,870.61,M,0.0,M,0.0,0000*73
$GPGSV,3,1,11,5,41,020,42.7,11,11,061,43.2,12,39,185,49.0,13,35,098,41.0*42
$GPGSV,3,2,11,15,56,142,42.8,18,18,300,42.1,21,15,034,45.8,23,32,236,44.7*7B
$GPGSV,3,3,11,24,10,171,33.3,25,50,243,51.5,29,45,346,50.0*5C
$GLGSV,2,1,6,3,34,042,40.0,4,65,118,48.2,9,19,288,39.7,16,29,229,42.1*6B
$GLGSV,2,2,6,18,26,039,44.3,19,21,342,45.4*5C
$GPRMC,121732.42,A,1304.091955,N,07735.504497,E,000.0,,020326,,,A*7D
$GPGGA,121733.42,1304.091122,N,07735.505537,E,1,17,0.61,875.62,M,0.0,M,0.0,0000*76
$GPGSV,3,1,11,5,41,020,42.5,11,11,061,43.3,12,39,185,49.1,13,35,098,40.6*47
$GPGSV,3,2,11,15,56,142,43.3,18,18,300,41.9,21,15,034,46.0,23,32,236,44.2*74
$GPGSV,3,3,11,24,10,171,33.8,25,50,243,51.6,29,45,346,50.4*50
$GLGSV,2,1,6,3,34,042,41.1,4,65,118,48.0,9,19,288,39.9,16,29,229,43.1*66
$GLGSV,2,2,6,18,26,039,43.8,19,21,342,45.8*5C
$GPRMC,121733.42,A,1304.091122,N,07735.505537,E,000.0,,020326,,,A*7E
$GPGGA,121734.42,1304.091292,N,07735.505107,E,1,17,0.61,874.40,M,0.0,M,0.0,0000*7F
$GPGSV,3,1,11,5,41,020,42.6,11,11,061,43.5,12,39,185,49.0,13,35,098,40.6*43
$GPGSV,3,2,11,15,56,142,43.2,18,18,300,42.0,21,15,034,45.7,23,32,236,44.7*7E
$GPGSV,3,3,11,24,10,171,33.9,25,50,243,51.8,29,45,346,50.2*59
$GLGSV,2,1,6,3,34,042,40.3,4,65,118,47.2,9,19,288,39.8,16,29,229,43.0*68
$GLGSV,2,2,6,18,26,039,43.3,19,21,342,45.6*59
$GPRMC,121734.42,A,1304.091292,N,07735.505107,E,000.0,,020326,,,A*76
$GPGGA,121735.42,1304.092204,N,07735.504488,E,1,17,0.61,876.49,M,0.0,M,0.0,0000*7A
$GPGSV,3,1,11,5,41,020,42.4,11,11,061,42.8,12,39,185,48.8,13,35,098,41.0*43
$GPGSV,3,2,11,15,56,142,43.0,18,18,300,41.5,21,15,034,45.6,23,32,236,44.4*78
$GPGSV,3,3,11,24,10,171,33.4,25,50,243,51.4,29,45,346,50.0*5A
$GLGSV,2,1,6,3,34,042,39.1,4,65,118,47.6,9,19,288,39.5,16,29,229,41.8*67
$GLGSV,2,2,6,18,26,039,43.9,19,21,342,44.8*5C
$GPRMC,121735.42,A,1304.092204,N,07735.504488,E,000.0,,020326,,,A*78
$GPGGA,121736.42,1304.091161,N,07735.506444,E,1,17,0.61,874.97,M,0.0,M,0.0,0000*79
$GPGSV,3,1,11,5,41,020,42.5,11,11,061,42.7,12,39,185,48.9,13,35,098,41.0*4C
$GPGSV,3,2,11,15,56,142,42.9,18,18,300,41.8,21,15,034,45.8,23,32,236,44.4*73
$GPGSV,3,3,11,24,10,171,33.0,25,50,243,51.7,29,45,346,50.1*5C
$GLGSV,2,1,6,3,34,042,39.2,4,65,118,47.5,9,19,288,40.6,16,29,229,42.5*64
$GLGSV,2,2,6,18,26,039,44.2,19,21,342,45.4*5D
$GPRMC,121736.42,A,1304.091161,N,07735.506444,E,000.0,,020326,,,A*7A
$GPGGA,121737.42,1304.091902,N,07735.504957,E,1,17,0.61,866.96,M,0.0,M,0.0,0000*7A
$GPGSV,3,1,11,5,41,020,42.7,11,11,061,43.0,12,39,185,48.8,13,35,098,41.2*4B
$GPGSV,3,2,11,15,56,142,42.6,18,18,300,41.8,21,15,034,45.6,23,32,236,44.1*77
$GPGSV,3,3,11,24,10,171,32.9,25,50,243,51.6,29,45,346,50.2*56
$GLGSV,2,1,6,3,34,042,40.2,4,65,118,47.2,9,19,288,40.9,16,29,229,42.8*6F
$GLGSV,2,2,6,18,26,039,42.9,19,21,342,45.6*52
$GPRMC,121737.42,A,1304.091902,N,07735.504957,E,000.0,,020326,,,A*7B
$GPGGA,121738.42,1304.091165,N,07735.504743,E,1,17,0.61,872.65,M,0.0,M,0.0,0000*7E
$GPGSV,3,1,11,5,41,020,42.5,11,11,061,42.8,12,39,185,48.3,13,35,098,40.8*40
$GPGSV,3,2,11,15,56,142,43.0,18,18,300,41.9,21,15,034,45.9,23,32,236,44.5*7A
$GPGSV,3,3,11,24,10,171,33.0,25,50,243,51.9,29,45,346,50.2*51
$GLGSV,2,1,6,3,34,042,39.3,4,65,118,46.6,9,19,288,40.2,16,29,229,42.2*64
$GLGSV,2,2,6,18,26,039,42.8,19,21,342,44.9*5D
$GPRMC,121738.42,A,1304.091165,N,07735.504743,E,000.0,,020326,,,A*76
$GPGGA,121739.42,1304.091716,N,07735.505558,E,1,17,0.61,878.13,M,0.0,M,0.0,0000*7F
$GPGSV,3,1,11,5,41,020,42.1,11,11,061,42.8,12,39,185,49.1,13,35,098,40.6*49
$GPGSV,3,2,11,15,56,142,42.4,18,18,300,41.7,21,15,034,45.7,23,32,236,44.6*7C
$GPGSV,3,3,11,24,10,171,32.6,25,50,243,51.6,29,45,346,50.1*5A
$GLGSV,2,1,6,3,34,042,39.3,4,65,118,47.2,9,19,288,40.4,16,29,229,42.2*67
$GLGSV,2,2,6,18,26,039,43.3,19,21,342,44.7*59
$GPRMC,121739.42,A,1304.091716,N,07735.505558,E,000.0,,020326,,,A*7C
