NMEA,$GPGSV,4,1,15,05,39,020,36,11,10,063,39,12,38,184,49,13,35,096,42,1*66,1773143347973
NMEA,$GPGSV,4,2,15,15,57,140,47,18,19,302,41,20,45,096,48,21,14,034,45,1*63,1773143347973
NMEA,$GPGSV,4,3,15,23,33,238,46,24,10,170,38,25,49,241,53,29,47,347,52,1*63,1773143347973
NMEA,$GPGSV,4,4,15,10,00,224,,40,00,000,51,41,00,000,49,1*5D,1773143347973
NMEA,$GLGSV,2,1,07,82,26,041,47,73,19,286,43,80,28,227,43,69,32,183,51,1*71,1773143347973
NMEA,$GLGSV,2,2,07,83,22,344,49,67,33,041,44,68,66,114,51,1*40,1773143347973
NMEA,$GAGSV,3,1,10,02,43,295,49,05,29,169,44,06,27,078,38,09,37,105,36,7*7D,1773143347973
NMEA,$GAGSV,3,2,10,11,22,040,34,16,18,161,43,18,58,090,49,25,56,202,49,7*76,1773143347973
NMEA,$GAGSV,3,3,10,34,19,290,36,36,37,345,48,7*7C,1773143347973
NMEA,$GQGSV,1,1,02,02,13,134,41,03,21,066,36,1*61,1773143347973
NMEA,$GBGSV,2,1,08,21,74,087,50,22,26,040,46,24,25,218,42,34,35,342,49,3*72,1773143347973
NMEA,$GBGSV,2,2,08,38,40,023,43,40,40,108,47,42,44,199,53,44,44,056,44,3*7D,1773143347973
NMEA,$GNGSA,A,3,05,11,12,13,15,18,21,23,24,25,29,,0.8,0.4,0.6,1*3A,1773143347982
NMEA,$GNGSA,A,3,67,68,69,73,80,82,83,,,,,,0.8,0.4,0.6,2*35,1773143347982
NMEA,$GNGSA,A,3,02,05,06,09,16,18,25,34,36,,,,0.8,0.4,0.6,3*3A,1773143347982
NMEA,$GNGSA,A,3,21,22,24,34,38,40,42,44,,,,,0.8,0.4,0.6,4*35,1773143347982
NMEA,$GNGSA,A,3,02,03,,,,,,,,,,,0.8,0.4,0.6,5*3E,1773143347982
NMEA,$GNVTG,,T,,M,0.0,N,0.0,K,A*3D,1773143347982
NMEA,$GNDTM,W84,,0000.000000,N,00000.000000,E,0.000,W84*41,1773143347982
NMEA,$GNRMC,114908.00,A,1304.091230,N,07735.505515,E,0.0,,100326,1.1,W,A,V*66,1773143347982
NMEA,$GNGNS,114908.00,1304.091230,N,07735.505515,E,AAAAAN,37,0.4,956.7,-85.8,,,V*05,1773143347982
NMEA,$GNGGA,114908.00,1304.091230,N,07735.505515,E,1,12,0.4,956.7,M,-85.8,M,,*5D,1773143347982
NMEA,$GPGSV,4,1,15,05,39,020,36,11,10,063,40,12,38,184,49,13,35,096,42,1*68,1773143348969
NMEA,$GPGSV,4,2,15,15,57,140,47,18,19,302,41,20,45,096,48,21,14,034,46,1*60,1773143348969
NMEA,$GPGSV,4,3,15,23,33,238,47,24,10,170,38,25,49,241,53,29,47,347,52,1*62,1773143348969
NMEA,$GPGSV,4,4,15,10,00,224,,40,00,000,51,41,00,000,50,1*55,1773143348969
NMEA,$GLGSV,2,1,07,82,26,041,47,73,19,286,43,80,28,227,43,69,32,183,51,1*71,1773143348969
NMEA,$GLGSV,2,2,07,83,22,344,48,67,33,041,44,68,66,114,51,1*41,1773143348969
NMEA,$GAGSV,3,1,10,02,43,295,49,05,29,169,44,06,27,078,38,09,37,105,36,7*7D,1773143348969
NMEA,$GAGSV,3,2,10,11,22,040,34,16,18,161,43,18,58,090,49,25,56,202,50,7*7E,1773143348969
NMEA,$GAGSV,3,3,10,34,19,290,36,36,37,345,47,7*73,1773143348969
NMEA,$GQGSV,1,1,02,02,13,134,41,03,21,066,36,1*61,1773143348969
NMEA,$GBGSV,2,1,08,21,74,087,51,22,26,040,46,24,25,218,42,34,35,342,49,3*73,1773143348969
NMEA,$GBGSV,2,2,08,38,40,023,42,40,40,108,47,42,44,199,53,44,44,056,44,3*7C,1773143348969
NMEA,$GNGSA,A,3,05,11,12,13,15,18,21,23,24,25,29,,0.8,0.4,0.6,1*3A,1773143348974
NMEA,$GNGSA,A,3,67,68,69,73,80,82,83,,,,,,0.8,0.4,0.6,2*35,1773143348974
NMEA,$GNGSA,A,3,02,05,06,09,16,18,25,34,36,,,,0.8,0.4,0.6,3*3A,1773143348974
NMEA,$GNGSA,A,3,21,22,24,34,38,40,42,44,,,,,0.8,0.4,0.6,4*35,1773143348974
NMEA,$GNGSA,A,3,02,03,,,,,,,,,,,0.8,0.4,0.6,5*3E,1773143348974
NMEA,$GNVTG,,T,,M,0.0,N,0.0,K,A*3D,1773143348974
NMEA,$GNDTM,W84,,0000.000000,N,00000.000000,E,0.000,W84*41,1773143348974
NMEA,$GNRMC,114909.00,A,1304.091230,N,07735.505515,E,0.0,,100326,1.1,W,A,V*67,1773143348974
NMEA,$GNGNS,114909.00,1304.091230,N,07735.505515,E,AAAAAN,37,0.4,956.7,-85.8,,,V*04,1773143348974
NMEA,$GNGGA,114909.00,1304.091230,N,07735.505515,E,1,12,0.4,956.7,M,-85.8,M,,*5C,1773143348974
NMEA,$GPGSV,4,1,15,05,39,020,36,11,10,063,40,12,38,184,49,13,35,096,42,1*68,1773143349972
NMEA,$GPGSV,4,2,15,15,57,140,47,18,19,302,41,20,45,096,49,21,14,034,45,1*62,1773143349972
NMEA,$GPGSV,4,3,15,23,33,238,47,24,10,170,38,25,49,241,52,29,47,347,52,1*63,1773143349972
NMEA,$GPGSV,4,4,15,10,00,224,,40,00,000,51,41,00,000,49,1*5D,1773143349972
NMEA,$GLGSV,2,1,07,82,26,041,47,73,19,286,43,80,28,227,42,69,32,183,51,1*70,1773143349972
NMEA,$GLGSV,2,2,07,83,22,344,49,67,33,041,45,68,66,114,50,1*40,1773143349972
NMEA,$GAGSV,3,1,10,02,43,295,49,05,29,169,44,06,27,078,38,09,37,105,36,7*7D,1773143349972
NMEA,$GAGSV,3,2,10,11,22,040,35,16,18,161,43,18,58,090,49,25,56,202,49,7*77,1773143349972
NMEA,$GAGSV,3,3,10,34,19,290,36,36,37,345,47,7*73,1773143349972
NMEA,$GQGSV,1,1,02,02,13,134,41,03,21,066,36,1*61,1773143349972
NMEA,$GBGSV,2,1,08,21,74,087,50,22,26,040,47,24,25,218,43,34,35,342,49,3*72,1773143349972
NMEA,$GBGSV,2,2,08,38,40,023,42,40,40,108,47,42,44,199,53,44,44,056,44,3*7C,1773143349972
NMEA,$GNGSA,A,3,05,11,12,13,15,18,21,23,24,25,29,,0.8,0.4,0.6,1*3A,1773143349979
NMEA,$GNGSA,A,3,67,68,69,73,80,82,83,,,,,,0.8,0.4,0.6,2*35,1773143349979
NMEA,$GNGSA,A,3,02,05,06,09,16,18,25,34,36,,,,0.8,0.4,0.6,3*3A,1773143349979
NMEA,$GNGSA,A,3,21,22,24,34,38,40,42,44,,,,,0.8,0.4,0.6,4*35,1773143349979
NMEA,$GNGSA,A,3,02,03,,,,,,,,,,,0.8,0.4,0.6,5*3E,1773143349979
NMEA,$GNVTG,,T,,M,0.0,N,0.0,K,A*3D,1773143349979
NMEA,$GNDTM,W84,,0000.000000,N,00000.000000,E,0.000,W84*41,1773143349979
NMEA,$GNRMC,114910.00,A,1304.091230,N,07735.505515,E,0.0,,100326,1.1,W,A,V*6F,1773143349979
NMEA,$GNGNS,114910.00,1304.091230,N,07735.505515,E,AAAAAN,37,0.4,956.7,-85.8,,,V*0C,1773143349979
NMEA,$GNGGA,114910.00,1304.091230,N,07735.505515,E,1,12,0.4,956.7,M,-85.8,M,,*54,1773143349979
NMEA,$GPGSV,4,1,15,05,39,020,36,11,10,063,40,12,38,184,49,13,35,096,43,1*69,1773143350970
NMEA,$GPGSV,4,2,15,15,57,140,47,18,19,302,41,20,45,096,48,21,14,034,45,1*63,1773143350970
NMEA,$GPGSV,4,3,15,23,33,238,47,24,10,170,37,25,49,241,53,29,47,347,52,1*6D,1773143350970
NMEA,$GPGSV,4,4,15,10,00,224,,40,00,000,51,41,00,000,49,1*5D,1773143350970
NMEA,$GLGSV,2,1,07,82,26,041,48,73,19,286,42,80,28,227,43,69,32,183,51,1*7F,1773143350970
NMEA,$GLGSV,2,2,07,83,22,344,49,67,33,041,44,68,66,114,51,1*40,1773143350970
NMEA,$GAGSV,3,1,10,02,43,295,50,05,29,169,44,06,27,078,38,09,37,105,36,7*75,1773143350970
NMEA,$GAGSV,3,2,10,11,22,040,35,16,18,161,43,18,58,090,49,25,56,202,49,7*77,1773143350970
NMEA,$GAGSV,3,3,10,34,19,290,35,36,37,345,48,7*7F,1773143350970
NMEA,$GQGSV,1,1,02,02,13,134,42,03,21,066,36,1*62,1773143350970
NMEA,$GBGSV,2,1,08,21,74,087,50,22,26,040,46,24,25,218,42,34,35,342,49,3*72,1773143350970
NMEA,$GBGSV,2,2,08,38,40,023,42,40,40,108,47,42,44,199,52,44,44,056,45,3*7C,1773143350970
NMEA,$GNGSA,A,3,05,11,12,13,15,18,21,23,24,25,29,,0.8,0.4,0.6,1*3A,1773143350976
NMEA,$GNGSA,A,3,67,68,69,73,80,82,83,,,,,,0.8,0.4,0.6,2*35,1773143350976
NMEA,$GNGSA,A,3,02,05,06,09,16,18,25,34,36,,,,0.8,0.4,0.6,3*3A,1773143350976
NMEA,$GNGSA,A,3,21,22,24,34,38,40,42,44,,,,,0.8,0.4,0.6,4*35,1773143350976
NMEA,$GNGSA,A,3,02,03,,,,,,,,,,,0.8,0.4,0.6,5*3E,1773143350976
NMEA,$GNVTG,,T,,M,0.0,N,0.0,K,A*3D,1773143350976
NMEA,$GNDTM,W84,,0000.000000,N,00000.000000,E,0.000,W84*41,1773143350976
NMEA,$GNRMC,114911.00,A,1304.091229,N,07735.505515,E,0.0,,100326,1.1,W,A,V*66,1773143350976
NMEA,$GNGNS,114911.00,1304.091229,N,07735.505515,E,AAAAAN,37,0.4,956.7,-85.8,,,V*05,1773143350976
NMEA,$GNGGA,114911.00,1304.091229,N,07735.505515,E,1,12,0.4,956.7,M,-85.8,M,,*5D,1773143350976
NMEA,$GPGSV,4,1,15,05,39,020,37,11,10,063,39,12,38,184,50,13,35,096,43,1*6E,1773143351969
NMEA,$GPGSV,4,2,15,15,57,140,48,18,19,302,41,20,45,096,48,21,14,034,45,1*6C,1773143351969
NMEA,$GPGSV,4,3,15,23,33,238,47,24,10,170,38,25,49,241,52,29,47,347,51,1*60,1773143351969
NMEA,$GPGSV,4,4,15,10,00,224,,40,00,000,50,41,00,000,49,1*5C,1773143351969
NMEA,$GLGSV,2,1,07,82,26,041,47,73,19,286,42,80,28,227,43,69,32,183,51,1*70,1773143351969
NMEA,$GLGSV,2,2,07,83,22,344,49,67,33,041,45,68,66,114,50,1*40,1773143351969
NMEA,$GAGSV,3,1,10,02,43,295,49,05,29,169,44,06,27,078,39,09,37,105,35,7*7F,1773143351969
NMEA,$GAGSV,3,2,10,11,22,040,34,16,18,161,43,18,58,090,49,25,56,202,50,7*7E,1773143351969
NMEA,$GAGSV,3,3,10,34,19,290,36,36,37,345,48,7*7C,1773143351969
NMEA,$GQGSV,1,1,02,02,13,134,42,03,21,066,36,1*62,1773143351969
NMEA,$GBGSV,2,1,08,21,74,087,50,22,26,040,47,24,25,218,43,34,35,342,49,3*72,1773143351969
NMEA,$GBGSV,2,2,08,38,40,023,42,40,40,108,48,42,44,199,52,44,44,056,44,3*72,1773143351969
NMEA,$GNGSA,A,3,05,11,12,13,15,18,21,23,24,25,29,,0.8,0.4,0.6,1*3A,1773143351973
NMEA,$GNGSA,A,3,67,68,69,73,80,82,83,,,,,,0.8,0.4,0.6,2*35,1773143351973
NMEA,$GNGSA,A,3,02,05,06,09,16,18,25,34,36,,,,0.8,0.4,0.6,3*3A,1773143351973
NMEA,$GNGSA,A,3,21,22,24,34,38,40,42,44,,,,,0.8,0.4,0.6,4*35,1773143351973
NMEA,$GNGSA,A,3,02,03,,,,,,,,,,,0.8,0.4,0.6,5*3E,1773143351973
NMEA,$GNVTG,,T,,M,0.0,N,0.0,K,A*3D,1773143351973
NMEA,$GNDTM,W84,,0000.000000,N,00000.000000,E,0.000,W84*41,1773143351973
NMEA,$GNRMC,114912.00,A,1304.091229,N,07735.505515,E,0.0,,100326,1.1,W,A,V*65,1773143351973
NMEA,$GNGNS,114912.00,1304.091229,N,07735.505515,E,AAAAAN,37,0.4,956.7,-85.8,,,V*06,1773143351973
NMEA,$GNGGA,114912.00,1304.091229,N,07735.505515,E,1,12,0.4,956.7,M,-85.8,M,,*5E,1773143351973
NMEA,$GPGSV,4,1,15,05,39,020,37,11,10,063,40,12,38,184,49,13,35,096,42,1*69,1773143352972
NMEA,$GPGSV,4,2,15,15,57,140,48,18,19,302,40,20,45,096,48,21,14,034,45,1*6D,1773143352972
NMEA,$GPGSV,4,3,15,23,33,238,47,24,10,170,38,25,49,241,53,29,47,347,52,1*62,1773143352972
NMEA,$GPGSV,4,4,15,10,00,224,,40,00,000,51,41,00,000,49,1*5D,1773143352972
NMEA,$GLGSV,2,1,07,82,26,041,48,73,19,286,42,80,28,227,44,69,32,183,51,1*78,1773143352972
NMEA,$GLGSV,2,2,07,83,22,344,48,67,33,041,45,68,66,114,50,1*41,1773143352972
NMEA,$GAGSV,3,1,10,02,43,295,49,05,29,169,44,06,27,078,38,09,37,105,35,7*7E,1773143352972
NMEA,$GAGSV,3,2,10,11,22,040,33,16,18,161,43,18,58,090,49,25,56,202,49,7*71,1773143352972
NMEA,$GAGSV,3,3,10,34,19,290,36,36,37,345,48,7*7C,1773143352972
NMEA,$GQGSV,1,1,02,02,13,134,42,03,21,066,36,1*62,1773143352972
NMEA,$GBGSV,2,1,08,21,74,087,51,22,26,040,47,24,25,218,42,34,35,342,49,3*72,1773143352972
NMEA,$GBGSV,2,2,08,38,40,023,42,40,40,108,48,42,44,199,52,44,44,056,44,3*72,1773143352972
NMEA,$GNGSA,A,3,05,11,12,13,15,18,21,23,24,25,29,,0.8,0.4,0.6,1*3A,1773143352981
NMEA,$GNGSA,A,3,67,68,69,73,80,82,83,,,,,,0.8,0.4,0.6,2*35,1773143352981
NMEA,$GNGSA,A,3,02,05,06,09,16,18,25,34,36,,,,0.8,0.4,0.6,3*3A,1773143352981
NMEA,$GNGSA,A,3,21,22,24,34,38,40,42,44,,,,,0.8,0.4,0.6,4*35,1773143352981
NMEA,$GNGSA,A,3,02,03,,,,,,,,,,,0.8,0.4,0.6,5*3E,1773143352981
NMEA,$GNVTG,,T,,M,0.0,N,0.0,K,A*3D,1773143352981
NMEA,$GNDTM,W84,,0000.000000,N,00000.000000,E,0.000,W84*41,1773143352981
NMEA,$GNRMC,114913.00,A,1304.091231,N,07735.505512,E,0.0,,100326,1.1,W,A,V*6A,1773143352981
NMEA,$GNGNS,114913.00,1304.091231,N,07735.505512,E,AAAAAN,37,0.4,956.7,-85.8,,,V*09,1773143352981
NMEA,$GNGGA,114913.00,1304.091231,N,07735.505512,E,1,12,0.4,956.7,M,-85.8,M,,*51,1773143352981
NMEA,$GPGSV,4,1,15,05,39,020,36,11,10,063,39,12,38,184,49,13,35,096,42,1*66,1773143353974
NMEA,$GPGSV,4,2,15,15,57,140,48,18,19,302,41,20,45,096,48,21,14,034,46,1*6F,1773143353974
NMEA,$GPGSV,4,3,15,23,33,238,47,24,10,170,38,25,49,241,52,29,47,347,52,1*63,1773143353974
NMEA,$GPGSV,4,4,15,10,00,224,,40,00,000,50,41,00,000,49,1*5C,1773143353974
NMEA,$GLGSV,2,1,07,82,26,041,47,73,19,286,41,80,28,227,43,69,32,183,51,1*73,1773143353974
NMEA,$GLGSV,2,2,07,83,22,344,48,67,33,041,44,68,66,114,50,1*40,1773143353974
NMEA,$GAGSV,3,1,10,02,43,295,49,05,29,169,44,06,27,078,38,09,37,105,36,7*7D,1773143353974
NMEA,$GAGSV,3,2,10,11,22,040,34,16,18,161,43,18,58,090,50,25,56,202,50,7*76,1773143353974
NMEA,$GAGSV,3,3,10,34,19,290,36,36,37,345,47,7*73,1773143353974
NMEA,$GQGSV,1,1,02,02,13,134,42,03,21,066,36,1*62,1773143353974
NMEA,$GBGSV,2,1,08,21,74,087,50,22,26,040,47,24,25,218,42,34,35,342,49,3*73,1773143353974
NMEA,$GBGSV,2,2,08,38,40,023,43,40,40,108,47,42,44,199,52,44,44,056,44,3*7C,1773143353974
NMEA,$GNGSA,A,3,05,11,12,13,15,18,21,23,24,25,29,,0.8,0.4,0.6,1*3A,1773143353981
NMEA,$GNGSA,A,3,67,68,69,73,80,82,83,,,,,,0.8,0.4,0.6,2*35,1773143353981
NMEA,$GNGSA,A,3,02,05,06,09,16,18,25,34,36,,,,0.8,0.4,0.6,3*3A,1773143353981
NMEA,$GNGSA,A,3,21,22,24,34,38,40,42,44,,,,,0.8,0.4,0.6,4*35,1773143353981
NMEA,$GNGSA,A,3,02,03,,,,,,,,,,,0.8,0.4,0.6,5*3E,1773143353981
NMEA,$GNVTG,,T,,M,0.0,N,0.0,K,A*3D,1773143353981
NMEA,$GNDTM,W84,,0000.000000,N,00000.000000,E,0.000,W84*41,1773143353981
NMEA,$GNRMC,114914.00,A,1304.091231,N,07735.505511,E,0.0,,100326,1.1,W,A,V*6E,1773143353981
NMEA,$GNGNS,114914.00,1304.091231,N,07735.505511,E,AAAAAN,37,0.4,956.7,-85.8,,,V*0D,1773143353981
NMEA,$GNGGA,114914.00,1304.091231,N,07735.505511,E,1,12,0.4,956.7,M,-85.8,M,,*55,1773143353981
NMEA,$GPGSV,4,1,15,05,39,020,35,11,10,063,39,12,38,184,49,13,35,096,42,1*65,1773143354974
NMEA,$GPGSV,4,2,15,15,57,140,48,18,19,302,40,20,45,096,48,21,14,034,46,1*6E,1773143354974
NMEA,$GPGSV,4,3,15,23,33,238,47,24,10,170,39,25,49,241,53,29,47,347,52,1*63,1773143354974
NMEA,$GPGSV,4,4,15,10,00,224,,40,00,000,50,41,00,000,50,1*54,1773143354974
NMEA,$GLGSV,2,1,07,82,26,041,47,73,19,286,42,80,28,227,43,69,32,183,51,1*70,1773143354974
NMEA,$GLGSV,2,2,07,83,22,344,48,67,33,041,45,68,66,114,50,1*41,1773143354974
NMEA,$GAGSV,3,1,10,02,43,295,49,05,29,169,44,06,27,078,38,09,37,105,36,7*7D,1773143354974
NMEA,$GAGSV,3,2,10,11,22,040,34,16,18,161,43,18,58,090,49,25,56,202,49,7*76,1773143354974
NMEA,$GAGSV,3,3,10,34,19,290,35,36,37,345,47,7*70,1773143354974
NMEA,$GQGSV,1,1,02,02,13,134,42,03,21,066,35,1*61,1773143354974
NMEA,$GBGSV,2,1,08,21,74,087,50,22,26,040,47,24,25,218,42,34,35,342,49,3*73,1773143354974
NMEA,$GBGSV,2,2,08,38,40,023,42,40,40,108,46,42,44,199,52,44,44,056,44,3*7C,1773143354974
NMEA,$GNGSA,A,3,05,11,12,13,15,18,21,23,24,25,29,,0.8,0.4,0.6,1*3A,1773143354978
NMEA,$GNGSA,A,3,67,68,69,73,80,82,83,,,,,,0.8,0.4,0.6,2*35,1773143354978
NMEA,$GNGSA,A,3,02,05,06,09,16,18,25,34,36,,,,0.8,0.4,0.6,3*3A,1773143354978
NMEA,$GNGSA,A,3,21,22,24,34,38,40,42,44,,,,,0.8,0.4,0.6,4*35,1773143354978
NMEA,$GNGSA,A,3,02,03,,,,,,,,,,,0.8,0.4,0.6,5*3E,1773143354978
NMEA,$GNVTG,,T,,M,0.0,N,0.0,K,A*3D,1773143354978
NMEA,$GNDTM,W84,,0000.000000,N,00000.000000,E,0.000,W84*41,1773143354978
NMEA,$GNRMC,114915.00,A,1304.091231,N,07735.505511,E,0.0,,100326,1.1,W,A,V*6F,1773143354978
NMEA,$GNGNS,114915.00,1304.091231,N,07735.505511,E,AAAAAN,37,0.4,956.7,-85.8,,,V*0C,1773143354978
NMEA,$GNGGA,114915.00,1304.091231,N,07735.505511,E,1,12,0.4,956.7,M,-85.8,M,,*54,1773143354978
NMEA,$GPGSV,4,1,15,05,39,020,36,11,10,063,39,12,38,184,49,13,35,096,42,1*66,1773143355974
NMEA,$GPGSV,4,2,15,15,57,140,47,18,19,302,40,20,45,096,48,21,14,034,46,1*61,1773143355974
NMEA,$GPGSV,4,3,15,23,33,238,47,24,10,170,39,25,49,241,53,29,47,347,52,1*63,1773143355974
NMEA,$GPGSV,4,4,15,10,00,224,,40,00,000,51,41,00,000,49,1*5D,1773143355974
NMEA,$GLGSV,2,1,07,82,26,041,48,73,19,286,42,80,28,227,43,69,32,183,51,1*7F,1773143355974
NMEA,$GLGSV,2,2,07,83,22,344,49,67,33,041,45,68,66,114,51,1*41,1773143355974
NMEA,$GAGSV,3,1,10,02,43,295,49,05,29,169,44,06,27,078,38,09,37,105,36,7*7D,1773143355974
NMEA,$GAGSV,3,2,10,11,22,040,33,16,18,161,42,18,58,090,49,25,56,202,49,7*70,1773143355974
NMEA,$GAGSV,3,3,10,34,19,290,36,36,37,345,47,7*73,1773143355974
NMEA,$GQGSV,1,1,02,02,13,134,42,03,21,066,36,1*62,1773143355974
NMEA,$GBGSV,2,1,08,21,74,087,50,22,26,040,47,24,25,218,42,34,35,342,49,3*73,1773143355974
NMEA,$GBGSV,2,2,08,38,40,023,42,40,40,108,48,42,44,199,52,44,44,056,44,3*72,1773143355974
NMEA,$GNGSA,A,3,05,11,12,13,15,18,21,23,24,25,29,,0.8,0.4,0.6,1*3A,1773143355979
NMEA,$GNGSA,A,3,67,68,69,73,80,82,83,,,,,,0.8,0.4,0.6,2*35,1773143355979
NMEA,$GNGSA,A,3,02,05,06,09,16,18,25,34,36,,,,0.8,0.4,0.6,3*3A,1773143355979
NMEA,$GNGSA,A,3,21,22,24,34,38,40,42,44,,,,,0.8,0.4,0.6,4*35,1773143355979
NMEA,$GNGSA,A,3,02,03,,,,,,,,,,,0.8,0.4,0.6,5*3E,1773143355979
NMEA,$GNVTG,,T,,M,0.0,N,0.0,K,A*3D,1773143355979
NMEA,$GNDTM,W84,,0000.000000,N,00000.000000,E,0.000,W84*41,1773143355979
NMEA,$GNRMC,114916.00,A,1304.091231,N,07735.505511,E,0.0,,100326,1.1,W,A,V*6C,1773143355979
NMEA,$GNGNS,114916.00,1304.091231,N,07735.505511,E,AAAAAN,37,0.4,956.7,-85.8,,,V*0F,1773143355979
NMEA,$GNGGA,114916.00,1304.091231,N,07735.505511,E,1,12,0.4,956.7,M,-85.8,M,,*57,1773143355979
NMEA,$GPGSV,4,1,15,05,39,020,36,11,10,063,40,12,38,184,49,13,35,096,42,1*68,1773143356970
NMEA,$GPGSV,4,2,15,15,57,140,48,18,19,302,41,20,45,096,48,21,14,034,46,1*6F,1773143356970
NMEA,$GPGSV,4,3,15,23,33,238,47,24,10,170,38,25,49,241,53,29,47,347,52,1*62,1773143356970
NMEA,$GPGSV,4,4,15,10,00,224,,40,00,000,51,41,00,000,49,1*5D,1773143356970
NMEA,$GLGSV,2,1,07,82,26,041,47,73,19,286,42,80,28,227,43,69,32,183,51,1*70,1773143356970
NMEA,$GLGSV,2,2,07,83,22,344,48,67,33,041,45,68,66,114,50,1*41,1773143356970
NMEA,$GAGSV,3,1,10,02,43,295,49,05,29,169,44,06,27,078,38,09,37,105,35,7*7E,1773143356970
NMEA,$GAGSV,3,2,10,11,22,040,35,16,18,161,43,18,58,090,49,25,56,202,49,7*77,1773143356970
NMEA,$GAGSV,3,3,10,34,19,290,35,36,37,345,48,7*7F,1773143356970
NMEA,$GQGSV,1,1,02,02,13,134,42,03,21,066,36,1*62,1773143356970
NMEA,$GBGSV,2,1,08,21,74,087,50,22,26,040,47,24,25,218,42,34,35,342,49,3*73,1773143356970
NMEA,$GBGSV,2,2,08,38,40,023,43,40,40,108,47,42,44,199,52,44,44,056,44,3*7C,1773143356970
NMEA,$GNGSA,A,3,05,11,12,13,15,18,21,23,24,25,29,,0.8,0.4,0.6,1*3A,1773143356975
NMEA,$GNGSA,A,3,67,68,69,73,80,82,83,,,,,,0.8,0.4,0.6,2*35,1773143356975
NMEA,$GNGSA,A,3,02,05,06,09,16,18,25,34,36,,,,0.8,0.4,0.6,3*3A,1773143356975
NMEA,$GNGSA,A,3,21,22,24,34,38,40,42,44,,,,,0.8,0.4,0.6,4*35,1773143356975
NMEA,$GNGSA,A,3,02,03,,,,,,,,,,,0.8,0.4,0.6,5*3E,1773143356975
NMEA,$GNVTG,,T,,M,0.0,N,0.0,K,A*3D,1773143356975
NMEA,$GNDTM,W84,,0000.000000,N,00000.000000,E,0.000,W84*41,1773143356975
NMEA,$GNRMC,114917.00,A,1304.091231,N,07735.505511,E,0.0,,100326,1.1,W,A,V*6D,1773143356975
NMEA,$GNGNS,114917.00,1304.091231,N,07735.505511,E,AAAAAN,37,0.4,956.7,-85.8,,,V*0E,1773143356975
NMEA,$GNGGA,114917.00,1304.091231,N,07735.505511,E,1,12,0.4,956.7,M,-85.8,M,,*56,1773143356975
NMEA,$GPGSV,4,1,15,05,39,020,36,11,10,063,40,12,38,184,48,13,35,096,42,1*69,1773143357972
NMEA,$GPGSV,4,2,15,15,57,140,48,18,19,302,40,20,45,096,49,21,14,034,46,1*6F,1773143357972
NMEA,$GPGSV,4,3,15,23,33,238,47,24,10,170,38,25,49,241,53,29,47,347,52,1*62,1773143357972
NMEA,$GPGSV,4,4,15,10,00,224,,40,00,000,51,41,00,000,50,1*55,1773143357972
NMEA,$GLGSV,2,1,07,82,26,041,48,73,19,286,41,80,28,227,43,69,32,183,51,1*7C,1773143357972
NMEA,$GLGSV,2,2,07,83,22,344,48,67,33,041,45,68,66,114,50,1*41,1773143357972
NMEA,$GAGSV,3,1,10,02,43,295,49,05,29,169,44,06,27,078,39,09,37,105,36,7*7C,1773143357972
NMEA,$GAGSV,3,2,10,11,22,040,34,16,18,161,42,18,58,090,50,25,56,202,49,7*7F,1773143357972
NMEA,$GAGSV,3,3,10,34,19,290,36,36,37,345,48,7*7C,1773143357972
NMEA,$GQGSV,1,1,02,02,13,134,42,03,21,066,36,1*62,1773143357972
NMEA,$GBGSV,2,1,08,21,74,087,50,22,26,040,47,24,25,218,42,34,35,342,49,3*73,1773143357972
NMEA,$GBGSV,2,2,08,38,40,023,42,40,40,108,47,42,44,199,52,44,44,056,44,3*7D,1773143357972
NMEA,$GNGSA,A,3,05,11,12,13,15,18,21,23,24,25,29,,0.8,0.4,0.6,1*3A,1773143357981
NMEA,$GNGSA,A,3,67,68,69,73,80,82,83,,,,,,0.8,0.4,0.6,2*35,1773143357981
NMEA,$GNGSA,A,3,02,05,06,09,16,18,25,34,36,,,,0.8,0.4,0.6,3*3A,1773143357981
NMEA,$GNGSA,A,3,21,22,24,34,38,40,42,44,,,,,0.8,0.4,0.6,4*35,1773143357981
NMEA,$GNGSA,A,3,02,03,,,,,,,,,,,0.8,0.4,0.6,5*3E,1773143357981
NMEA,$GNVTG,,T,,M,0.0,N,0.0,K,A*3D,1773143357981
NMEA,$GNDTM,W84,,0000.000000,N,00000.000000,E,0.000,W84*41,1773143357981
NMEA,$GNRMC,114918.00,A,1304.091233,N,07735.505508,E,0.0,,100326,1.1,W,A,V*68,1773143357981
NMEA,$GNGNS,114918.00,1304.091233,N,07735.505508,E,AAAAAN,37,0.4,956.7,-85.8,,,V*0B,1773143357981
NMEA,$GNGGA,114918.00,1304.091233,N,07735.505508,E,1,12,0.4,956.7,M,-85.8,M,,*53,1773143357981
NMEA,$GPGSV,4,1,15,05,39,020,36,11,10,063,39,12,38,184,49,13,35,096,41,1*65,1773143358969
NMEA,$GPGSV,4,2,15,15,57,140,48,18,19,302,41,20,45,096,49,21,14,034,46,1*6E,1773143358969
NMEA,$GPGSV,4,3,15,23,33,238,47,24,10,170,38,25,49,241,53,29,47,347,52,1*62,1773143358969
NMEA,$GPGSV,4,4,15,10,00,224,,40,00,000,51,41,00,000,49,1*5D,1773143358969
NMEA,$GLGSV,2,1,07,82,26,041,47,73,19,286,42,80,28,227,43,69,32,183,51,1*70,1773143358969
NMEA,$GLGSV,2,2,07,83,22,344,48,67,33,041,45,68,66,114,51,1*40,1773143358969
NMEA,$GAGSV,3,1,10,02,43,295,50,05,29,169,43,06,27,078,38,09,37,105,36,7*72,1773143358969
NMEA,$GAGSV,3,2,10,11,22,040,34,16,18,161,43,18,58,090,50,25,56,202,50,7*76,1773143358969
NMEA,$GAGSV,3,3,10,34,19,290,36,36,37,345,48,7*7C,1773143358969
NMEA,$GQGSV,1,1,02,02,13,134,42,03,21,066,36,1*62,1773143358969
NMEA,$GBGSV,2,1,08,21,74,087,50,22,26,040,47,24,25,218,43,34,35,342,49,3*72,1773143358969
NMEA,$GBGSV,2,2,08,38,40,023,42,40,40,108,47,42,44,199,52,44,44,056,44,3*7D,1773143358969
NMEA,$GNGSA,A,3,05,11,12,13,15,18,21,23,24,25,29,,0.8,0.4,0.6,1*3A,1773143358974
NMEA,$GNGSA,A,3,67,68,69,73,80,82,83,,,,,,0.8,0.4,0.6,2*35,1773143358974
NMEA,$GNGSA,A,3,02,05,06,09,16,18,25,34,36,,,,0.8,0.4,0.6,3*3A,1773143358974
NMEA,$GNGSA,A,3,21,22,24,34,38,40,42,44,,,,,0.8,0.4,0.6,4*35,1773143358974
NMEA,$GNGSA,A,3,02,03,,,,,,,,,,,0.8,0.4,0.6,5*3E,1773143358974
NMEA,$GNVTG,,T,,M,0.0,N,0.0,K,A*3D,1773143358974
NMEA,$GNDTM,W84,,0000.000000,N,00000.000000,E,0.000,W84*41,1773143358974
NMEA,$GNRMC,114919.00,A,1304.091234,N,07735.505505,E,0.0,,100326,1.1,W,A,V*63,1773143358974
NMEA,$GNGNS,114919.00,1304.091234,N,07735.505505,E,AAAAAN,37,0.4,956.7,-85.8,,,V*00,1773143358974
NMEA,$GNGGA,114919.00,1304.091234,N,07735.505505,E,1,12,0.4,956.7,M,-85.8,M,,*58,1773143358974
NMEA,$GPGSV,4,1,15,05,39,020,36,11,10,063,39,12,38,184,49,13,35,096,42,1*66,1773143359971
NMEA,$GPGSV,4,2,15,15,57,140,48,18,19,302,40,20,45,096,48,21,14,034,45,1*6D,1773143359971
NMEA,$GPGSV,4,3,15,23,33,238,47,24,10,170,38,25,49,241,53,29,47,347,52,1*62,1773143359971
NMEA,$GPGSV,4,4,15,10,00,224,,40,00,000,50,41,00,000,49,1*5C,1773143359971
NMEA,$GLGSV,2,1,07,82,26,041,47,73,19,286,41,80,28,227,43,69,32,183,51,1*73,1773143359971
NMEA,$GLGSV,2,2,07,83,22,344,48,67,33,041,45,68,66,114,50,1*41,1773143359971
NMEA,$GAGSV,3,1,10,02,43,295,49,05,29,169,44,06,27,078,38,09,37,105,37,7*7C,1773143359971
NMEA,$GAGSV,3,2,10,11,22,040,35,16,18,161,43,18,58,090,49,25,56,202,50,7*7F,1773143359971
NMEA,$GAGSV,3,3,10,34,19,290,37,36,37,345,47,7*72,1773143359971
NMEA,$GQGSV,1,1,02,02,13,134,42,03,21,066,35,1*61,1773143359971
NMEA,$GBGSV,2,1,08,21,74,087,51,22,26,040,48,24,25,218,42,34,35,342,49,3*7D,1773143359971
NMEA,$GBGSV,2,2,08,38,40,023,42,40,40,108,47,42,44,199,52,44,44,056,44,3*7D,1773143359971
NMEA,$GNGSA,A,3,05,11,12,13,15,18,21,23,24,25,29,,0.8,0.4,0.6,1*3A,1773143359978
NMEA,$GNGSA,A,3,67,68,69,73,80,82,83,,,,,,0.8,0.4,0.6,2*35,1773143359978
NMEA,$GNGSA,A,3,02,05,06,09,16,18,25,34,36,,,,0.8,0.4,0.6,3*3A,1773143359978
NMEA,$GNGSA,A,3,21,22,24,34,38,40,42,44,,,,,0.8,0.4,0.6,4*35,1773143359978
NMEA,$GNGSA,A,3,02,03,,,,,,,,,,,0.8,0.4,0.6,5*3E,1773143359978
NMEA,$GNVTG,,T,,M,0.0,N,0.0,K,A*3D,1773143359978
NMEA,$GNDTM,W84,,0000.000000,N,00000.000000,E,0.000,W84*41,1773143359978
NMEA,$GNRMC,114920.00,A,1304.091234,N,07735.505505,E,0.0,,100326,1.1,W,A,V*69,1773143359978
NMEA,$GNGNS,114920.00,1304.091234,N,07735.505505,E,AAAAAN,37,0.4,956.7,-85.8,,,V*0A,1773143359978
NMEA,$GNGGA,114920.00,1304.091234,N,07735.505505,E,1,12,0.4,956.7,M,-85.8,M,,*52,1773143359978
NMEA,$GPGSV,4,1,15,05,39,020,36,11,10,063,39,12,38,184,49,13,35,096,42,1*66,1773143360972
NMEA,$GPGSV,4,2,15,15,57,140,47,18,19,302,40,20,45,096,48,21,14,034,45,1*62,1773143360972
NMEA,$GPGSV,4,3,15,23,33,238,47,24,10,170,37,25,49,241,52,29,47,347,52,1*6C,1773143360972
NMEA,$GPGSV,4,4,15,10,00,224,,40,00,000,50,41,00,000,49,1*5C,1773143360972
NMEA,$GLGSV,2,1,07,82,26,041,47,73,19,286,42,80,28,227,43,69,32,183,51,1*70,1773143360972
NMEA,$GLGSV,2,2,07,83,22,344,48,67,33,041,45,68,66,114,50,1*41,1773143360972
NMEA,$GAGSV,3,1,10,02,43,295,49,05,29,169,44,06,27,078,38,09,37,105,35,7*7E,1773143360972
NMEA,$GAGSV,3,2,10,11,22,040,34,16,18,161,43,18,58,090,49,25,56,202,49,7*76,1773143360972
NMEA,$GAGSV,3,3,10,34,19,290,36,36,37,345,47,7*73,1773143360972
NMEA,$GQGSV,1,1,02,02,13,134,42,03,21,066,35,1*61,1773143360972
NMEA,$GBGSV,2,1,08,21,74,087,50,22,26,040,47,24,25,218,42,34,35,342,49,3*73,1773143360972
NMEA,$GBGSV,2,2,08,38,40,023,42,40,40,108,47,42,44,199,51,44,44,056,44,3*7E,1773143360972
NMEA,$GNGSA,A,3,05,11,12,13,15,18,21,23,24,25,29,,0.8,0.4,0.6,1*3A,1773143360977
NMEA,$GNGSA,A,3,67,68,69,73,80,82,83,,,,,,0.8,0.4,0.6,2*35,1773143360977
NMEA,$GNGSA,A,3,02,05,06,09,16,18,25,34,36,,,,0.8,0.4,0.6,3*3A,1773143360977
NMEA,$GNGSA,A,3,21,22,24,34,38,40,42,44,,,,,0.8,0.4,0.6,4*35,1773143360977
NMEA,$GNGSA,A,3,02,03,,,,,,,,,,,0.8,0.4,0.6,5*3E,1773143360977
NMEA,$GNVTG,,T,,M,0.0,N,0.0,K,A*3D,1773143360977
NMEA,$GNDTM,W84,,0000.000000,N,00000.000000,E,0.000,W84*41,1773143360977
NMEA,$GNRMC,114921.00,A,1304.091234,N,07735.505505,E,0.0,,100326,1.1,W,A,V*68,1773143360977
NMEA,$GNGNS,114921.00,1304.091234,N,07735.505505,E,AAAAAN,37,0.4,956.7,-85.8,,,V*0B,1773143360977
NMEA,$GNGGA,114921.00,1304.091234,N,07735.505505,E,1,12,0.4,956.7,M,-85.8,M,,*53,1773143360977
NMEA,$GPGSV,4,1,15,05,39,020,36,11,10,063,40,12,38,184,49,13,35,096,42,1*68,1773143361970
NMEA,$GPGSV,4,2,15,15,57,140,48,18,19,302,41,20,45,096,48,21,14,034,45,1*6C,1773143361970
NMEA,$GPGSV,4,3,15,23,33,238,47,24,10,170,39,25,49,241,53,29,47,347,52,1*63,1773143361970
NMEA,$GPGSV,4,4,15,10,00,224,,40,00,000,51,41,00,000,50,1*55,1773143361970
NMEA,$GLGSV,2,1,07,82,26,041,47,73,19,286,42,80,28,227,43,69,32,183,51,1*70,1773143361970
NMEA,$GLGSV,2,2,07,83,22,344,48,67,33,041,45,68,66,114,50,1*41,1773143361970
NMEA,$GAGSV,3,1,10,02,43,295,49,05,29,169,44,06,27,078,38,09,37,105,37,7*7C,1773143361970
NMEA,$GAGSV,3,2,10,11,22,040,34,16,18,161,43,18,58,090,50,25,56,202,49,7*7E,1773143361970
NMEA,$GAGSV,3,3,10,34,19,290,37,36,37,345,47,7*72,1773143361970
NMEA,$GQGSV,1,1,02,02,13,134,42,03,21,066,35,1*61,1773143361970
NMEA,$GBGSV,2,1,08,21,74,087,51,22,26,040,47,24,25,218,42,34,35,342,49,3*72,1773143361970
NMEA,$GBGSV,2,2,08,38,40,023,42,40,40,108,47,42,44,199,52,44,44,056,44,3*7D,1773143361970
NMEA,$GNGSA,A,3,05,11,12,13,15,18,21,23,24,25,29,,0.8,0.4,0.6,1*3A,1773143361976
NMEA,$GNGSA,A,3,67,68,69,73,80,82,83,,,,,,0.8,0.4,0.6,2*35,1773143361976
NMEA,$GNGSA,A,3,02,05,06,09,16,18,25,34,36,,,,0.8,0.4,0.6,3*3A,1773143361976
NMEA,$GNGSA,A,3,21,22,24,34,38,40,42,44,,,,,0.8,0.4,0.6,4*35,1773143361976
NMEA,$GNGSA,A,3,02,03,,,,,,,,,,,0.8,0.4,0.6,5*3E,1773143361976
NMEA,$GNVTG,,T,,M,0.0,N,0.0,K,A*3D,1773143361976
NMEA,$GNDTM,W84,,0000.000000,N,00000.000000,E,0.000,W84*41,1773143361976
NMEA,$GNRMC,114922.00,A,1304.091233,N,07735.505505,E,0.0,,100326,1.1,W,A,V*6C,1773143361976
NMEA,$GNGNS,114922.00,1304.091233,N,07735.505505,E,AAAAAN,37,0.4,956.7,-85.8,,,V*0F,1773143361976
NMEA,$GNGGA,114922.00,1304.091233,N,07735.505505,E,1,12,0.4,956.7,M,-85.8,M,,*57,1773143361976
NMEA,$GPGSV,4,1,15,05,39,020,35,11,10,063,39,12,38,184,49,13,35,096,41,1*66,1773143362970
NMEA,$GPGSV,4,2,15,15,57,140,48,18,19,302,40,20,45,096,48,21,14,034,45,1*6D,1773143362970
NMEA,$GPGSV,4,3,15,23,33,238,47,24,10,170,38,25,49,241,53,29,47,347,52,1*62,1773143362970
NMEA,$GPGSV,4,4,15,10,00,224,,40,00,000,51,41,00,000,49,1*5D,1773143362970
NMEA,$GLGSV,2,1,07,82,26,041,47,73,19,286,42,80,28,227,43,69,32,183,51,1*70,1773143362970
NMEA,$GLGSV,2,2,07,83,22,344,48,67,33,041,46,68,66,114,50,1*42,1773143362970
NMEA,$GAGSV,3,1,10,02,43,295,49,05,29,169,44,06,27,078,39,09,37,105,36,7*7C,1773143362970
NMEA,$GAGSV,3,2,10,11,22,040,36,16,18,161,43,18,58,090,49,25,56,202,49,7*74,1773143362970
NMEA,$GAGSV,3,3,10,34,19,290,37,36,37,345,47,7*72,1773143362970
NMEA,$GQGSV,1,1,02,02,13,134,42,03,21,066,36,1*62,1773143362970
NMEA,$GBGSV,2,1,08,21,74,087,50,22,26,040,47,24,25,218,43,34,35,342,49,3*72,1773143362970
NMEA,$GBGSV,2,2,08,38,40,023,42,40,40,108,47,42,44,199,51,44,44,056,44,3*7E,1773143362970
NMEA,$GNGSA,A,3,05,11,12,13,15,18,21,23,24,25,29,,0.8,0.4,0.6,1*3A,1773143362976
NMEA,$GNGSA,A,3,67,68,69,73,80,82,83,,,,,,0.8,0.4,0.6,2*35,1773143362976
NMEA,$GNGSA,A,3,02,05,06,09,16,18,25,34,36,,,,0.8,0.4,0.6,3*3A,1773143362976
NMEA,$GNGSA,A,3,21,22,24,34,38,40,42,44,,,,,0.8,0.4,0.6,4*35,1773143362976
NMEA,$GNGSA,A,3,02,03,,,,,,,,,,,0.8,0.4,0.6,5*3E,1773143362976
NMEA,$GNVTG,,T,,M,0.0,N,0.0,K,A*3D,1773143362976
NMEA,$GNDTM,W84,,0000.000000,N,00000.000000,E,0.000,W84*41,1773143362976
NMEA,$GNRMC,114923.00,A,1304.091233,N,07735.505506,E,0.0,,100326,1.1,W,A,V*6E,1773143362976
NMEA,$GNGNS,114923.00,1304.091233,N,07735.505506,E,AAAAAN,37,0.4,956.7,-85.8,,,V*0D,1773143362976
NMEA,$GNGGA,114923.00,1304.091233,N,07735.505506,E,1,12,0.4,956.7,M,-85.8,M,,*55,1773143362976
NMEA,$GPGSV,4,1,15,05,39,020,35,11,10,063,39,12,38,184,49,13,35,096,42,1*65,1773143363972
NMEA,$GPGSV,4,2,15,15,57,140,48,18,19,302,40,20,45,096,48,21,14,034,45,1*6D,1773143363972
NMEA,$GPGSV,4,3,15,23,33,238,47,24,10,170,38,25,49,241,53,29,47,347,52,1*62,1773143363972
NMEA,$GPGSV,4,4,15,10,00,224,,40,00,000,51,41,00,000,50,1*55,1773143363972
NMEA,$GLGSV,2,1,07,82,26,041,47,73,19,286,42,80,28,227,43,69,32,183,51,1*70,1773143363972
NMEA,$GLGSV,2,2,07,83,22,344,48,67,33,041,46,68,66,114,50,1*42,1773143363972
NMEA,$GAGSV,3,1,10,02,43,295,49,05,29,169,44,06,27,078,38,09,37,105,36,7*7D,1773143363972
NMEA,$GAGSV,3,2,10,11,22,040,34,16,18,161,43,18,58,090,50,25,56,202,49,7*7E,1773143363972
NMEA,$GAGSV,3,3,10,34,19,290,37,36,37,345,47,7*72,1773143363972
NMEA,$GQGSV,1,1,02,02,13,134,43,03,21,066,35,1*60,1773143363972
NMEA,$GBGSV,2,1,08,21,74,087,50,22,26,040,47,24,25,218,42,34,35,342,49,3*73,1773143363972
NMEA,$GBGSV,2,2,08,38,40,023,42,40,40,108,47,42,44,199,52,44,44,056,44,3*7D,1773143363972
NMEA,$GNGSA,A,3,05,11,12,13,15,18,21,23,24,25,29,,0.8,0.4,0.6,1*3A,1773143363978
NMEA,$GNGSA,A,3,67,68,69,73,80,82,83,,,,,,0.8,0.4,0.6,2*35,1773143363978
NMEA,$GNGSA,A,3,02,05,06,09,16,18,25,34,36,,,,0.8,0.4,0.6,3*3A,1773143363978
NMEA,$GNGSA,A,3,21,22,24,34,38,40,42,44,,,,,0.8,0.4,0.6,4*35,1773143363978
NMEA,$GNGSA,A,3,02,03,,,,,,,,,,,0.8,0.4,0.6,5*3E,1773143363978
NMEA,$GNVTG,,T,,M,0.0,N,0.0,K,A*3D,1773143363978
NMEA,$GNDTM,W84,,0000.000000,N,00000.000000,E,0.000,W84*41,1773143363978
NMEA,$GNRMC,114924.00,A,1304.091234,N,07735.505505,E,0.0,,100326,1.1,W,A,V*6D,1773143363978
NMEA,$GNGNS,114924.00,1304.091234,N,07735.505505,E,AAAAAN,37,0.4,956.7,-85.8,,,V*0E,1773143363978
NMEA,$GNGGA,114924.00,1304.091234,N,07735.505505,E,1,12,0.4,956.7,M,-85.8,M,,*56,1773143363978
NMEA,$GPGSV,4,1,15,05,39,020,36,11,10,063,39,12,38,184,49,13,35,096,41,1*65,1773143364972
NMEA,$GPGSV,4,2,15,15,57,140,49,18,19,302,41,20,45,096,48,21,14,034,45,1*6D,1773143364972
NMEA,$GPGSV,4,3,15,23,33,238,48,24,10,170,39,25,49,241,53,29,47,347,52,1*6C,1773143364972
NMEA,$GPGSV,4,4,15,10,00,224,,40,00,000,51,41,00,000,49,1*5D,1773143364972
NMEA,$GLGSV,2,1,07,82,26,041,47,73,19,286,42,80,28,227,44,69,32,183,51,1*77,1773143364972
NMEA,$GLGSV,2,2,07,83,22,344,48,67,33,041,46,68,66,114,50,1*42,1773143364972
NMEA,$GAGSV,3,1,10,02,43,295,49,05,29,169,44,06,27,078,38,09,37,105,36,7*7D,1773143364972
NMEA,$GAGSV,3,2,10,11,22,040,34,16,18,161,43,18,58,090,50,25,56,202,49,7*7E,1773143364972
NMEA,$GAGSV,3,3,10,34,19,290,37,36,37,345,47,7*72,1773143364972
NMEA,$GQGSV,1,1,02,02,13,134,42,03,21,066,36,1*62,1773143364972
NMEA,$GBGSV,2,1,08,21,74,087,50,22,26,040,48,24,25,218,42,34,35,342,49,3*7C,1773143364972
NMEA,$GBGSV,2,2,08,38,40,023,42,40,40,108,47,42,44,199,52,44,44,056,44,3*7D,1773143364972
NMEA,$GNGSA,A,3,05,11,12,13,15,18,21,23,24,25,29,,0.8,0.4,0.6,1*3A,1773143364977
NMEA,$GNGSA,A,3,67,68,69,73,80,82,83,,,,,,0.8,0.4,0.6,2*35,1773143364977
NMEA,$GNGSA,A,3,02,05,06,09,16,18,25,34,36,,,,0.8,0.4,0.6,3*3A,1773143364977
NMEA,$GNGSA,A,3,21,22,24,34,38,40,42,44,,,,,0.8,0.4,0.6,4*35,1773143364977
NMEA,$GNGSA,A,3,02,03,,,,,,,,,,,0.8,0.4,0.6,5*3E,1773143364977
NMEA,$GNVTG,,T,,M,0.0,N,0.0,K,A*3D,1773143364977
NMEA,$GNDTM,W84,,0000.000000,N,00000.000000,E,0.000,W84*41,1773143364977
NMEA,$GNRMC,114925.00,A,1304.091234,N,07735.505505,E,0.0,,100326,1.1,W,A,V*6C,1773143364977
NMEA,$GNGNS,114925.00,1304.091234,N,07735.505505,E,AAAAAN,37,0.4,956.7,-85.8,,,V*0F,1773143364977
NMEA,$GNGGA,114925.00,1304.091234,N,07735.505505,E,1,12,0.4,956.7,M,-85.8,M,,*57,1773143364977
NMEA,$GPGSV,4,1,15,05,39,020,35,11,10,063,39,12,38,184,49,13,35,096,42,1*65,1773143365970
NMEA,$GPGSV,4,2,15,15,57,140,48,18,19,302,40,20,45,096,48,21,14,034,46,1*6E,1773143365970
NMEA,$GPGSV,4,3,15,23,33,238,47,24,10,170,39,25,49,241,53,29,47,347,52,1*63,1773143365970
NMEA,$GPGSV,4,4,15,10,00,224,,40,00,000,51,41,00,000,49,1*5D,1773143365970
NMEA,$GLGSV,2,1,07,82,26,041,47,73,19,286,42,80,28,227,43,69,32,183,51,1*70,1773143365970
NMEA,$GLGSV,2,2,07,83,22,344,48,67,33,041,46,68,66,114,50,1*42,1773143365970
NMEA,$GAGSV,3,1,10,02,43,295,49,05,29,169,44,06,27,078,37,09,37,105,37,7*73,1773143365970
NMEA,$GAGSV,3,2,10,11,22,040,34,16,18,161,43,18,58,090,50,25,56,202,49,7*7E,1773143365970
NMEA,$GAGSV,3,3,10,34,19,290,37,36,37,345,47,7*72,1773143365970
NMEA,$GQGSV,1,1,02,02,13,134,43,03,21,066,35,1*60,1773143365970
NMEA,$GBGSV,2,1,08,21,74,087,50,22,26,040,48,24,25,218,42,34,35,342,49,3*7C,1773143365970
NMEA,$GBGSV,2,2,08,38,40,023,42,40,40,108,47,42,44,199,52,44,44,056,44,3*7D,1773143365970
NMEA,$GNGSA,A,3,05,11,12,13,15,18,21,23,24,25,29,,0.8,0.4,0.6,1*3A,1773143365975
NMEA,$GNGSA,A,3,67,68,69,73,80,82,83,,,,,,0.8,0.4,0.6,2*35,1773143365975
NMEA,$GNGSA,A,3,02,05,06,09,16,18,25,34,36,,,,0.8,0.4,0.6,3*3A,1773143365975
NMEA,$GNGSA,A,3,21,22,24,34,38,40,42,44,,,,,0.8,0.4,0.6,4*35,1773143365975
NMEA,$GNGSA,A,3,02,03,,,,,,,,,,,0.8,0.4,0.6,5*3E,1773143365975
NMEA,$GNVTG,,T,,M,0.0,N,0.0,K,A*3D,1773143365975
NMEA,$GNDTM,W84,,0000.000000,N,00000.000000,E,0.000,W84*41,1773143365975
NMEA,$GNRMC,114926.00,A,1304.091234,N,07735.505505,E,0.0,,100326,1.1,W,A,V*6F,1773143365975
NMEA,$GNGNS,114926.00,1304.091234,N,07735.505505,E,AAAAAN,37,0.4,956.7,-85.8,,,V*0C,1773143365975
NMEA,$GNGGA,114926.00,1304.091234,N,07735.505505,E,1,12,0.4,956.7,M,-85.8,M,,*54,1773143365975
NMEA,$GPGSV,4,1,15,05,39,020,35,11,10,063,38,12,38,184,49,13,35,096,41,1*67,1773143366970
NMEA,$GPGSV,4,2,15,15,57,140,48,18,19,302,41,20,45,096,48,21,14,034,46,1*6F,1773143366970
NMEA,$GPGSV,4,3,15,23,33,238,47,24,10,170,39,25,49,241,53,29,47,347,51,1*60,1773143366970
NMEA,$GPGSV,4,4,15,10,00,224,,40,00,000,51,41,00,000,49,1*5D,1773143366970
NMEA,$GLGSV,2,1,07,82,26,041,47,73,19,286,42,80,28,227,43,69,32,183,51,1*70,1773143366970
NMEA,$GLGSV,2,2,07,83,22,344,48,67,33,041,46,68,66,114,50,1*42,1773143366970
NMEA,$GAGSV,3,1,10,02,43,295,49,05,29,169,44,06,27,078,37,09,37,105,37,7*73,1773143366970
NMEA,$GAGSV,3,2,10,11,22,040,35,16,18,161,43,18,58,090,50,25,56,202,50,7*77,1773143366970
NMEA,$GAGSV,3,3,10,34,19,290,38,36,37,345,47,7*7D,1773143366970
NMEA,$GQGSV,1,1,02,02,13,134,43,03,21,066,35,1*60,1773143366970
NMEA,$GBGSV,2,1,08,21,74,087,50,22,26,040,48,24,25,218,42,34,35,342,49,3*7C,1773143366970
NMEA,$GBGSV,2,2,08,38,40,023,42,40,40,108,47,42,44,199,52,44,44,056,45,3*7C,1773143366970
NMEA,$GNGSA,A,3,05,11,12,13,15,18,21,23,24,25,29,,0.8,0.4,0.6,1*3A,1773143366977
NMEA,$GNGSA,A,3,67,68,69,73,80,82,83,,,,,,0.8,0.4,0.6,2*35,1773143366977
NMEA,$GNGSA,A,3,02,05,06,09,16,18,25,34,36,,,,0.8,0.4,0.6,3*3A,1773143366977
NMEA,$GNGSA,A,3,21,22,24,34,38,40,42,44,,,,,0.8,0.4,0.6,4*35,1773143366977
NMEA,$GNGSA,A,3,02,03,,,,,,,,,,,0.8,0.4,0.6,5*3E,1773143366977
NMEA,$GNVTG,,T,,M,0.0,N,0.0,K,A*3D,1773143366977
NMEA,$GNDTM,W84,,0000.000000,N,00000.000000,E,0.000,W84*41,1773143366977
NMEA,$GNRMC,114927.00,A,1304.091234,N,07735.505506,E,0.0,,100326,1.1,W,A,V*6D,1773143366977
NMEA,$GNGNS,114927.00,1304.091234,N,07735.505506,E,AAAAAN,37,0.4,956.7,-85.8,,,V*0E,1773143366977
NMEA,$GNGGA,114927.00,1304.091234,N,07735.505506,E,1,12,0.4,956.7,M,-85.8,M,,*56,1773143366977
NMEA,$GPGSV,4,1,15,05,39,020,36,11,10,063,39,12,38,184,49,13,35,096,41,1*65,1773143367971
NMEA,$GPGSV,4,2,15,15,57,140,49,18,19,302,40,20,45,096,48,21,14,034,46,1*6F,1773143367971
NMEA,$GPGSV,4,3,15,23,33,238,47,24,10,170,38,25,49,241,53,29,47,347,52,1*62,1773143367971
NMEA,$GPGSV,4,4,15,10,00,224,,40,00,000,51,41,00,000,49,1*5D,1773143367971
NMEA,$GLGSV,2,1,07,82,26,041,47,73,19,286,42,80,28,227,44,69,32,183,51,1*77,1773143367971
NMEA,$GLGSV,2,2,07,83,22,344,48,67,33,041,46,68,66,114,50,1*42,1773143367971
NMEA,$GAGSV,3,1,10,02,43,295,50,05,29,169,44,06,27,078,37,09,37,105,37,7*7B,1773143367971
NMEA,$GAGSV,3,2,10,11,22,040,35,16,18,161,43,18,58,090,50,25,56,202,49,7*7F,1773143367971
NMEA,$GAGSV,3,3,10,34,19,290,38,36,37,345,47,7*7D,1773143367971
NMEA,$GQGSV,1,1,02,02,13,134,43,03,21,066,36,1*63,1773143367971
NMEA,$GBGSV,2,1,08,21,74,087,50,22,26,040,48,24,25,218,43,34,35,342,49,3*7D,1773143367971
NMEA,$GBGSV,2,2,08,38,40,023,42,40,40,108,47,42,44,199,52,44,44,056,44,3*7D,1773143367971
NMEA,$GNGSA,A,3,05,11,12,13,15,18,21,23,24,25,29,,0.8,0.4,0.6,1*3A,1773143367979
NMEA,$GNGSA,A,3,67,68,69,73,80,82,83,,,,,,0.8,0.4,0.6,2*35,1773143367979
NMEA,$GNGSA,A,3,02,05,06,09,16,18,25,34,36,,,,0.8,0.4,0.6,3*3A,1773143367979
NMEA,$GNGSA,A,3,21,22,24,34,38,40,42,44,,,,,0.8,0.4,0.6,4*35,1773143367979
NMEA,$GNGSA,A,3,02,03,,,,,,,,,,,0.8,0.4,0.6,5*3E,1773143367979
NMEA,$GNVTG,,T,,M,0.0,N,0.0,K,A*3D,1773143367979
NMEA,$GNDTM,W84,,0000.000000,N,00000.000000,E,0.000,W84*41,1773143367979
NMEA,$GNRMC,114928.00,A,1304.091233,N,07735.505506,E,0.0,,100326,1.1,W,A,V*65,1773143367979
NMEA,$GNGNS,114928.00,1304.091233,N,07735.505506,E,AAAAAN,37,0.4,956.7,-85.8,,,V*06,1773143367979
NMEA,$GNGGA,114928.00,1304.091233,N,07735.505506,E,1,12,0.4,956.7,M,-85.8,M,,*5E,1773143367979
NMEA,$GPGSV,4,1,15,05,39,020,35,11,10,063,39,12,38,184,49,13,35,096,41,1*66,1773143368972
NMEA,$GPGSV,4,2,15,15,57,140,49,18,19,302,41,20,45,096,47,21,14,034,46,1*61,1773143368972
NMEA,$GPGSV,4,3,15,23,33,238,47,24,10,170,38,25,49,241,53,29,47,347,52,1*62,1773143368972
NMEA,$GPGSV,4,4,15,10,00,224,,40,00,000,51,41,00,000,49,1*5D,1773143368972
NMEA,$GLGSV,2,1,07,82,26,041,47,73,19,286,42,80,28,227,43,69,32,183,51,1*70,1773143368972
NMEA,$GLGSV,2,2,07,83,22,344,48,67,33,041,46,68,66,114,50,1*42,1773143368972
NMEA,$GAGSV,3,1,10,02,43,295,50,05,29,169,44,06,27,078,37,09,37,105,37,7*7B,1773143368972
NMEA,$GAGSV,3,2,10,11,22,040,35,16,18,161,43,18,58,090,50,25,56,202,49,7*7F,1773143368972
NMEA,$GAGSV,3,3,10,34,19,290,38,36,37,345,47,7*7D,1773143368972
NMEA,$GQGSV,1,1,02,02,13,134,42,03,21,066,36,1*62,1773143368972
NMEA,$GBGSV,2,1,08,21,74,087,50,22,26,040,48,24,25,218,42,34,35,342,49,3*7C,1773143368972
NMEA,$GBGSV,2,2,08,38,40,023,42,40,40,108,47,42,44,199,52,44,44,056,44,3*7D,1773143368972
NMEA,$GNGSA,A,3,05,11,12,13,15,18,21,23,24,25,29,,0.8,0.4,0.6,1*3A,1773143368980
NMEA,$GNGSA,A,3,67,68,69,73,80,82,83,,,,,,0.8,0.4,0.6,2*35,1773143368980
NMEA,$GNGSA,A,3,02,05,06,09,16,18,25,34,36,,,,0.8,0.4,0.6,3*3A,1773143368980
NMEA,$GNGSA,A,3,21,22,24,34,38,40,42,44,,,,,0.8,0.4,0.6,4*35,1773143368980
NMEA,$GNGSA,A,3,02,03,,,,,,,,,,,0.8,0.4,0.6,5*3E,1773143368980
NMEA,$GNVTG,,T,,M,0.0,N,0.0,K,A*3D,1773143368980
NMEA,$GNDTM,W84,,0000.000000,N,00000.000000,E,0.000,W84*41,1773143368980
NMEA,$GNRMC,114929.00,A,1304.091233,N,07735.505506,E,0.0,,100326,1.1,W,A,V*64,1773143368980
NMEA,$GNGNS,114929.00,1304.091233,N,07735.505506,E,AAAAAN,37,0.4,956.7,-85.8,,,V*07,1773143368980
NMEA,$GNGGA,114929.00,1304.091233,N,07735.505506,E,1,12,0.4,956.7,M,-85.8,M,,*5F,1773143368980
NMEA,$GPGSV,4,1,15,05,39,020,35,11,10,063,39,12,38,184,49,13,35,096,40,1*67,1773143369971
NMEA,$GPGSV,4,2,15,15,57,140,48,18,19,302,40,20,45,096,48,21,14,034,46,1*6E,1773143369971
NMEA,$GPGSV,4,3,15,23,33,238,47,24,10,170,38,25,49,241,53,29,47,347,52,1*62,1773143369971
NMEA,$GPGSV,4,4,15,10,00,224,,40,00,000,50,41,00,000,49,1*5C,1773143369971
NMEA,$GLGSV,2,1,07,82,26,041,47,73,19,286,43,80,28,227,43,69,32,183,51,1*71,1773143369971
NMEA,$GLGSV,2,2,07,83,22,344,48,67,33,041,46,68,66,114,50,1*42,1773143369971
NMEA,$GAGSV,3,1,10,02,43,295,50,05,29,169,44,06,27,078,38,09,37,105,37,7*74,1773143369971
NMEA,$GAGSV,3,2,10,11,22,040,35,16,18,161,43,18,58,090,50,25,56,202,49,7*7F,1773143369971
NMEA,$GAGSV,3,3,10,34,19,290,38,36,37,345,47,7*7D,1773143369971
NMEA,$GQGSV,1,1,02,02,13,134,42,03,21,066,36,1*62,1773143369971
NMEA,$GBGSV,2,1,08,21,74,087,50,22,26,040,47,24,25,218,42,34,35,342,50,3*7B,1773143369971
NMEA,$GBGSV,2,2,08,38,40,023,42,40,40,108,47,42,44,199,52,44,44,056,44,3*7D,1773143369971
NMEA,$GNGSA,A,3,05,11,12,13,15,18,21,23,24,25,29,,0.8,0.4,0.6,1*3A,1773143369980
NMEA,$GNGSA,A,3,67,68,69,73,80,82,83,,,,,,0.8,0.4,0.6,2*35,1773143369980
NMEA,$GNGSA,A,3,02,05,06,09,16,18,25,34,36,,,,0.8,0.4,0.6,3*3A,1773143369980
NMEA,$GNGSA,A,3,21,22,24,34,38,40,42,44,,,,,0.8,0.4,0.6,4*35,1773143369980
NMEA,$GNGSA,A,3,02,03,,,,,,,,,,,0.8,0.4,0.6,5*3E,1773143369980
NMEA,$GNVTG,,T,,M,0.0,N,0.0,K,A*3D,1773143369980
NMEA,$GNDTM,W84,,0000.000000,N,00000.000000,E,0.000,W84*41,1773143369980
NMEA,$GNRMC,114930.00,A,1304.091243,N,07735.505497,E,0.0,,100326,1.1,W,A,V*62,1773143369980
NMEA,$GNGNS,114930.00,1304.091243,N,07735.505497,E,AAAAAN,37,0.4,956.7,-85.8,,,V*01,1773143369980
NMEA,$GNGGA,114930.00,1304.091243,N,07735.505497,E,1,12,0.4,956.7,M,-85.8,M,,*59,1773143369980
NMEA,$GPGSV,4,1,15,05,39,020,34,11,10,063,39,12,38,184,49,13,35,096,41,1*67,1773143370972
NMEA,$GPGSV,4,2,15,15,57,140,49,18,19,302,41,20,45,096,48,21,14,034,46,1*6E,1773143370972
NMEA,$GPGSV,4,3,15,23,33,238,47,24,10,170,38,25,49,241,53,29,47,347,52,1*62,1773143370972
NMEA,$GPGSV,4,4,15,10,00,224,,40,00,000,50,41,00,000,49,1*5C,1773143370972
NMEA,$GLGSV,2,1,07,82,26,041,47,73,19,286,43,80,28,227,43,69,32,183,51,1*71,1773143370972
NMEA,$GLGSV,2,2,07,83,22,344,48,67,33,041,46,68,66,114,50,1*42,1773143370972
NMEA,$GAGSV,3,1,10,02,43,295,50,05,29,169,45,06,27,078,37,09,37,105,37,7*7A,1773143370972
NMEA,$GAGSV,3,2,10,11,22,040,34,16,18,161,43,18,58,090,50,25,56,202,50,7*76,1773143370972
NMEA,$GAGSV,3,3,10,34,19,290,38,36,37,345,47,7*7D,1773143370972
NMEA,$GQGSV,1,1,02,02,13,134,43,03,21,066,36,1*63,1773143370972
NMEA,$GBGSV,2,1,08,21,74,087,50,22,26,040,48,24,25,218,42,34,35,342,49,3*7C,1773143370972
NMEA,$GBGSV,2,2,08,38,40,023,41,40,40,108,47,42,44,199,52,44,44,056,44,3*7E,1773143370972
NMEA,$GNGSA,A,3,05,11,12,13,15,18,21,23,24,25,29,,0.8,0.4,0.6,1*3A,1773143370979
NMEA,$GNGSA,A,3,67,68,69,73,80,82,83,,,,,,0.8,0.4,0.6,2*35,1773143370979
NMEA,$GNGSA,A,3,02,05,06,09,16,18,25,34,36,,,,0.8,0.4,0.6,3*3A,1773143370979
NMEA,$GNGSA,A,3,21,22,24,34,38,40,42,44,,,,,0.8,0.4,0.6,4*35,1773143370979
NMEA,$GNGSA,A,3,02,03,,,,,,,,,,,0.8,0.4,0.6,5*3E,1773143370979
NMEA,$GNVTG,,T,,M,0.0,N,0.0,K,A*3D,1773143370979
NMEA,$GNDTM,W84,,0000.000000,N,00000.000000,E,0.000,W84*41,1773143370979
NMEA,$GNRMC,114931.00,A,1304.091246,N,07735.505496,E,0.0,,100326,1.1,W,A,V*67,1773143370979
NMEA,$GNGNS,114931.00,1304.091246,N,07735.505496,E,AAAAAN,37,0.4,956.7,-85.8,,,V*04,1773143370979
NMEA,$GNGGA,114931.00,1304.091246,N,07735.505496,E,1,12,0.4,956.7,M,-85.8,M,,*5C,1773143370979
NMEA,$GPGSV,4,1,15,05,39,020,35,11,10,063,39,12,38,184,49,13,35,096,41,1*66,1773143371970
NMEA,$GPGSV,4,2,15,15,57,140,49,18,19,302,40,20,45,096,48,21,14,034,46,1*6F,1773143371970
NMEA,$GPGSV,4,3,15,23,33,238,47,24,10,170,39,25,49,241,53,29,47,347,52,1*63,1773143371970
NMEA,$GPGSV,4,4,15,10,00,224,,40,00,000,51,41,00,000,49,1*5D,1773143371970
NMEA,$GLGSV,2,1,07,82,26,041,47,73,19,286,43,80,28,227,43,69,32,183,51,1*71,1773143371970
NMEA,$GLGSV,2,2,07,83,22,344,48,67,33,041,46,68,66,114,49,1*4A,1773143371970
NMEA,$GAGSV,3,1,10,02,43,295,49,05,29,169,44,06,27,078,38,09,37,105,37,7*7C,1773143371970
NMEA,$GAGSV,3,2,10,11,22,040,34,16,18,161,43,18,58,090,50,25,56,202,49,7*7E,1773143371970
NMEA,$GAGSV,3,3,10,34,19,290,38,36,37,345,47,7*7D,1773143371970
NMEA,$GQGSV,1,1,02,02,13,134,42,03,21,066,35,1*61,1773143371970
NMEA,$GBGSV,2,1,08,21,74,087,51,22,26,040,47,24,25,218,42,34,35,342,49,3*72,1773143371970
NMEA,$GBGSV,2,2,08,38,40,023,43,40,40,108,48,42,44,199,52,44,44,056,44,3*73,1773143371970
NMEA,$GNGSA,A,3,05,11,12,13,15,18,21,23,24,25,29,,0.8,0.4,0.6,1*3A,1773143371980
NMEA,$GNGSA,A,3,67,68,69,73,80,82,83,,,,,,0.8,0.4,0.6,2*35,1773143371980
NMEA,$GNGSA,A,3,02,05,06,09,16,18,25,34,36,,,,0.8,0.4,0.6,3*3A,1773143371980
NMEA,$GNGSA,A,3,21,22,24,34,38,40,42,44,,,,,0.8,0.4,0.6,4*35,1773143371980
NMEA,$GNGSA,A,3,02,03,,,,,,,,,,,0.8,0.4,0.6,5*3E,1773143371980
NMEA,$GNVTG,,T,,M,0.0,N,0.0,K,A*3D,1773143371980
NMEA,$GNDTM,W84,,0000.000000,N,00000.000000,E,0.000,W84*41,1773143371980
NMEA,$GNRMC,114932.00,A,1304.091246,N,07735.505496,E,0.0,,100326,1.1,W,A,V*64,1773143371980
NMEA,$GNGNS,114932.00,1304.091246,N,07735.505496,E,AAAAAN,37,0.4,956.7,-85.8,,,V*07,1773143371980
NMEA,$GNGGA,114932.00,1304.091246,N,07735.505496,E,1,12,0.4,956.7,M,-85.8,M,,*5F,1773143371980
NMEA,$GPGSV,4,1,15,05,39,020,34,11,10,063,39,12,38,184,48,13,35,096,41,1*66,1773143372972
NMEA,$GPGSV,4,2,15,15,57,140,48,18,19,302,40,20,45,096,48,21,14,034,45,1*6D,1773143372972
NMEA,$GPGSV,4,3,15,23,33,238,47,24,10,170,39,25,49,241,53,29,47,347,52,1*63,1773143372972
NMEA,$GPGSV,4,4,15,10,00,224,,40,00,000,51,41,00,000,49,1*5D,1773143372972
NMEA,$GLGSV,2,1,07,82,26,041,47,73,19,286,43,80,28,227,44,69,32,183,51,1*76,1773143372972
NMEA,$GLGSV,2,2,07,83,22,344,48,67,33,041,46,68,66,114,50,1*42,1773143372972
NMEA,$GAGSV,3,1,10,02,43,295,50,05,29,169,44,06,27,078,38,09,37,105,36,7*75,1773143372972
NMEA,$GAGSV,3,2,10,11,22,040,35,16,18,161,43,18,58,090,50,25,56,202,50,7*77,1773143372972
NMEA,$GAGSV,3,3,10,34,19,290,38,36,37,345,47,7*7D,1773143372972
NMEA,$GQGSV,1,1,02,02,13,134,42,03,21,066,34,1*60,1773143372972
NMEA,$GBGSV,2,1,08,21,74,087,50,22,26,040,48,24,25,218,42,34,35,342,49,3*7C,1773143372972
NMEA,$GBGSV,2,2,08,38,40,023,42,40,40,108,47,42,44,199,52,44,44,056,44,3*7D,1773143372972
NMEA,$GNGSA,A,3,05,11,12,13,15,18,21,23,24,25,29,,0.8,0.4,0.6,1*3A,1773143372981
NMEA,$GNGSA,A,3,67,68,69,73,80,82,83,,,,,,0.8,0.4,0.6,2*35,1773143372981
NMEA,$GNGSA,A,3,02,05,06,09,16,18,25,34,36,,,,0.8,0.4,0.6,3*3A,1773143372981
NMEA,$GNGSA,A,3,21,22,24,34,38,40,42,44,,,,,0.8,0.4,0.6,4*35,1773143372981
NMEA,$GNGSA,A,3,02,03,,,,,,,,,,,0.8,0.4,0.6,5*3E,1773143372981
NMEA,$GNVTG,,T,,M,0.0,N,0.0,K,A*3D,1773143372981
NMEA,$GNDTM,W84,,0000.000000,N,00000.000000,E,0.000,W84*41,1773143372981
NMEA,$GNRMC,114933.00,A,1304.091246,N,07735.505496,E,0.0,,100326,1.1,W,A,V*65,1773143372981
NMEA,$GNGNS,114933.00,1304.091246,N,07735.505496,E,AAAAAN,37,0.4,956.7,-85.8,,,V*06,1773143372981
NMEA,$GNGGA,114933.00,1304.091246,N,07735.505496,E,1,12,0.4,956.7,M,-85.8,M,,*5E,1773143372981
NMEA,$GPGSV,4,1,15,05,39,020,34,11,10,063,39,12,38,184,48,13,35,096,40,1*67,1773143373971
NMEA,$GPGSV,4,2,15,15,57,140,48,18,19,302,40,20,45,096,47,21,14,034,45,1*62,1773143373971
NMEA,$GPGSV,4,3,15,23,33,238,47,24,10,170,38,25,49,241,53,29,47,347,51,1*61,1773143373971
NMEA,$GPGSV,4,4,15,10,00,224,,40,00,000,51,41,00,000,49,1*5D,1773143373971
NMEA,$GLGSV,2,1,07,82,26,041,47,73,19,286,43,80,28,227,43,69,32,183,50,1*70,1773143373971
NMEA,$GLGSV,2,2,07,83,22,344,48,67,33,041,46,68,66,114,50,1*42,1773143373971
NMEA,$GAGSV,3,1,10,02,43,295,49,05,29,169,44,06,27,078,38,09,37,105,37,7*7C,1773143373971
NMEA,$GAGSV,3,2,10,11,22,040,35,16,18,161,44,18,58,090,50,25,56,202,49,7*78,1773143373971
NMEA,$GAGSV,3,3,10,34,19,290,38,36,37,345,48,7*72,1773143373971
NMEA,$GQGSV,1,1,02,02,13,134,42,03,21,066,34,1*60,1773143373971
NMEA,$GBGSV,2,1,08,21,74,087,50,22,26,040,48,24,25,218,42,34,35,342,49,3*7C,1773143373971
NMEA,$GBGSV,2,2,08,38,40,023,42,40,40,108,47,42,44,199,52,44,44,056,44,3*7D,1773143373971
NMEA,$GNGSA,A,3,05,11,12,13,15,18,21,23,24,25,29,,0.8,0.4,0.6,1*3A,1773143373975
NMEA,$GNGSA,A,3,67,68,69,73,80,82,83,,,,,,0.8,0.4,0.6,2*35,1773143373975
NMEA,$GNGSA,A,3,02,05,06,09,16,18,25,34,36,,,,0.8,0.4,0.6,3*3A,1773143373975
NMEA,$GNGSA,A,3,21,22,24,34,38,40,42,44,,,,,0.8,0.4,0.6,4*35,1773143373975
NMEA,$GNGSA,A,3,02,03,,,,,,,,,,,0.8,0.4,0.6,5*3E,1773143373975
NMEA,$GNVTG,,T,,M,0.0,N,0.0,K,A*3D,1773143373975
NMEA,$GNDTM,W84,,0000.000000,N,00000.000000,E,0.000,W84*41,1773143373975
NMEA,$GNRMC,114934.00,A,1304.091246,N,07735.505496,E,0.0,,100326,1.1,W,A,V*62,1773143373975
NMEA,$GNGNS,114934.00,1304.091246,N,07735.505496,E,AAAAAN,37,0.4,956.7,-85.8,,,V*01,1773143373975
NMEA,$GNGGA,114934.00,1304.091246,N,07735.505496,E,1,12,0.4,956.7,M,-85.8,M,,*59,1773143373975
NMEA,$GPGSV,4,1,15,05,39,020,34,11,10,063,39,12,38,184,49,13,35,096,40,1*66,1773143374973
NMEA,$GPGSV,4,2,15,15,57,140,49,18,19,302,41,20,45,096,48,21,14,034,46,1*6E,1773143374973
NMEA,$GPGSV,4,3,15,23,33,238,47,24,10,170,39,25,49,241,53,29,47,347,52,1*63,1773143374973
NMEA,$GPGSV,4,4,15,10,00,224,,40,00,000,51,41,00,000,49,1*5D,1773143374973
NMEA,$GLGSV,2,1,07,82,26,041,47,73,19,286,43,80,28,227,43,69,32,183,51,1*71,1773143374973
NMEA,$GLGSV,2,2,07,83,22,344,48,67,33,041,46,68,66,114,50,1*42,1773143374973
NMEA,$GAGSV,3,1,10,02,43,295,49,05,29,169,45,06,27,078,38,09,37,105,38,7*72,1773143374973
NMEA,$GAGSV,3,2,10,11,22,040,34,16,18,161,43,18,58,090,50,25,56,202,50,7*76,1773143374973
NMEA,$GAGSV,3,3,10,34,19,290,38,36,37,345,47,7*7D,1773143374973
NMEA,$GQGSV,1,1,02,02,13,134,43,03,21,066,36,1*63,1773143374973
NMEA,$GBGSV,2,1,08,21,74,087,50,22,26,040,48,24,25,218,42,34,35,342,49,3*7C,1773143374973
NMEA,$GBGSV,2,2,08,38,40,023,42,40,40,108,47,42,44,199,52,44,44,056,44,3*7D,1773143374973
NMEA,$GNGSA,A,3,05,11,12,13,15,18,21,23,24,25,29,,0.8,0.4,0.6,1*3A,1773143374978
NMEA,$GNGSA,A,3,67,68,69,73,80,82,83,,,,,,0.8,0.4,0.6,2*35,1773143374978
NMEA,$GNGSA,A,3,02,05,06,09,16,18,25,34,36,,,,0.8,0.4,0.6,3*3A,1773143374978
NMEA,$GNGSA,A,3,21,22,24,34,38,40,42,44,,,,,0.8,0.4,0.6,4*35,1773143374978
NMEA,$GNGSA,A,3,02,03,,,,,,,,,,,0.8,0.4,0.6,5*3E,1773143374978
NMEA,$GNVTG,,T,,M,0.0,N,0.0,K,A*3D,1773143374978
NMEA,$GNDTM,W84,,0000.000000,N,00000.000000,E,0.000,W84*41,1773143374978
NMEA,$GNRMC,114935.00,A,1304.091251,N,07735.505493,E,0.0,,100326,1.1,W,A,V*60,1773143374978
NMEA,$GNGNS,114935.00,1304.091251,N,07735.505493,E,AAAAAN,37,0.4,956.7,-85.8,,,V*03,1773143374978
NMEA,$GNGGA,114935.00,1304.091251,N,07735.505493,E,1,12,0.4,956.7,M,-85.8,M,,*5B,1773143374978
NMEA,$GPGSV,4,1,15,05,39,020,33,11,10,063,39,12,38,184,49,13,35,096,39,1*6F,1773143375973
NMEA,$GPGSV,4,2,15,15,57,140,49,18,19,302,41,20,45,096,48,21,14,034,46,1*6E,1773143375973
NMEA,$GPGSV,4,3,15,23,33,238,47,24,10,170,39,25,49,241,53,29,47,347,52,1*63,1773143375973
NMEA,$GPGSV,4,4,15,10,00,224,,40,00,000,50,41,00,000,49,1*5C,1773143375973
NMEA,$GLGSV,2,1,07,82,26,041,47,73,19,286,43,80,28,227,43,69,32,183,51,1*71,1773143375973
NMEA,$GLGSV,2,2,07,83,22,344,48,67,33,041,46,68,66,114,50,1*42,1773143375973
NMEA,$GAGSV,3,1,10,02,43,295,49,05,29,169,44,06,27,078,38,09,37,105,37,7*7C,1773143375973
NMEA,$GAGSV,3,2,10,11,22,040,35,16,18,161,43,18,58,090,51,25,56,202,49,7*7E,1773143375973
NMEA,$GAGSV,3,3,10,34,19,290,38,36,37,345,48,7*72,1773143375973
NMEA,$GQGSV,1,1,02,02,13,134,43,03,21,066,35,1*60,1773143375973
NMEA,$GBGSV,2,1,08,21,74,087,50,22,26,040,48,24,25,218,43,34,35,342,49,3*7D,1773143375973
NMEA,$GBGSV,2,2,08,38,40,023,42,40,40,108,47,42,44,199,52,44,44,056,44,3*7D,1773143375973
NMEA,$GNGSA,A,3,05,11,12,13,15,18,21,23,24,25,29,,0.8,0.4,0.6,1*3A,1773143375978
NMEA,$GNGSA,A,3,67,68,69,73,80,82,83,,,,,,0.8,0.4,0.6,2*35,1773143375978
NMEA,$GNGSA,A,3,02,05,06,09,16,18,25,34,36,,,,0.8,0.4,0.6,3*3A,1773143375978
NMEA,$GNGSA,A,3,21,22,24,34,38,40,42,44,,,,,0.8,0.4,0.6,4*35,1773143375978
NMEA,$GNGSA,A,3,02,03,,,,,,,,,,,0.8,0.4,0.6,5*3E,1773143375978
NMEA,$GNVTG,,T,,M,0.0,N,0.0,K,A*3D,1773143375978
NMEA,$GNDTM,W84,,0000.000000,N,00000.000000,E,0.000,W84*41,1773143375978
NMEA,$GNRMC,114936.00,A,1304.091254,N,07735.505490,E,0.0,,100326,1.1,W,A,V*65,1773143375978
NMEA,$GNGNS,114936.00,1304.091254,N,07735.505490,E,AAAAAN,37,0.4,956.7,-85.8,,,V*06,1773143375978
NMEA,$GNGGA,114936.00,1304.091254,N,07735.505490,E,1,12,0.4,956.7,M,-85.8,M,,*5E,1773143375978
NMEA,$GPGSV,4,1,15,05,39,020,34,11,10,063,39,12,38,184,49,13,35,096,40,1*66,1773143376968
NMEA,$GPGSV,4,2,15,15,57,140,49,18,19,302,41,20,45,096,48,21,14,034,45,1*6D,1773143376968
NMEA,$GPGSV,4,3,15,23,33,238,47,24,10,170,39,25,49,241,53,29,47,347,52,1*63,1773143376968
NMEA,$GPGSV,4,4,15,10,00,224,,40,00,000,51,41,00,000,49,1*5D,1773143376968
NMEA,$GLGSV,2,1,07,82,26,041,47,73,19,286,43,80,28,227,43,69,32,183,51,1*71,1773143376968
NMEA,$GLGSV,2,2,07,83,22,344,48,67,33,041,46,68,66,114,50,1*42,1773143376968
NMEA,$GAGSV,3,1,10,02,43,295,49,05,29,169,44,06,27,078,39,09,37,105,37,7*7D,1773143376968
NMEA,$GAGSV,3,2,10,11,22,040,35,16,18,161,43,18,58,090,50,25,56,202,49,7*7F,1773143376968
NMEA,$GAGSV,3,3,10,34,19,290,38,36,37,345,47,7*7D,1773143376968
NMEA,$GQGSV,1,1,02,02,13,134,42,03,21,066,35,1*61,1773143376968
NMEA,$GBGSV,2,1,08,21,74,087,49,22,26,040,48,24,25,218,42,34,35,342,49,3*74,1773143376968
NMEA,$GBGSV,2,2,08,38,40,023,41,40,40,108,47,42,44,199,51,44,44,056,44,3*7D,1773143376968
NMEA,$GNGSA,A,3,05,11,12,13,15,18,21,23,24,25,29,,0.8,0.4,0.6,1*3A,1773143376973
NMEA,$GNGSA,A,3,67,68,69,73,80,82,83,,,,,,0.8,0.4,0.6,2*35,1773143376973
NMEA,$GNGSA,A,3,02,05,06,09,16,18,25,34,36,,,,0.8,0.4,0.6,3*3A,1773143376973
NMEA,$GNGSA,A,3,21,22,24,34,38,40,42,44,,,,,0.8,0.4,0.6,4*35,1773143376973
NMEA,$GNGSA,A,3,02,03,,,,,,,,,,,0.8,0.4,0.6,5*3E,1773143376973
NMEA,$GNVTG,,T,,M,0.0,N,0.0,K,A*3D,1773143376973
NMEA,$GNDTM,W84,,0000.000000,N,00000.000000,E,0.000,W84*41,1773143376973
NMEA,$GNRMC,114937.00,A,1304.091255,N,07735.505490,E,0.0,,100326,1.1,W,A,V*65,1773143376973
NMEA,$GNGNS,114937.00,1304.091255,N,07735.505490,E,AAAAAN,37,0.4,956.7,-85.8,,,V*06,1773143376973
NMEA,$GNGGA,114937.00,1304.091255,N,07735.505490,E,1,12,0.4,956.7,M,-85.8,M,,*5E,1773143376973
NMEA,$GPGSV,4,1,15,05,39,020,32,11,10,063,38,12,38,184,49,13,35,096,39,1*6F,1773143377968
NMEA,$GPGSV,4,2,15,15,57,140,49,18,19,302,41,20,45,096,48,21,14,034,46,1*6E,1773143377968
NMEA,$GPGSV,4,3,15,23,33,238,47,24,10,170,38,25,49,241,54,29,47,347,52,1*65,1773143377968
NMEA,$GPGSV,4,4,15,10,00,224,,40,00,000,51,41,00,000,49,1*5D,1773143377968
NMEA,$GLGSV,2,1,07,82,26,041,47,73,19,286,43,80,28,227,43,69,32,183,51,1*71,1773143377968
NMEA,$GLGSV,2,2,07,83,22,344,48,67,33,041,46,68,66,114,50,1*42,1773143377968
NMEA,$GAGSV,3,1,10,02,43,295,49,05,29,169,44,06,27,078,38,09,37,105,37,7*7C,1773143377968
NMEA,$GAGSV,3,2,10,11,22,040,35,16,18,161,43,18,58,090,50,25,56,202,50,7*77,1773143377968
NMEA,$GAGSV,3,3,10,34,19,290,39,36,37,345,47,7*7C,1773143377968
NMEA,$GQGSV,1,1,02,02,13,134,42,03,21,066,35,1*61,1773143377968
NMEA,$GBGSV,2,1,08,21,74,087,50,22,26,040,48,24,25,218,43,34,35,342,49,3*7D,1773143377968
NMEA,$GBGSV,2,2,08,38,40,023,41,40,40,108,47,42,44,199,52,44,44,056,44,3*7E,1773143377968
NMEA,$GNGSA,A,3,05,11,12,13,15,18,21,23,24,25,29,,0.8,0.4,0.6,1*3A,1773143377973
NMEA,$GNGSA,A,3,67,68,69,73,80,82,83,,,,,,0.8,0.4,0.6,2*35,1773143377973
NMEA,$GNGSA,A,3,02,05,06,09,16,18,25,34,36,,,,0.8,0.4,0.6,3*3A,1773143377973
NMEA,$GNGSA,A,3,21,22,24,34,38,40,42,44,,,,,0.8,0.4,0.6,4*35,1773143377973
NMEA,$GNGSA,A,3,02,03,,,,,,,,,,,0.8,0.4,0.6,5*3E,1773143377973
NMEA,$GNVTG,,T,,M,0.0,N,0.0,K,A*3D,1773143377973
NMEA,$GNDTM,W84,,0000.000000,N,00000.000000,E,0.000,W84*41,1773143377973
NMEA,$GNRMC,114938.00,A,1304.091254,N,07735.505490,E,0.0,,100326,1.1,W,A,V*6B,1773143377973
NMEA,$GNGNS,114938.00,1304.091254,N,07735.505490,E,AAAAAN,37,0.4,956.7,-85.8,,,V*08,1773143377973
NMEA,$GNGGA,114938.00,1304.091254,N,07735.505490,E,1,12,0.4,956.7,M,-85.8,M,,*50,1773143377973
NMEA,$GPGSV,4,1,15,05,39,020,33,11,10,063,39,12,38,184,49,13,35,096,40,1*61,1773143378972
NMEA,$GPGSV,4,2,15,15,57,140,49,18,19,302,41,20,45,096,49,21,14,034,46,1*6F,1773143378972
NMEA,$GPGSV,4,3,15,23,33,238,47,24,10,170,38,25,49,241,54,29,47,347,52,1*65,1773143378972
NMEA,$GPGSV,4,4,15,10,00,224,,40,00,000,51,41,00,000,49,1*5D,1773143378972
NMEA,$GLGSV,2,1,07,82,26,041,47,73,19,286,43,80,28,227,44,69,32,183,51,1*76,1773143378972
NMEA,$GLGSV,2,2,07,83,22,344,48,67,33,041,46,68,66,114,50,1*42,1773143378972
NMEA,$GAGSV,3,1,10,02,43,295,50,05,29,169,44,06,27,078,38,09,37,105,37,7*74,1773143378972
NMEA,$GAGSV,3,2,10,11,22,040,34,16,18,161,43,18,58,090,50,25,56,202,50,7*76,1773143378972
NMEA,$GAGSV,3,3,10,34,19,290,39,36,37,345,47,7*7C,1773143378972
NMEA,$GQGSV,1,1,02,02,13,134,42,03,21,066,35,1*61,1773143378972
NMEA,$GBGSV,2,1,08,21,74,087,49,22,26,040,48,24,25,218,43,34,35,342,49,3*75,1773143378972
NMEA,$GBGSV,2,2,08,38,40,023,42,40,40,108,47,42,44,199,51,44,44,056,45,3*7F,1773143378972
NMEA,$GNGSA,A,3,05,11,12,13,15,18,21,23,24,25,29,,0.8,0.4,0.6,1*3A,1773143378977
NMEA,$GNGSA,A,3,67,68,69,73,80,82,83,,,,,,0.8,0.4,0.6,2*35,1773143378977
NMEA,$GNGSA,A,3,02,05,06,09,16,18,25,34,36,,,,0.8,0.4,0.6,3*3A,1773143378977
NMEA,$GNGSA,A,3,21,22,24,34,38,40,42,44,,,,,0.8,0.4,0.6,4*35,1773143378977
NMEA,$GNGSA,A,3,02,03,,,,,,,,,,,0.8,0.4,0.6,5*3E,1773143378977
NMEA,$GNVTG,,T,,M,0.0,N,0.0,K,A*3D,1773143378977
NMEA,$GNDTM,W84,,0000.000000,N,00000.000000,E,0.000,W84*41,1773143378977
NMEA,$GNRMC,114939.00,A,1304.091254,N,07735.505491,E,0.0,,100326,1.1,W,A,V*6B,1773143378977
NMEA,$GNGNS,114939.00,1304.091254,N,07735.505491,E,AAAAAN,37,0.4,956.7,-85.8,,,V*08,1773143378977
NMEA,$GNGGA,114939.00,1304.091254,N,07735.505491,E,1,12,0.4,956.7,M,-85.8,M,,*50,1773143378977
NMEA,$GPGSV,4,1,15,05,39,020,32,11,10,063,38,12,38,184,48,13,35,096,40,1*60,1773143379971
NMEA,$GPGSV,4,2,15,15,57,140,48,18,19,302,40,20,45,096,48,21,14,034,46,1*6E,1773143379971
NMEA,$GPGSV,4,3,15,23,33,238,47,24,10,170,38,25,49,241,53,29,47,347,51,1*61,1773143379971
NMEA,$GPGSV,4,4,15,10,00,224,,40,00,000,51,41,00,000,49,1*5D,1773143379971
NMEA,$GLGSV,2,1,07,82,26,041,47,73,19,286,43,80,28,227,43,69,32,183,51,1*71,1773143379971
NMEA,$GLGSV,2,2,07,83,22,344,48,67,33,041,46,68,66,114,50,1*42,1773143379971
NMEA,$GAGSV,3,1,10,02,43,295,50,05,29,169,44,06,27,078,38,09,37,105,38,7*7B,1773143379971
NMEA,$GAGSV,3,2,10,11,22,040,33,16,18,161,43,18,58,090,50,25,56,202,49,7*79,1773143379971
NMEA,$GAGSV,3,3,10,34,19,290,38,36,37,345,48,7*72,1773143379971
NMEA,$GQGSV,1,1,02,02,13,134,43,03,21,066,35,1*60,1773143379971
NMEA,$GBGSV,2,1,08,21,74,087,49,22,26,040,48,24,25,218,43,34,35,342,49,3*75,1773143379971
NMEA,$GBGSV,2,2,08,38,40,023,42,40,40,108,47,42,44,199,52,44,44,056,45,3*7C,1773143379971
NMEA,$GNGSA,A,3,05,11,12,13,15,18,21,23,24,25,29,,0.8,0.4,0.6,1*3A,1773143379975
NMEA,$GNGSA,A,3,67,68,69,73,80,82,83,,,,,,0.8,0.4,0.6,2*35,1773143379975
NMEA,$GNGSA,A,3,02,05,06,09,16,18,25,34,36,,,,0.8,0.4,0.6,3*3A,1773143379975
NMEA,$GNGSA,A,3,21,22,24,34,38,40,42,44,,,,,0.8,0.4,0.6,4*35,1773143379975
NMEA,$GNGSA,A,3,02,03,,,,,,,,,,,0.8,0.4,0.6,5*3E,1773143379975
NMEA,$GNVTG,,T,,M,0.0,N,0.0,K,A*3D,1773143379975
NMEA,$GNDTM,W84,,0000.000000,N,00000.000000,E,0.000,W84*41,1773143379975
NMEA,$GNRMC,114940.00,A,1304.091254,N,07735.505491,E,0.0,,100326,1.1,W,A,V*65,1773143379975
NMEA,$GNGNS,114940.00,1304.091254,N,07735.505491,E,AAAAAN,37,0.4,956.7,-85.8,,,V*06,1773143379975
NMEA,$GNGGA,114940.00,1304.091254,N,07735.505491,E,1,12,0.4,956.7,M,-85.8,M,,*5E,1773143379975
NMEA,$GPGSV,4,1,14,11,10,063,39,12,38,184,48,13,35,096,39,15,57,140,49,1*6C,1773143380971
NMEA,$GPGSV,4,2,14,18,19,302,40,20,45,096,48,21,14,034,46,23,33,238,47,1*6B,1773143380971
NMEA,$GPGSV,4,3,14,24,10,170,39,25,49,241,53,29,47,347,52,10,00,224,,1*6C,1773143380971
NMEA,$GPGSV,4,4,14,40,00,000,51,41,00,000,49,1*69,1773143380971
NMEA,$GLGSV,2,1,07,82,26,041,47,73,19,286,42,80,28,227,43,69,32,183,51,1*70,1773143380971
NMEA,$GLGSV,2,2,07,83,22,344,48,67,33,041,47,68,66,114,50,1*43,1773143380971
NMEA,$GAGSV,3,1,10,02,43,295,49,05,29,169,44,06,27,078,38,09,37,105,37,7*7C,1773143380971
NMEA,$GAGSV,3,2,10,11,22,040,34,16,18,161,43,18,58,090,51,25,56,202,50,7*77,1773143380971
NMEA,$GAGSV,3,3,10,34,19,290,38,36,37,345,48,7*72,1773143380971
NMEA,$GQGSV,1,1,02,02,13,134,43,03,21,066,35,1*60,1773143380971
NMEA,$GBGSV,2,1,08,21,74,087,50,22,26,040,49,24,25,218,42,34,35,342,49,3*7D,1773143380971
NMEA,$GBGSV,2,2,08,38,40,023,42,40,40,108,47,42,44,199,51,44,44,056,44,3*7E,1773143380971
NMEA,$GNGSA,A,3,05,11,12,13,15,18,21,23,24,25,29,,0.8,0.4,0.6,1*3A,1773143380977
NMEA,$GNGSA,A,3,67,68,69,73,80,82,83,,,,,,0.8,0.4,0.6,2*35,1773143380977
NMEA,$GNGSA,A,3,02,05,06,09,16,18,25,34,36,,,,0.8,0.4,0.6,3*3A,1773143380977
NMEA,$GNGSA,A,3,21,22,24,34,38,40,42,44,,,,,0.8,0.4,0.6,4*35,1773143380977
NMEA,$GNGSA,A,3,02,03,,,,,,,,,,,0.8,0.4,0.6,5*3E,1773143380977
