     4.01           OBSERVATION DATA    M                   RINEX VERSION / TYPE
GnssLogger          Sony 16             20260310 114925 UTC PGM / RUN BY / DATE
Google GnssLogger                                           MARKER NAME
Unknown                                                     MARKER NUMBER
Unknown             Unknown                                 OBSERVER / AGENCY
Unknown             GnssLogger          v3.1.1.2            REC # / TYPE / VERS
Unknown             Unknown                                 ANT # / TYPE
        0.0000        0.0000        0.0000                  ANTENNA: DELTA H/E/N
G    3 C1C D1C S1C                                          SYS / # / OBS TYPES
R    3 C1C D1C S1C                                          SYS / # / OBS TYPES
J    3 C1C D1C S1C                                          SYS / # / OBS TYPES
C    3 C1P D1P S1P                                          SYS / # / OBS TYPES
E    3 C1C D1C S1C                                          SYS / # / OBS TYPES
  2026    03    10    11    49   25.0000000     GPS         TIME OF FIRST OBS
 7 R03  5 R04  6 R05  1 R09 -2 R16 -1 R18 -3 R19  3         GLONASS SLOT / FRQ #
Sony SO-51G (Android 16) HW Year: 2023 HW Model:            COMMENT
qcom;MPSS.DE.9.0.c2-00076.1-KAANAPALI_GEN_PACK-1.141244.8;  COMMENT
                                                            END OF HEADER
> 2026 03 10 11 49 25.5773210  0 39                      
G05  22026016.85026     -2714.99426        36.10026
G11  24815210.33226     -1127.14626        39.30026
G12  22481113.79328     -2947.92328        48.90028
G13  21977249.61127       628.59327        42.40027
G15  20883290.74327      1835.79127        47.20027
G18  24091748.47426       940.68126        41.00026
G20  21662908.82528       270.75828        48.40028
G21  24224290.61727     -3259.99027        45.20027
G23  22490040.71327      1967.22627        46.20027
G24  25060072.11826       675.26626        37.80026
G25  21468401.97928     -1368.31728        52.70028
G29  21580410.13728      2392.76428        51.90028
J02  37497996.82126      -336.83426        41.40026
J03  41584328.71326      1113.97926        35.90026
R18  22009419.44027       430.76227        47.30027
R09  22588881.68727        -9.57127        42.60027
R16  21878393.34827     -2603.90127        42.50027
R05  21488890.09528      3920.89028        51.30028
R19  22429861.27528      1357.80528        48.60028
R03  21503460.90827     -2693.16027        43.90027
R04  19447173.64628       924.38528        50.50028
E02  24851692.67628       786.72928        49.00028
E05  25945479.46327      2339.40327        43.60027
E06  26208635.48426        22.53526        38.30026
E09  25327365.57426      1006.72926        35.70026
E11  25370178.03625      -831.86325        33.60025
E16  27027302.13327     -2798.02927        42.70027
E18  16990094.14728      -627.46928        49.20028
E25  24104806.23428     -1727.64528        48.90028
E34  27005885.55926       313.60626        35.80026
E36  25469052.88628      -400.48128        47.60028
C21  21960404.57328       -78.17228        50.10028
C22  24416375.44027     -2614.21527        46.30027
C24  24673915.14827     -1667.66027        41.90027
C34  23453464.84928      1657.65228        49.00028
C38  37779770.25427     -1020.09427        42.50027
C40  37644705.95727       181.33927        47.10027
C42  23326546.21328      2587.14828        52.50028
C44  22855704.47027       177.07527        44.10027
> 2026 03 10 11 49 26.5676572  0 39                      
G05  22026527.18826     -2713.05226        36.20026
G11  24815409.48526     -1124.82026        40.00026
G12  22481658.60728     -2946.22828        48.80028
G13  21977112.09827       629.98827        42.40027
G15  20882934.08127      1837.64627        46.90027
G18  24091554.00026       942.59026        40.80026
G20  21662851.05628       272.06528        48.30028
G21  24224892.99127     -3258.06927        45.50027
G23  22489659.76827      1968.73627        47.10027
G24  25059937.30226       678.16026        38.20026
G25  21468648.50028     -1366.87328        52.60028
G29  21579950.34728      2394.37728        52.10028
J02  37498048.47726      -335.16226        41.30026
J03  41584112.95326      1116.02926        35.90026
R18  22009324.79727       432.79427        47.00027
R09  22588870.98627        -8.27227        42.90027
R16  21878850.32327     -2602.07527        42.80027
R05  21488153.59728      3922.57728        50.70028
R19  22429605.94328      1360.09628        48.30028
R03  21503950.26127     -2691.85127        44.10027
R04  19446986.06728       925.88528        50.60028
E02  24851533.27728       788.35128        48.70028
E05  25945029.26627      2341.60927        43.60027
E06  26208619.08626        24.18826        37.90026
E09  25327166.60326      1009.57026        35.50026
E11  25370324.42625      -829.72425        33.80025
E16  27027820.56527     -2796.08227        42.70027
E18  16990201.56428      -626.85828        49.30028
E25  24105120.80828     -1726.07028        49.50028
E34  27005820.29526       315.59126        35.50026
E36  25469118.63227      -398.38427        47.10027
C21  21960407.66228       -76.67528        50.50028
C22  24416857.89727     -2612.55127        46.10027
C24  24674217.43027     -1665.69127        42.30027
C34  23453142.96328      1659.58828        49.00028
C38  37779953.51827     -1018.20527        42.40027
C40  37644659.28027       183.29027        46.90027
C42  23326048.94828      2588.74828        52.50028
C44  22855658.09327       178.99227        44.00027
> 2026 03 10 11 49 27.5794940  0 39                      
G05  22027061.55726     -2714.47026        35.90026
G11  24815635.66726     -1126.00226        39.80026
G12  22482234.94728     -2947.41028        49.10028
G13  21977004.91027       628.31127        42.30027
G15  20882592.75627      1836.00227        47.00027
G18  24091380.85826       941.62926        40.50026
G20  21662806.22628       270.31128        48.50028
G21  24225529.58927     -3259.07627        44.90027
G23  22489291.46227      1967.13827        47.00027
G24  25059817.22426       676.75626        37.90026
G25  21468921.14928     -1368.34128        52.40028
G29  21579496.00028      2393.03028        52.00028
J02  37498122.06526      -336.16326        41.40026
J03  41583898.74026      1115.12626        35.60026
R18  22009250.88727       431.75827        47.20027
R09  22588874.72227        -9.73927        42.60027
R16  21879364.30627     -2603.54227        42.30027
R05  21487413.54728      3921.18128        51.30028
R19  22429349.15928      1359.20828        48.90028
R03  21504475.63627     -2693.60227        44.60027
R04  19446818.02228       923.77828        50.40028
E02  24851390.41528       786.61028        49.10028
E05  25944585.71127      2340.23027        43.90027
E06  26208624.92126        22.60626        38.30026
E09  25326980.27126      1007.43226        35.50026
E11  25370495.14625      -831.42825        34.80025
E16  27028367.52527     -2797.16227        43.00027
E18  16990332.41228      -629.65128        49.30028
E25  24105463.01028     -1727.48428        49.40028
E34  27005765.27226       314.43626        36.00026
E36  25469204.51127      -399.44327        47.20027
C21  21960430.88428       -78.45828        49.90028
C22  24417367.08327     -2614.26327        46.70027
C24  24674547.94027     -1666.89927        42.70027
C34  23452832.21628      1658.55128        49.20028
C38  37780159.31427     -1019.29727        42.30027
C40  37644633.03727       181.94427        46.60027
C42  23325557.42728      2587.26928        52.50028
C44  22855634.84827       177.68727        44.30027
> 2026 03 10 11 49 28.5927636  0 39                      
G05  22027572.14726     -2715.11726        35.90026
G11  24815841.06926     -1126.14826        40.10026
G12  22482793.80428     -2948.01328        48.90028
G13  21976875.14427       627.39527        42.60027
G15  20882227.95327      1834.97727        46.60027
G18  24091192.63226       941.48326        40.50026
G20  21662748.70928       269.35428        48.30028
G21  24226151.10327     -3259.37127        44.70027
G23  22488902.07527      1966.35427        47.30027
G24  25059676.06526       676.96426        37.40026
G25  21469177.81628     -1369.35728        52.90028
G29  21579028.06828      2392.29928        52.10028
J02  37498177.27027      -336.57427        41.60027
J03  41583688.62926      1114.46226        36.10026
R18  22009164.59128       431.30828        47.50028
R09  22588862.77427       -11.08027        42.10027
R16  21879847.61527     -2604.26927        42.60027
R05  21486665.30928      3920.31428        50.70028
R19  22429083.58728      1358.96828        48.70028
R03  21504974.53427     -2694.78527        44.30027
R04  19446634.89328       922.57128        50.50028
E02  24851231.26928       785.53828        49.50028
E05  25944126.17327      2339.79727        43.70027
E06  26208612.37326        21.36226        38.40026
E09  25326780.65326      1006.74826        36.10026
E11  25370643.58725      -831.65725        35.00025
E16  27028898.80127     -2798.00027        43.00027
E18  16990443.37928      -631.74528        49.00028
E25  24105788.02828     -1728.39128        49.20028
E34  27005696.66325       313.90825        35.40025
E36  25469273.20728      -399.87128        47.80028
C21  21960437.52428       -79.53928        50.30028
C22  24417866.28127     -2615.00927        46.40027
C24  24674859.46827     -1667.40827        42.20027
C34  23452504.58728      1658.13128        49.30028
C38  37780347.62827     -1020.10627        42.00027
C40  37644589.01127       181.15627        47.40027
C42  23325053.52028      2586.41828        52.30028
C44  22855593.22027       177.03427        44.70027
> 2026 03 10 11 49 29.5865380  0 39                      
G05  22028105.44226     -2713.92526        37.20026
G11  24816071.57326     -1124.15526        39.40026
G12  22483372.66728     -2946.47728        50.00028
G13  21976779.77427       628.75627        43.00027
G15  20881901.74228      1836.55228        47.80028
G18  24091031.30826       943.41926        40.70026
G20  21662715.69628       270.66528        48.40028
G21  24226785.72727     -3257.26327        45.40027
G23  22488551.58227      1967.57727        47.30027
G24  25059566.90526       679.19026        38.00026
G25  21469457.48628     -1367.94928        52.40028
G29  21578595.73128      2393.94628        51.00028
J02  37498265.37327      -334.87527        42.30027
J03  41583497.92626      1116.85926        35.60026
R18  22009105.49527       433.06527        47.30027
R09  22588881.32527        -9.71927        42.40027
R16  21880357.52627     -2602.69327        42.80027
R05  21485962.56028      3921.85528        50.90028
R19  22428859.30628      1360.91028        48.50028
R03  21505503.03227     -2693.67527        44.80027
R04  19446487.05928       923.64328        50.20028
E02  24851101.72228       787.42628        48.90028
E05  25943703.73027      2342.01927        43.80027
E06  26208626.12826        23.39426        38.80026
E09  25326606.43725      1008.53325        35.40025
E11  25370822.52725      -829.15625        33.70025
E16  27029449.18427     -2795.50827        43.40027
E18  16990583.64628      -631.04128        49.10028
E25  24106134.25328     -1726.53528        49.50028
E34  27005657.95426       316.31526        35.60026
E36  25469368.50528      -397.63128        47.70028
C21  21960474.66228       -78.07528        50.30028
C22  24418376.79227     -2613.12327        46.80027
C24  24675196.09927     -1665.33227        42.50027
C34  23452210.75428      1660.39228        49.00028
C38  37780560.74427     -1017.84727        42.20027
C40  37644575.78528       183.10328        47.50028
C42  23324583.40928      2588.07528        52.00028
C44  22855577.89527       178.69427        43.70027
> 2026 03 10 11 49 30.5753142  0 39                      
G05  22028610.49026     -2714.12826        36.60026
G11  24816265.13726     -1124.14226        39.80026
G12  22483911.89128     -2946.38628        49.10028
G13  21976643.26627       627.99327        41.80027
G15  20881539.49128      1835.95328        47.60028
G18  24090841.73726       943.41426        40.30026
G20  21662648.74028       270.25428        48.10028
G21  24227384.01127     -3257.37727        44.80027
G23  22488166.54627      1967.38927        46.90027
G24  25059417.50626       679.59326        37.50026
G25  21469699.31628     -1368.27228        53.40028
G29  21578130.35128      2393.81428        52.40028
J02  37498311.13927      -335.01227        41.80027
J03  41583261.28726      1116.48226        35.70026
R18  22009009.16028       433.28228        47.50028
R09  22588877.92527       -10.43627        42.20027
R16  21880813.40827     -2602.90027        43.50027
R05  21485218.67228      3921.63128        51.00028
R19  22428582.19528      1361.25628        48.30028
R03  21505973.90427     -2694.17427        44.80027
R04  19446302.58428       922.68328        50.40028
E02  24850939.13228       786.73528        49.40028
E05  25943247.94327      2341.57627        44.00027
E06  26208607.73826        22.69526        37.60026
E09  25326401.27725      1008.00925        35.00025
E11  25370964.82625      -828.86525        33.40025
E16  27029958.12927     -2795.78127        43.30027
E18  16990688.47128      -632.72828        49.00028
E25  24106442.93628     -1727.04328        49.40028
E34  27005583.20326       315.84026        35.50026
E36  25469427.16228      -397.71128        47.50028
C21  21960471.86128       -78.75128        50.50028
C22  24418854.25827     -2613.77027        47.20027
C24  24675493.39127     -1665.38727        41.80027
C34  23451881.18028      1660.14828        48.90028
C38  37780738.11927     -1017.88927        42.10027
C40  37644522.01928       182.95028        47.60028
C42  23324079.95528      2587.68828        52.30028
C44  22855531.02527       178.46727        43.90027
> 2026 03 10 11 49 31.5893676  0 39                      
G05  22029134.24926     -2710.48826        36.20026
G11  24816497.49826     -1120.70726        39.30026
G12  22484483.31828     -2943.13728        48.70028
G13  21976525.46927       631.20627        42.00027
G15  20881189.65528      1839.05728        47.60028
G18  24090667.27926       947.15826        40.80026
G20  21662601.09528       273.15728        48.40028
G21  24228017.19427     -3253.75127        45.70027
G23  22487789.12927      1970.39227        47.00027
G24  25059298.21026       683.03026        38.20026
G25  21469966.75328     -1365.17328        52.30028
G29  21577673.78928      2397.12928        51.90028
J02  37498380.11327      -331.67827        42.10027
J03  41583050.85426      1120.18626        35.80026
R18  22008926.43927       436.92827        47.00027
R09  22588864.15626        -7.28926        41.40026
R16  21881314.68227     -2599.42527        42.60027
R05  21484477.30728      3925.00328        50.60028
R19  22428331.29128      1365.32028        48.20028
R03  21506491.06727     -2691.06527        44.10027
R04  19446135.62228       925.43728        50.20028
E02  24850790.75728       789.76728        49.00028
E05  25942800.97427      2345.41527        43.60027
E06  26208607.16026        25.89026        38.00026
E09  25326214.82826      1011.00226        35.50026
E11  25371133.33125      -825.32225        33.90025
E16  27030501.97427     -2792.34527        42.70027
E18  16990814.70528      -630.61128        49.60028
E25  24106781.12428     -1723.81228        49.60028
E34  27005529.86226       319.65126        36.20026
E36  25469507.82827      -394.03427        47.40027
C21  21960491.66928       -75.76128        50.40028
C22  24419364.82727     -2610.47927        46.70027
C24  24675818.68827     -1661.86227        42.10027
C34  23451566.72028      1663.72328        49.40028
C38  37780935.70427     -1014.57227        42.50027
C40  37644493.26127       186.31927        46.80027
C42  23323585.61928      2590.90028        52.10028
C44  22855500.16827       182.00627        43.80027
> 2026 03 10 11 49 32.5822493  0 39                      
G05  22029671.01525     -2710.39225        35.20025
G11  24816729.07526     -1120.56026        39.20026
G12  22485065.95228     -2943.40728        48.70028
G13  21976432.67127       631.00527        41.50027
G15  20880869.01428      1838.80228        47.70028
G18  24090506.12926       947.06826        40.20026
G20  21662576.35028       272.97928        48.10028
G21  24228657.08927     -3253.90227        45.80027
G23  22487443.90627      1969.90927        46.60027
G24  25059197.61826       683.91326        38.50026
G25  21470251.39328     -1365.35928        52.80028
G29  21577246.12228      2397.15128        51.70028
J02  37498474.68527      -331.59327        42.20027
J03  41582874.41425      1120.10925        34.70025
R18  22008877.41027       437.04727        47.40027
R09  22588890.67527        -8.08627        41.70027
R16  21881831.96227     -2599.40727        42.80027
R05  21483777.72928      3924.87228        50.90028
R19  22428105.98428      1365.25328        48.10028
R03  21507013.74327     -2691.63027        44.90027
R04  19445984.66428       924.65028        49.70028
E02  24850668.87928       789.45828        49.00028
E05  25942384.70027      2345.19027        43.50027
E06  26208627.68426        25.73626        38.10026
E09  25326047.68126      1010.91326        35.70026
E11  25371309.44725      -825.48125        33.90025
E16  27031055.52927     -2792.43427        42.70027
E18  16990960.24228      -632.24828        49.30028
E25  24107134.71728     -1724.11228        49.10028
E34  27005497.32225       319.15625        35.20025
E36  25469610.19527      -393.91227        47.40027
C21  21960534.97728       -76.30728        50.00028
C22  24419884.80527     -2610.74327        47.00027
C24  24676159.98927     -1661.68327        42.00027
C34  23451278.45728      1663.77428        49.30028
C38  37781155.29027     -1014.59827        42.20027
C40  37644487.10327       186.11127        46.40027
C42  23323122.27828      2590.51328        52.30028
C44  22855492.81127       181.92927        44.10027
> 2026 03 10 11 49 33.5952608  0 39                      
G05  22030179.32526     -2711.96026        36.20026
G11  24816941.79026     -1121.77026        39.40026
G12  22485623.72728     -2944.79528        48.50028
G13  21976309.31827       628.93227        41.80027
G15  20880507.32627      1836.81527        47.10027
G18  24090325.81526       945.85526        40.40026
G20  21662516.55328       270.84628        48.40028
G21  24229276.62227     -3255.08727        45.50027
G23  22487058.23427      1968.33927        46.70027
G24  25059054.47826       682.81426        38.60026
G25  21470505.77928     -1367.38928        52.70028
G29  21576775.61028      2395.40028        51.80028
J02  37498528.21027      -333.44527        42.00027
J03  41582649.13226      1119.30126        35.70026
R18  22008788.23428       435.70528        47.60028
R09  22588898.03227        -9.85027        41.70027
R16  21882326.78127     -2601.05527        43.30027
R05  21483023.01328      3922.95728        50.90028
R19  22427837.83228      1364.41228        48.60028
R03  21507514.25927     -2693.85327        45.00027
R04  19445802.85228       922.33828        50.70028
E02  24850508.35228       787.72728        49.20028
E05  25941924.38027      2344.05827        44.20027
E06  26208614.95426        23.52326        38.10026
E09  25325846.68226      1009.03726        35.70026
E11  25371461.90325      -826.30825        33.40025
E16  27031586.02327     -2793.44227        42.40027
E18  16991074.02528      -634.96128        49.10028
E25  24107457.45528     -1725.68828        49.30028
E34  27005425.23426       318.23926        35.70026
E36  25469677.51027      -395.10527        47.40027
C21  21960539.63628       -78.22928        50.20028
C22  24420377.52527     -2612.46127        46.90027
C24  24676470.13627     -1663.30027        42.20027
C34  23450948.24728      1662.61728        49.30028
C38  37781344.02127     -1016.03027        42.30027
C40  37644443.79528       184.72628        47.60028
C42  23322614.59128      2588.86528        52.30028
C44  22855446.50427       180.51827        43.80027
> 2026 03 10 11 49 34.5831650  0 39                      
G05  22030681.83826     -2708.48626        35.50026
G11  24817144.81026     -1117.96426        39.70026
G12  22486177.20528     -2941.19328        49.10028
G13  21976182.56727       632.04927        42.30027
G15  20880155.73128      1840.16528        47.70028
G18  24090133.11026       949.52426        40.50026
G20  21662461.15228       274.05628        47.60028
G21  24229882.86327     -3251.26527        45.90027
G23  22486683.55527      1971.59827        46.60027
G24  25058918.43326       687.08526        37.70026
G25  21470757.36628     -1363.96328        52.80028
G29  21576321.18528      2398.97528        51.60028
J02  37498585.53127      -329.52027        42.00027
J03  41582430.94426      1122.99426        35.80026
R18  22008695.05927       439.51027        47.20027
R09  22588895.69527        -6.82427        41.80027
R16  21882789.12227     -2597.64727        43.10027
R05  21482294.57928      3926.54628        50.80028
R19  22427578.57228      1368.38428        48.20028
R03  21508000.88327     -2690.61927        44.80027
R04  19445624.83628       925.29028        50.30028
E02  24850354.02028       791.05928        48.90028
E05  25941477.75027      2347.80527        43.70027
E06  26208604.82226        27.53126        38.20026
E09  25325646.48125      1012.44125        35.40025
E11  25371607.66325      -822.53825        34.70025
E16  27032105.92427     -2789.56727        43.10027
E18  16991188.60728      -632.61528        49.20028
E25  24107775.89628     -1722.21628        49.30028
E34  27005360.83925       322.07625        35.20025
E36  25469746.82328      -391.24428        47.70028
C21  21960549.59028       -75.05428        50.10028
C22  24420865.34827     -2608.81027        46.80027
C24  24676778.98327     -1659.27227        41.90027
C34  23450631.12828      1666.43528        49.30028
C38  37781529.05327     -1012.37627        42.50027
C40  37644402.18427       188.39227        46.70027
C42  23322122.99228      2592.38428        52.00028
C44  22855408.19227       184.12627        44.20027
> 2026 03 10 11 49 35.5717704  0 39                      
G05  22031209.79526     -2710.77226        35.80026
G11  24817373.57426     -1119.94626        39.50026
G12  22486746.23428     -2943.39928        48.30028
G13  21976083.95827       629.56227        41.80027
G15  20879826.88128      1837.61428        47.90028
G18  24089976.34126       947.72226        40.30026
G20  21662426.09928       271.51428        48.50028
G21  24230514.24927     -3253.32127        45.80027
G23  22486328.92327      1969.22027        46.90027
G24  25058807.23326       685.29826        38.20026
G25  21471031.09928     -1366.41528        53.00028
G29  21575886.80928      2396.69328        51.80028
J02  37498669.19627      -331.79527        41.80027
J03  41582242.09726      1121.04126        36.00026
R18  22008639.32128       437.40028        47.60028
R09  22588918.80126        -9.33626        41.10026
R16  21883291.59727     -2599.72127        43.30027
R05  21481584.69328      3924.17328        51.20028
R19  22427347.45528      1366.57628        48.10028
R03  21508531.23827     -2693.16627        44.90027
R04  19445473.16428       922.51128        50.20028
E02  24850222.73328       788.62628        49.00028
E05  25941053.86727      2345.87927        43.90027
E06  26208618.03626        24.86326        39.00026
E09  25325475.32326      1010.22226        35.70026
E11  25371786.36225      -824.13725        34.10025
E16  27032647.67227     -2791.83127        42.20027
E18  16991326.83428      -636.27928        49.60028
E25  24108118.88128     -1724.64028        49.30028
E34  27005321.29026       319.78926        36.30026
E36  25469838.28228      -393.09428        47.50028
C21  21960579.59228       -77.60228        49.90028
C22  24421372.32027     -2611.29827        46.80027
C24  24677110.57627     -1661.44527        42.20027
C34  23450335.85528      1664.61328        48.80028
C38  37781735.33327     -1014.26827        42.20027
C40  37644384.51927       186.16127        47.40027
C42  23321653.24028      2589.94728        52.10028
C44  22855389.62827       181.87127        44.40027
> 2026 03 10 11 49 36.5868353  0 39                      
G05  22031757.55426     -2711.43926        35.90026
G11  24817610.44826     -1120.82726        39.10026
G12  22487332.06728     -2944.35328        49.30028
G13  21975975.17226       628.37226        41.40026
G15  20879488.75328      1836.31928        47.90028
G18  24089810.89426       946.97926        40.80026
G20  21662391.96128       270.20328        48.70028
G21  24231160.04027     -3254.09927        45.80027
G23  22485967.71127      1967.99927        47.40027
G24  25058697.54726       684.99226        37.50026
G25  21471315.34028     -1367.66328        52.90028
G29  21575441.35528      2395.76328        52.40028
J02  37498746.28127      -332.73627        42.40027
J03  41582043.07326      1120.27126        35.70026
R18  22008571.00627       436.72627        47.20027
R09  22588923.33627       -10.67227        41.80027
R16  21883802.18227     -2600.77027        43.40027
R05  21480854.43728      3923.16228        51.30028
R19  22427097.16628      1366.12228        48.20028
R03  21509053.21527     -2694.64727        45.10027
R04  19445317.60928       920.76928        50.60028
E02  24850089.36428       787.36228        49.90028
E05  25940617.70727      2345.13727        43.30027
E06  26208630.06626        23.70826        37.70026
E09  25325296.68526      1009.46726        35.50026
E11  25371955.78325      -824.86525        33.80025
E16  27033206.22327     -2792.48427        43.30027
E18  16991467.17528      -638.55228        49.80028
E25  24108469.97628     -1725.64128        49.90028
E34  27005277.25826       318.96126        35.90026
E36  25469931.85628      -393.78428        47.50028
C21  21960614.40628       -78.96428        50.30028
C22  24421897.59527     -2612.20227        47.00027
C24  24677447.28127     -1662.37727        42.60027
C34  23450032.20328      1663.80028        49.00028
C38  37781948.82427     -1015.14627        41.90027
C40  37644365.97027       185.19527        47.30027
C42  23321171.81128      2588.83528        52.10028
C44  22855377.97427       180.99627        43.90027
> 2026 03 10 11 49 37.5820171  0 39                      
G05  22032270.38826     -2712.84726        36.20026
G11  24817823.19026     -1121.42426        39.00026
G12  22487890.46928     -2945.19428        48.60028
G13  21975856.34327       627.18527        41.50027
G15  20879143.28128      1835.04328        47.90028
G18  24089633.90526       946.17626        40.20026
G20  21662338.18728       268.81828        48.00028
G21  24231774.50327     -3254.80527        45.20027
G23  22485597.35627      1966.82227        47.10027
G24  25058561.63026       684.47426        38.30026
G25  21471573.95028     -1368.88528        52.60028
G29  21574987.65828      2394.64228        51.80028
J02  37498807.02727      -333.60627        42.00027
J03  41581825.31325      1119.68325        34.70025
R18  22008485.75427       435.90727        46.90027
R09  22588940.91326       -11.88126        41.30026
R16  21884287.43427     -2601.85127        42.90027
R05  21480127.92828      3921.94928        50.70028
R19  22426849.12728      1365.44128        48.10028
R03  21509553.75727     -2696.15427        45.10027
R04  19445144.21828       918.99828        50.20028
E02  24849940.55528       786.20728        49.00028
E05  25940175.40227      2344.34327        43.90027
E06  26208626.95626        22.48526        38.00026
E09  25325107.10426      1008.29826        36.70026
E11  25372114.56225      -825.72425        34.50025
E16  27033735.24627     -2793.24527        43.40027
E18  16991588.18028      -640.71028        49.40028
E25  24108795.44028     -1726.80428        49.60028
E34  27005216.88926       317.97426        36.80026
E36  25470006.39327      -394.34427        47.30027
C21  21960627.18528       -80.15028        50.60028
C22  24422388.54428     -2613.34628        47.60028
C24  24677761.35327     -1662.93427        42.10027
C34  23449716.11128      1662.98828        48.90028
C38  37782143.57827     -1015.66527        42.10027
C40  37644332.58227       184.30627        47.20027
C42  23320681.53928      2587.76128        51.90028
C44  22855340.98827       180.04627        43.80027
> 2026 03 10 11 49 38.5945487  0 39                      
G05  22032790.39026     -2710.70126        35.90026
G11  24818027.81026     -1119.29026        39.20026
G12  22488450.94228     -2943.14928        48.80028
G13  21975732.99027       628.53327        41.60027
G15  20878783.99227      1836.93827        47.30027
G18  24089440.70026       948.49526        40.10026
G20  21662281.68728       270.62328        48.00028
G21  24232395.53527     -3252.57127        45.10027
G23  22485207.48827      1968.68827        47.20027
G24  25058428.38426       687.02826        37.40026
G25  21471833.13228     -1366.93128        52.30028
G29  21574519.24428      2396.79628        52.10028
J02  37498870.14527      -331.53027        42.40027
J03  41581611.42225      1121.86325        34.90025
R18  22008399.57527       438.20127        46.90027
R09  22588939.57627       -10.43527        41.70027
R16  21884775.05827     -2599.74827        43.10027
R05  21479379.20828      3923.98828        50.80028
R19  22426588.16928      1367.94628        48.20028
R03  21510055.17227     -2694.42527        45.20027
R04  19444963.30528       920.49128        50.40028
E02  24849783.92628       788.09128        49.00028
E05  25939715.98127      2346.67827        43.80027
E06  26208617.82426        24.55626        38.10026
E09  25324910.90225      1010.34025        35.20025
E11  25372268.51725      -823.19425        34.30025
E16  27034265.74027     -2791.05727        43.30027
E18  16991704.66128      -639.98528        49.20028
E25  24109124.77328     -1724.69228        49.20028
E34  27005148.39826       320.92026        36.40026
E36  25470076.70627      -391.98127        47.10027
C21  21960639.33928       -78.50328        50.20028
C22  24422889.95827     -2611.42027        47.10027
C24  24678074.79727     -1660.36627        42.30027
C34  23449391.89728      1665.26528        49.40028
C38  37782331.70927     -1013.55027        41.70027
C40  37644288.97427       186.56827        47.00027
C42  23320175.65128      2589.74628        51.40028
C44  22855299.47827       182.09527        43.80027
> 2026 03 10 11 49 39.5825235  0 39                      
G05  22033303.43826     -2710.88926        36.00026
G11  24818245.26326     -1118.91126        39.50026
G12  22489008.65928     -2943.41928        49.30028
G13  21975615.27427       628.16827        41.80027
G15  20878444.43028      1836.52928        48.20028
G18  24089274.41926       948.81726        40.70026
G20  21662236.82228       270.08928        48.00028
G21  24233008.41427     -3252.29227        45.40027
G23  22484841.84427      1968.31527        47.20027
G24  25058304.07326       687.37626        38.60026
G25  21472093.45528     -1367.43428        52.90028
G29  21574073.55628      2396.59728        51.90028
J02  37498932.30627      -331.55527        42.10027
J03  41581398.67325      1122.38325        35.20025
R18  22008318.73427       438.17727        47.10027
R09  22588938.77927       -11.08927        42.00027
R16  21885253.03127     -2600.14427        43.00027
R05  21478658.91028      3923.63428        51.00028
R19  22426336.14728      1368.25128        47.80028
R03  21510560.42527     -2695.20227        44.80027
R04  19444803.01928       919.73428        50.20028
E02  24849640.42828       787.82328        48.90028
E05  25939280.18627      2346.75927        44.00027
E06  26208613.43126        24.21126        38.10026
E09  25324727.53226      1010.14226        36.80026
E11  25372426.61125      -823.12325        34.40025
E16  27034797.07627     -2790.80427        43.20027
E18  16991830.67728      -641.32828        49.50028
E25  24109452.25028     -1724.92528        49.30028
E34  27005091.24126       320.70326        36.80026
E36  25470155.05527      -391.84627        47.30027
C21  21960658.62928       -79.01228        50.50028
C22  24423383.81927     -2611.70027        47.20027
C24  24678393.58027     -1660.50327        42.10027
C34  23449082.91428      1665.56328        48.80028
C38  37782527.57727     -1013.49327        41.80027
C40  37644259.09827       186.44527        46.80027
C42  23319692.78928      2589.53328        51.80028
C44  22855269.30327       182.17127        44.30027
> 2026 03 10 11 49 40.5745733  0 39                      
G05  22033803.14225     -2712.19525        34.50025
G11  24818448.47226     -1119.97326        38.80026
G12  22489562.02728     -2944.56628        48.60028
G13  21975494.40826       626.65326        41.20026
G15  20878094.82228      1835.01528        47.50028
G18  24089086.39926       947.62226        39.80026
G20  21662182.51028       268.53028        47.70028
G21  24233622.33927     -3253.40027        45.00027
G23  22484469.15227      1966.81927        46.50027
G24  25058165.22026       686.48026        37.80026
G25  21472348.52928     -1368.88928        52.90028
G29  21573619.92028      2395.32128        51.70028
J02  37498997.91027      -332.65327        41.90027
J03  41581182.77326      1121.21326        35.50026
R18  22008240.43927       437.15627        47.20027
R09  22588942.32727       -12.90227        41.70027
R16  21885748.83827     -2601.37727        43.40027
R05  21477927.06728      3922.30428        50.70028
R19  22426078.27528      1367.43428        48.10028
R03  21511059.83027     -2696.82927        45.70027
R04  19444628.19028       917.84428        49.90028
E02  24849486.88528       786.17528        48.80028
E05  25938834.64527      2345.67927        43.60027
E06  26208607.98526        23.02826        38.90026
E09  25324533.81626      1008.68426        36.20026
E11  25372582.45326      -823.98326        35.50026
E16  27035320.16427     -2792.00127        43.20027
E18  16991949.04528      -644.00928        49.10028
E25  24109775.67628     -1726.43628        49.00028
E34  27005033.33126       319.56526        36.50026
E36  25470225.45627      -392.91727        46.90027
C21  21960669.67128       -80.68228        50.00028
C22  24423873.03127     -2613.00327        47.40027
C24  24678703.21627     -1661.70527        42.50027
C34  23448766.28328      1664.52028        49.20028
C38  37782714.59727     -1014.60027        42.40027
C40  37644222.17427       185.21527        46.80027
C42  23319202.87828      2588.04828        51.30028
C44  22855233.87727       180.83027        44.30027
> 2026 03 10 11 49 41.5895231  0 39                      
G05  22034344.21225     -2713.26725        34.80025
G11  24818677.45926     -1120.68526        38.80026
G12  22490137.57328     -2945.56728        49.40028
G13  21975378.93327       625.34927        41.60027
G15  20877743.11128      1833.66828        47.80028
G18  24088909.76626       947.07226        40.30026
G20  21662136.58628       267.15628        47.80028
G21  24234258.74327     -3254.27727        45.10027
G23  22484097.35527      1965.48827        46.90027
G24  25058041.95026       686.42226        38.30026
G25  21472619.78628     -1370.13528        53.00028
G29  21573162.98228      2394.15028        51.50028
J02  37499067.10827      -333.73027        42.50027
J03  41580976.16125      1120.31825        35.40025
R18  22008159.74027       436.35727        47.20027
R09  22588953.96427       -14.50227        41.80027
R16  21886236.24527     -2602.41827        43.30027
R05  21477187.42428      3921.05328        51.00028
R19  22425829.99228      1366.54628        47.90028
R03  21511576.31727     -2698.32827        45.50027
R04  19444465.04828       915.97028        50.00028
E02  24849342.03028       784.89528        49.10028
E05  25938387.59927      2344.67627        43.60027
E06  26208612.12726        21.52526        37.70026
E09  25324337.39826      1007.47726        36.10026
E11  25372743.98625      -824.85825        34.30025
E16  27035866.33127     -2792.83527        43.10027
E18  16992081.19828      -646.40028        49.90028
E25  24110114.68628     -1727.58528        48.90028
E34  27004976.61526       318.81526        37.30026
E36  25470307.54527      -393.63627        47.20027
C21  21960693.30028       -82.18728        50.40028
C22  24424384.72227     -2614.21927        47.30027
C24  24679032.33327     -1662.54227        42.30027
C34  23448450.54728      1663.66028        49.30028
C38  37782916.30327     -1015.63027        42.10027
C40  37644192.73927       184.19527        47.30027
C42  23318707.26628      2586.80428        52.00028
C44  22855205.64227       179.70327        44.20027
> 2026 03 10 11 49 42.5818763  0 39                      
G05  22034862.68226     -2711.31126        35.70026
G11  24818902.73126     -1118.98426        39.00026
G12  22490710.60528     -2944.04328        49.00028
G13  21975283.42826       626.53426        41.40026
G15  20877417.36528      1834.79328        48.60028
G18  24088750.70526       948.62126        40.60026
G20  21662102.83828       268.36828        48.40028
G21  24234888.73627     -3252.57827        45.20027
G23  22483737.73228      1966.83628        47.60028
G24  25057929.95626       688.13326        38.80026
G25  21472895.12428     -1368.81428        53.00028
G29  21572725.41328      2395.63428        52.40028
J02  37499145.18227      -332.34427        41.90027
J03  41580766.43426      1122.20326        35.80026
R18  22008088.21727       438.02727        47.20027
R09  22588977.47627       -13.30027        41.60027
R16  21886736.12827     -2600.85327        43.70027
R05  21476471.94828      3922.58028        50.90028
R19  22425595.68328      1368.51628        47.80028
R03  21512095.98627     -2697.21327        45.80027
R04  19444307.48628       916.80528        50.20028
E02  24849209.35028       786.13128        49.20028
E05  25937961.72327      2346.68627        43.60027
E06  26208627.24526        22.80826        38.00026
E09  25324166.94426      1008.76026        36.40026
E11  25372919.19325      -822.95325        34.10025
E16  27036408.48427     -2791.22227        43.30027
E18  16992218.63228      -646.18128        49.80028
E25  24110457.47828     -1726.21628        49.30028
E34  27004932.67426       320.32826        36.90026
E36  25470399.40927      -391.82527        47.00027
C21  21960723.10828       -81.06028        49.80028
C22  24424895.69628     -2612.77928        47.80028
C24  24679361.03427     -1660.67727        42.10027
C34  23448152.38228      1665.36128        49.00028
C38  37783126.28627     -1013.77027        42.00027
C40  37644171.58227       185.70827        47.00027
C42  23318237.02028      2588.10028        52.00028
C44  22855185.98427       181.21827        44.20027
> 2026 03 10 11 49 43.5735954  0 39                      
G05  22035378.74425     -2710.94825        34.80025
G11  24819108.20826     -1118.19226        39.30026
G12  22491262.64228     -2943.43828        49.00028
G13  21975160.03227       626.67827        41.90027
G15  20877069.12528      1835.06128        48.20028
G18  24088569.15026       949.40026        40.20026
G20  21662051.09328       268.55928        48.10028
G21  24235501.93027     -3251.61127        45.60027
G23  22483367.60727      1967.19027        46.80027
G24  25057795.76826       689.56226        38.70026
G25  21473150.96628     -1368.48928        53.20028
G29  21572274.04428      2396.22828        52.30028
J02  37499204.96027      -331.36427        42.50027
J03  41580564.79325      1123.21025        34.90025
R18  22008015.18727       438.93127        47.40027
R09  22588971.59927       -12.79327        42.00027
R16  21887219.51227     -2600.35927        43.40027
R05  21475756.16228      3923.03428        51.30028
R19  22425332.28528      1369.67228        48.00028
R03  21512582.66827     -2697.11427        45.80027
R04  19444134.02528       916.89828        50.10028
E02  24849060.47228       786.54128        49.20028
E05  25937518.44927      2347.23427        43.60027
E06  26208620.76826        23.24926        37.30026
E09  25323978.49326      1009.38626        36.70026
E11  25373075.80425      -821.84125        34.20025
E16  27036935.63827     -2790.45727        43.10027
E18  16992338.96828      -646.88028        50.20028
E25  24110782.57228     -1725.63128        49.40028
E34  27004874.33426       321.14826        36.80026
E36  25470470.87927      -390.76527        47.30027
C21  21960739.41528       -80.75428        49.80028
C22  24425387.77528     -2612.21328        47.70028
C24  24679673.23727     -1659.93427        41.70027
C34  23447838.31828      1666.36628        49.30028
C38  37783314.07527     -1013.07127        41.90027
C40  37644135.72627       186.37927        47.30027
C42  23317746.97928      2588.55128        51.90028
C44  22855151.62727       181.98727        44.10027
> 2026 03 10 11 49 44.5844445  0 39                      
G05  22035906.94425     -2709.91525        34.50025
G11  24819328.52226     -1116.63826        38.30026
G12  22491831.61428     -2942.29028        48.70028
G13  21975042.48026       627.41326        41.30026
G15  20876714.43728      1835.91828        48.30028
G18  24088388.64126       950.77526        40.60026
G20  21662002.19328       269.29128        47.70028
G21  24236132.06027     -3250.47027        45.60027
G23  22482987.73727      1968.06227        46.90027
G24  25057669.52226       690.86726        38.80026
G25  21473415.94928     -1367.65928        53.00028
G29  21571813.23028      2397.32728        51.40028
J02  37499273.27927      -330.40527        42.80027
J03  41580349.50825      1124.33425        35.30025
R18  22007931.21227       440.23127        47.20027
R09  22588973.36527       -12.06527        42.10027
R16  21887718.33327     -2599.05627        43.30027
R05  21475010.24528      3924.09328        50.70028
R19  22425076.22828      1371.27728        47.70028
R03  21513094.38027     -2696.42027        45.70027
R04  19443961.61128       917.16328        50.20028
E02  24848911.44228       787.25828        49.10028
E05  25937069.02627      2348.50227        43.70027
E06  26208615.03926        24.04326        37.40026
E09  25323781.49626      1010.12526        36.70026
E11  25373229.86425      -820.98725        35.20025
E16  27037471.03427     -2789.30827        43.10027
E18  16992466.34628      -647.20728        49.80028
E25  24111115.00828     -1724.92028        49.60028
E34  27004811.64326       321.99426        38.00026
E36  25470547.29227      -389.59327        47.10027
C21  21960754.37228       -80.26528        50.00028
C22  24425893.19128     -2611.48028        47.50028
C24  24679997.27927     -1658.76727        42.10027
C34  23447518.10628      1667.43628        49.30028
C38  37783513.10427     -1011.96427        42.20027
C40  37644102.71527       187.42027        47.00027
C42  23317250.18928      2589.46128        52.00028
C44  22855119.81527       183.15227        44.70027
> 2026 03 10 11 49 45.5750004  0 39                      
G05  22036431.22726     -2708.71426        35.50026
G11  24819564.40426     -1115.33326        39.10026
G12  22492408.06128     -2941.17928        49.00028
G13  21974951.88826       628.56326        41.30026
G15  20876392.70528      1836.79328        48.70028
G18  24088227.89826       952.08726        40.30026
G20  21661971.26028       270.17528        47.70028
G21  24236762.76927     -3249.09527        45.50027
G23  22482638.12527      1968.87327        46.60027
G24  25057549.25126       692.45726        38.00026
G25  21473695.30128     -1366.76228        53.20028
G29  21571383.87328      2398.44628        51.80028
J02  37499356.26727      -328.97527        42.60027
J03  41580155.48826      1125.91226        36.20026
R18  22007872.09827       441.67327        47.30027
R09  22589001.49127       -11.54127        42.10027
R16  21888214.13627     -2598.10727        43.60027
R05  21474298.18428      3925.11728        51.00028
R19  22424842.93528      1372.77128        48.20028
R03  21513616.56427     -2695.81327        45.90027
R04  19443812.56028       917.73928        49.90028
E02  24848782.77728       788.32828        49.50028
E05  25936646.26527      2349.94827        43.90027
E06  26208630.27426        25.09826        37.30026
E09  25323608.46226      1011.59926        36.60026
E11  25373409.08625      -819.25525        34.50025
E16  27038018.70027     -2787.65027        43.20027
E18  16992608.69328      -647.15528        49.90028
E25  24111461.51428     -1723.57628        49.40028
E34  27004772.91626       323.77226        37.50026
E36  25470642.27227      -387.94827        46.90027
C21  21960791.49228       -79.32128        50.00028
C22  24426404.28328     -2610.33128        47.80028
C24  24680330.59427     -1657.40027        42.70027
C34  23447226.35428      1669.00128        48.80028
C38  37783721.70527     -1010.38827        41.90027
C40  37644088.27127       188.73427        47.40027
C42  23316783.35828      2590.52828        51.70028
C44  22855102.07327       184.38327        44.20027
> 2026 03 10 11 49 46.5695204  0 39                      
G05  22036938.59325     -2710.24725        35.00025
G11  24819762.98426     -1116.77026        38.80026
G12  22492952.90128     -2942.78728        48.50028
G13  21974821.29626       626.50826        40.80026
G15  20876031.57228      1834.86128        48.90028
G18  24088042.44326       950.78126        40.60026
G20  21661910.51927       268.03027        47.30027
G21  24237366.96827     -3250.42927        45.60027
G23  22482254.50727      1967.00927        46.90027
G24  25057414.46126       691.50826        38.00026
G25  21473943.34628     -1368.68428        53.20028
G29  21570919.01228      2396.72528        51.80028
J02  37499406.14927      -330.67127        42.10027
J03  41579937.35626      1124.41626        35.60026
R18  22007774.48327       440.19127        47.30027
R09  22588987.21827       -13.77727        42.30027
R16  21888683.12827     -2599.87927        43.30027
R05  21473561.11128      3923.24628        50.80028
R19  22424576.83728      1371.55028        47.80028
R03  21514104.44427     -2697.91027        45.60027
R04  19443628.30428       915.35528        49.90028
E02  24848623.70428       786.32828        49.70028
E05  25936190.69727      2348.39027        43.90027
E06  26208615.40126        23.37326        37.40026
E09  25323411.31526      1009.65526        36.60026
E11  25373557.00025      -820.43025        34.50025
E16  27038533.86127     -2789.13127        43.40027
E18  16992721.23228      -650.28528        50.10028
E25  24111777.31228     -1725.49028        49.40028
E34  27004698.38426       322.39326        38.00026
E36  25470705.94527      -389.42527        46.70027
C21  21960794.00728       -81.45328        50.40028
C22  24426889.46428     -2612.18228        47.70028
C24  24680631.10327     -1658.82027        42.10027
C34  23446897.29928      1667.64628        49.20028
C38  37783902.29727     -1012.16627        41.60027
C40  37644040.72127       187.02827        47.10027
C42  23316281.32228      2588.67628        51.70028
C44  22855059.32027       182.66427        44.40027
> 2026 03 10 11 49 47.5822109  0 39                      
G05  22037467.61425     -2712.14425        34.80025
G11  24819981.12026     -1118.48526        38.50026
G12  22493526.89028     -2944.77928        48.70028
G13  21974697.06926       624.34326        40.30026
G15  20875685.19928      1832.76828        48.20028
G18  24087865.45326       949.24126        39.70026
G20  21661866.03728       266.00228        47.60028
G21  24237998.51827     -3252.16627        45.60027
G23  22481883.85127      1964.74627        47.20027
G24  25057290.23426       690.40526        38.10026
G25  21474215.14528     -1370.73128        52.90028
G29  21570463.21428      2394.92228        52.00028
J02  37499476.78727      -332.66727        42.30027
J03  41579722.29226      1123.03226        35.80026
R18  22007700.02127       438.55527        47.20027
R09  22589002.99427       -16.23927        42.50027
R16  21889192.36227     -2601.84127        42.80027
R05  21472823.50928      3921.27528        50.90028
R19  22424321.00128      1369.68728        47.90028
R03  21514617.27527     -2700.14727        46.20027
R04  19443472.59928       912.84328        49.60028
E02  24848479.69028       784.16328        49.60028
E05  25935743.89327      2346.61927        44.00027
E06  26208618.28626        21.36426        38.10026
E09  25323220.23426      1007.49126        37.20026
E11  25373715.77725      -821.99325        35.20025
E16  27039080.56927     -2791.08727        43.10027
E18  16992853.92728      -653.47428        50.20028
E25  24112117.46328     -1727.55028        49.10028
E34  27004644.00926       320.62526        38.30026
E36  25470785.87727      -391.01927        46.90027
C21  21960816.37828       -83.66528        49.70028
C22  24427398.39927     -2614.24227        47.40027
C24  24680959.56227     -1660.54127        41.90027
C34  23446584.50228      1665.81628        49.50028
C38  37784104.84427     -1013.99927        42.10027
C40  37644013.92627       185.11127        47.10027
C42  23315789.25028      2586.55028        51.90028
C44  22855028.02827       180.76227        43.80027
> 2026 03 10 11 49 48.5746200  0 39                      
G05  22037969.37725     -2711.89425        34.40025
G11  24820198.38026     -1118.22626        39.10026
G12  22494082.31728     -2944.90228        48.90028
G13  21974583.95826       623.55226        40.60026
G15  20875342.74728      1832.24528        48.70028
G18  24087680.39226       949.36226        40.60026
G20  21661816.18328       265.28928        48.30028
G21  24238611.20527     -3252.07427        45.80027
G23  22481513.51827      1964.36827        47.10027
G24  25057153.14026       690.44126        38.40026
G25  21474472.27828     -1371.22628        53.30028
G29  21570011.63828      2394.58428        51.90028
J02  37499543.85227      -332.59727        42.50027
J03  41579515.94626      1123.25026        35.80026
R18  22007626.78327       438.40827        47.20027
R09  22589007.10227       -16.62627        42.80027
R16  21889681.83527     -2601.85827        43.40027
R05  21472095.82428      3920.90428        51.10028
R19  22424075.98128      1370.11028        47.90028
R03  21515123.83627     -2700.89427        46.20027
R04  19443301.62928       912.04328        50.20028
E02  24848331.50428       783.80928        49.80028
E05  25935302.81027      2346.94227        44.60027
E06  26208612.50126        21.11826        37.40026
E09  25323033.67526      1007.11026        36.60026
E11  25373876.97725      -821.78325        34.20025
E16  27039608.71527     -2790.94927        43.20027
E18  16992976.45328      -654.93428        50.10028
E25  24112443.24928     -1727.75028        49.60028
E34  27004586.96026       320.77926        38.10026
E36  25470861.03627      -390.83827        47.20027
C21  21960833.97728       -84.23528        49.80028
C22  24427892.06828     -2614.50328        47.50028
C24  24681270.95827     -1660.31227        42.10027
C34  23446269.03228      1666.02028        49.40028
C38  37784298.42126     -1013.85826        41.20026
C40  37643976.36427       185.18127        47.20027
C42  23315301.69928      2586.32328        51.50028
C44  22854996.16227       180.89027        43.90027
> 2026 03 10 11 49 49.5642147  0 39                      
G05  22038515.69325     -2712.66525        35.10025
G11  24820434.11126     -1119.11326        39.40026
G12  22494664.90828     -2945.67528        48.50028
G13  21974495.61326       622.47626        41.40026
G15  20875022.66328      1831.02628        48.70028
G18  24087527.89226       948.59626        40.40026
G20  21661792.29328       264.17728        47.90028
G21  24239250.15627     -3252.69027        45.80027
G23  22481169.15127      1963.47027        46.80027
G24  25057057.00026       690.09426        38.50026
G25  21474758.37428     -1372.24628        53.00028
G29  21569588.12528      2393.74328        51.90028
J02  37499628.78727      -333.38127        42.30027
J03  41579340.66225      1122.47325        35.30025
R18  22007567.81827       437.80427        47.20027
R09  22589041.07227       -17.73027        42.60027
R16  21890188.57827     -2602.77727        43.40027
R05  21471397.10128      3920.01028        50.60028
R19  22423844.93528      1369.59828        48.00028
R03  21515651.86427     -2701.95027        46.00027
R04  19443160.82028       910.43628        49.40028
E02  24848211.08228       782.68728        49.10028
E05  25934887.09127      2346.00427        43.90027
E06  26208635.67926        19.90526        38.00026
E09  25322872.78026      1006.26326        36.90026
E11  25374057.84525      -822.31225        34.30025
E16  27040160.42727     -2791.61327        43.00027
E18  16993126.74328      -657.07728        49.90028
E25  24112796.49828     -1728.70528        49.00028
E34  27004554.07626       319.99926        37.60026
E36  25470962.46027      -391.42127        47.10027
C21  21960876.04228       -85.42228        50.60028
C22  24428412.60227     -2615.36127        47.40027
C24  24681610.11727     -1661.01427        42.10027
C34  23445982.22428      1665.42828        48.80028
C38  37784513.46627     -1014.59927        42.50027
C40  37643969.86228       184.29228        47.50028
C42  23314841.31128      2585.31428        51.60028
C44  22854988.46127       179.91627        43.80027
> 2026 03 10 11 49 50.5786491  0 39                      
G05  22039017.51825     -2711.72125        33.90025
G11  24820635.24426     -1116.90526        39.40026
G12  22495218.59728     -2944.23728        48.30028
G13  21974358.28126       623.69726        40.50026
G15  20874656.88828      1832.47228        47.90028
G18  24087330.60126       950.38026        40.00026
G20  21661729.90928       265.16128        47.50028
G21  24239864.70327     -3251.00127        45.20027
G23  22480778.49327      1964.53927        46.70027
G24  25056907.37626       692.51926        39.20026
G25  21475008.97328     -1371.06328        52.60028
G29  21569112.92628      2395.05028        51.60028
J02  37499676.42727      -331.75127        42.30027
J03  41579112.19225      1124.02325        34.30025
R18  22007465.56127       439.44627        46.90027
R09  22589014.66327       -16.93327        42.70027
R16  21890660.12427     -2601.52527        43.80027
R05  21470637.69928      3921.20028        50.80028
R19  22423563.70228      1371.34528        48.10028
R03  21516154.28927     -2701.30027        45.90027
R04  19442971.32428       911.22328        50.30028
E02  24848046.16828       783.94328        49.60028
E05  25934420.28727      2347.72727        44.00027
E06  26208618.56326        20.79926        38.30026
E09  25322663.19826      1007.51326        36.30026
E11  25374195.72225      -820.85625        34.50025
E16  27040685.33627     -2789.95727        43.30027
E18  16993239.73728      -656.91228        50.10028
E25  24113115.15028     -1727.40228        49.70028
E34  27004477.30226       321.60326        38.40026
E36  25471022.99027      -389.67827        47.00027
C21  21960877.51328       -84.36328        49.90028
C22  24428902.43528     -2614.07228        47.80028
C24  24681916.17727     -1659.44527        41.80027
C34  23445647.02928      1667.15628        49.20028
C38  37784696.01227     -1012.67327        42.00027
C40  37643920.66927       185.77127        47.10027
C42  23314328.33928      2586.63728        51.80028
C44  22854940.76627       181.56127        44.20027
> 2026 03 10 11 49 51.5699469  0 39                      
G05  22039535.66625     -2713.34725        34.30025
G11  24820858.69626     -1118.49326        38.60026
G12  22495785.01128     -2945.76228        48.40028
G13  21974252.56126       621.73326        40.00026
G15  20874322.12628      1830.43028        48.40028
G18  24087164.92226       948.96826        40.30026
G20  21661684.74727       263.36427        47.20027
G21  24240487.77927     -3252.36827        44.50027
G23  22480416.15127      1962.82227        47.00027
G24  25056785.76726       691.44026        37.80026
G25  21475277.39428     -1372.87628        53.10028
G29  21568670.53928      2393.55328        51.40028
J02  37499750.28227      -333.28427        42.30027
J03  41578897.94725      1122.67025        34.20025
R18  22007391.91927       438.13727        47.40027
R09  22589034.85627       -18.86327        43.30027
R16  21891158.48527     -2602.98827        43.40027
R05  21469919.50328      3919.63928        50.40028
R19  22423329.67128      1370.24128        48.00028
R03  21516665.24227     -2703.00727        46.00027
R04  19442815.23828       909.04128        49.80028
E02  24847907.77028       782.27728        49.00028
E05  25933987.19327      2346.57627        43.80027
E06  26208624.96526        19.36226        38.00026
E09  25322482.52926      1005.86526        37.30026
E11  25374358.91625      -821.34325        34.70025
E16  27041221.77127     -2791.11427        43.60027
E18  16993373.25128      -659.69928        49.80028
E25  24113451.32428     -1729.00428        49.40028
E34  27004424.04526       320.01526        38.30026
E36  25471106.73928      -390.79928        47.70028
C21  21960900.70428       -86.05628        49.60028
C22  24429404.99428     -2615.69628        47.90028
C24  24682243.05827     -1660.91827        42.20027
C34  23445342.24628      1665.83128        48.80028
C38  37784899.67727     -1014.18927        41.70027
C40  37643895.59227       184.33227        46.70027
C42  23313851.17628      2584.93228        51.60028
C44  22854917.18927       179.95327        44.00027
> 2026 03 10 11 49 52.5827434  0 39                      
G05  22040091.77625     -2712.71425        34.40025
G11  24821106.32026     -1117.18626        39.00026
G12  22496380.69428     -2945.15528        49.10028
G13  21974165.91526       622.20126        39.60026
G15  20873996.84728      1830.64928        49.40028
G18  24087006.92626       949.96326        40.70026
G20  21661665.55528       263.64428        48.30028
G21  24241145.81827     -3251.57627        45.60027
G23  22480064.78927      1963.12927        46.80027
G24  25056685.93126       692.51526        38.60026
G25  21475571.78528     -1372.41828        52.80028
G29  21568237.63428      2394.19628        51.80028
J02  37499845.31127      -332.56427        43.10027
J03  41578715.06826      1123.37426        35.90026
R18  22007351.44227       438.99127        47.30027
R09  22589066.62827       -18.57127        43.00027
R16  21891673.82327     -2602.44827        43.10027
R05  21469204.19328      3920.17528        50.70028
R19  22423094.62928      1371.13528        47.80028
R03  21517200.96627     -2702.97727        45.80027
R04  19442666.83628       908.91828        50.10028
E02  24847785.15028       782.49228        49.00028
E05  25933563.88127      2347.24727        44.80027
E06  26208650.74326        19.36326        37.60026
E09  25322315.83926      1006.51026        37.50026
E11  25374548.97925      -821.24725        34.00025
E16  27041787.47427     -2790.35727        43.40027
E18  16993530.33828      -660.42328        50.30028
E25  24113810.77028     -1728.55228        49.50028
E34  27004396.15926       320.98826        38.20026
E36  25471209.26327      -390.01727        47.30027
C21  21960949.56528       -86.04228        49.80028
C22  24429938.32028     -2615.33528        48.20028
C24  24682590.51227     -1660.10527        41.70027
C34  23445049.04428      1666.71628        49.20028
C38  37785119.42027     -1013.63127        41.50027
C40  37643887.79327       184.76627        47.10027
C42  23313381.09628      2585.46028        51.80028
C44  22854909.38927       180.58627        43.60027
> 2026 03 10 11 49 53.5747217  0 39                      
G05  22040576.41825     -2713.13025        33.00025
G11  24821295.06626     -1117.76126        39.20026
