NMEA,$GPGSV,4,1,14,05,42,020,41,11,11,060,39,12,40,185,47,13,35,099,41,1*65,1772453741010
NMEA,$GPGSV,4,2,14,15,55,143,41,18,18,299,39,20,00,000,41,21,16,034,41,1*69,1772453741010
NMEA,$GPGSV,4,3,14,23,31,235,43,24,10,172,32,25,50,244,50,29,45,346,48,1*66,1772453741010
NMEA,$GPGSV,4,4,14,40,00,000,49,41,00,000,47,1*6E,1772453741010
NMEA,$GLGSV,2,1,07,82,26,038,36,73,19,289,33,80,30,230,37,69,29,184,38,1*7F,1772453741010
NMEA,$GLGSV,2,2,07,83,21,341,38,67,35,043,35,68,64,121,38,1*49,1772453741010
NMEA,$GAGSV,2,1,08,07,32,159,41,08,33,097,36,13,37,354,41,15,15,047,40,7*73,1772453741010
NMEA,$GAGSV,2,2,08,21,51,289,47,26,24,295,42,27,52,189,47,30,11,157,41,7*72,1772453741010
NMEA,$GQGSV,1,1,02,02,13,133,37,03,21,065,35,1*67,1772453741010
NMEA,$GBGSV,5,1,17,07,53,108,,08,56,011,,09,12,168,,10,65,093,,1*7A,1772453741010
NMEA,$GBGSV,5,2,17,11,42,022,,12,23,082,,13,65,002,,14,70,166,,1*79,1772453741010
NMEA,$GBGSV,5,3,17,21,20,040,,23,18,269,,25,25,219,,33,46,196,,1*70,1772453741010
NMEA,$GBGSV,5,4,17,34,41,060,,38,41,023,,40,40,106,,42,67,071,,1*7C,1772453741010
NMEA,$GBGSV,5,5,17,43,36,344,,1*41,1772453741010
NMEA,$GBGSV,3,1,09,21,20,040,36,23,18,269,39,25,25,219,39,33,46,196,48,3*70,1772453741010
NMEA,$GBGSV,3,2,09,34,41,060,39,38,41,023,45,40,40,106,41,42,67,071,48,3*73,1772453741010
NMEA,$GBGSV,3,3,09,43,36,344,49,3*41,1772453741010
NMEA,$GNGSA,A,3,05,11,12,13,15,18,21,23,24,25,29,,0.7,0.4,0.6,1*35,1772453741014
NMEA,$GNGSA,A,3,67,68,69,73,80,82,83,,,,,,0.7,0.4,0.6,2*3A,1772453741014
NMEA,$GNGSA,A,3,07,08,13,15,21,26,27,30,,,,,0.7,0.4,0.6,3*3E,1772453741014
NMEA,$GNGSA,A,3,21,23,25,33,34,38,40,42,43,,,,0.7,0.4,0.6,4*3D,1772453741014
NMEA,$GNGSA,A,3,02,03,,,,,,,,,,,0.7,0.4,0.6,5*31,1772453741014
NMEA,$GNVTG,,T,,M,0.0,N,0.0,K,A*3D,1772453741014
NMEA,$GNDTM,W84,,0000.000000,N,00000.000000,E,0.000,W84*41,1772453741014
NMEA,$GNRMC,121541.00,A,1304.092023,N,07735.505610,E,0.0,,020326,1.1,W,A,V*67,1772453741014
NMEA,$GNGNS,121541.00,1304.092023,N,07735.505610,E,AAAAAN,37,0.4,962.6,-85.8,,,V*01,1772453741014
NMEA,$GNGGA,121541.00,1304.092023,N,07735.505610,E,1,12,0.4,962.6,M,-85.8,M,,*59,1772453741014
NMEA,$GPGSV,4,1,14,05,42,020,41,11,11,060,40,12,40,185,47,13,35,099,40,1*6A,1772453742010
NMEA,$GPGSV,4,2,14,15,55,143,40,18,18,299,39,20,00,000,41,21,16,034,40,1*69,1772453742010
NMEA,$GPGSV,4,3,14,23,31,235,43,24,10,172,32,25,50,244,50,29,45,346,48,1*66,1772453742010
NMEA,$GPGSV,4,4,14,40,00,000,49,41,00,000,48,1*61,1772453742010
NMEA,$GLGSV,2,1,07,82,26,038,36,73,19,289,32,80,30,230,36,69,29,184,38,1*7F,1772453742010
NMEA,$GLGSV,2,2,07,83,21,341,37,67,35,043,33,68,64,121,37,1*4F,1772453742010
NMEA,$GAGSV,2,1,08,07,32,159,42,08,33,097,36,13,37,354,40,15,15,047,41,7*70,1772453742010
NMEA,$GAGSV,2,2,08,21,51,289,47,26,24,295,42,27,52,189,46,30,11,157,41,7*73,1772453742010
NMEA,$GQGSV,1,1,02,02,13,133,37,03,21,065,35,1*67,1772453742010
NMEA,$GBGSV,5,1,17,07,53,108,,08,56,011,,09,12,168,,10,65,093,,1*7A,1772453742010
NMEA,$GBGSV,5,2,17,11,42,022,,12,23,082,,13,65,002,,14,70,166,,1*79,1772453742010
NMEA,$GBGSV,5,3,17,21,20,040,,23,18,269,,25,25,219,,33,46,196,,1*70,1772453742010
NMEA,$GBGSV,5,4,17,34,41,060,,38,41,023,,40,40,106,,42,67,071,,1*7C,1772453742010
NMEA,$GBGSV,5,5,17,43,36,344,,1*41,1772453742010
NMEA,$GBGSV,3,1,09,21,20,040,36,23,18,269,38,25,25,219,40,33,46,196,48,3*7F,1772453742010
NMEA,$GBGSV,3,2,09,34,41,060,39,38,41,023,45,40,40,106,41,42,67,071,48,3*73,1772453742010
NMEA,$GBGSV,3,3,09,43,36,344,49,3*41,1772453742010
NMEA,$GNGSA,A,3,05,11,12,13,15,18,21,23,24,25,29,,0.7,0.4,0.6,1*35,1772453742014
NMEA,$GNGSA,A,3,67,68,69,73,80,82,83,,,,,,0.7,0.4,0.6,2*3A,1772453742014
NMEA,$GNGSA,A,3,07,08,13,15,21,26,27,30,,,,,0.7,0.4,0.6,3*3E,1772453742014
NMEA,$GNGSA,A,3,21,23,25,33,34,38,40,42,43,,,,0.7,0.4,0.6,4*3D,1772453742014
NMEA,$GNGSA,A,3,02,03,,,,,,,,,,,0.7,0.4,0.6,5*31,1772453742014
NMEA,$GNVTG,,T,,M,0.0,N,0.0,K,A*3D,1772453742014
NMEA,$GNDTM,W84,,0000.000000,N,00000.000000,E,0.000,W84*41,1772453742014
NMEA,$GNRMC,121542.00,A,1304.092023,N,07735.505610,E,0.0,,020326,1.1,W,A,V*64,1772453742014
NMEA,$GNGNS,121542.00,1304.092023,N,07735.505610,E,AAAAAN,37,0.4,962.6,-85.8,,,V*02,1772453742014
NMEA,$GNGGA,121542.00,1304.092023,N,07735.505610,E,1,12,0.4,962.6,M,-85.8,M,,*5A,1772453742014
NMEA,$GPGSV,4,1,14,05,42,020,42,11,11,060,40,12,40,185,48,13,35,099,41,1*67,1772453743010
NMEA,$GPGSV,4,2,14,15,55,143,41,18,18,299,39,20,00,000,41,21,16,034,41,1*69,1772453743010
NMEA,$GPGSV,4,3,14,23,31,235,44,24,10,172,33,25,50,244,51,29,45,346,49,1*60,1772453743010
NMEA,$GPGSV,4,4,14,40,00,000,51,41,00,000,48,1*68,1772453743010
NMEA,$GLGSV,2,1,07,82,26,038,40,73,19,289,36,80,30,230,39,69,29,184,42,1*78,1772453743010
NMEA,$GLGSV,2,2,07,83,21,341,40,67,35,043,37,68,64,121,42,1*49,1772453743010
NMEA,$GAGSV,2,1,08,07,32,159,42,08,33,097,37,13,37,354,42,15,15,047,41,7*73,1772453743010
NMEA,$GAGSV,2,2,08,21,51,289,47,26,24,295,43,27,52,189,46,30,11,157,42,7*71,1772453743010
NMEA,$GQGSV,1,1,02,02,13,133,37,03,21,065,36,1*64,1772453743010
NMEA,$GBGSV,5,1,17,07,53,108,,08,56,011,,09,12,168,,10,65,093,,1*7A,1772453743010
NMEA,$GBGSV,5,2,17,11,42,022,,12,23,082,,13,65,002,,14,70,166,,1*79,1772453743010
NMEA,$GBGSV,5,3,17,21,20,040,,23,18,269,,25,25,219,,33,46,196,,1*70,1772453743010
NMEA,$GBGSV,5,4,17,34,41,060,,38,41,023,,40,40,106,,42,67,071,,1*7C,1772453743010
NMEA,$GBGSV,5,5,17,43,36,344,,1*41,1772453743010
NMEA,$GBGSV,3,1,09,21,20,040,37,23,18,269,39,25,25,219,41,33,46,196,48,3*7E,1772453743010
NMEA,$GBGSV,3,2,09,34,41,060,40,38,41,023,46,40,40,106,42,42,67,071,48,3*7D,1772453743010
NMEA,$GBGSV,3,3,09,43,36,344,49,3*41,1772453743010
NMEA,$GNGSA,A,3,05,11,12,13,15,18,21,23,24,25,29,,0.7,0.4,0.6,1*35,1772453743014
NMEA,$GNGSA,A,3,67,68,69,73,80,82,83,,,,,,0.7,0.4,0.6,2*3A,1772453743014
NMEA,$GNGSA,A,3,07,08,13,15,21,26,27,30,,,,,0.7,0.4,0.6,3*3E,1772453743014
NMEA,$GNGSA,A,3,21,23,25,33,34,38,40,42,43,,,,0.7,0.4,0.6,4*3D,1772453743014
NMEA,$GNGSA,A,3,02,03,,,,,,,,,,,0.7,0.4,0.6,5*31,1772453743014
NMEA,$GNVTG,,T,,M,0.0,N,0.0,K,A*3D,1772453743014
NMEA,$GNDTM,W84,,0000.000000,N,00000.000000,E,0.000,W84*41,1772453743014
NMEA,$GNRMC,121543.00,A,1304.092023,N,07735.505610,E,0.0,,020326,1.1,W,A,V*65,1772453743014
NMEA,$GNGNS,121543.00,1304.092023,N,07735.505610,E,AAAAAN,37,0.4,962.6,-85.8,,,V*03,1772453743014
NMEA,$GNGGA,121543.00,1304.092023,N,07735.505610,E,1,12,0.4,962.6,M,-85.8,M,,*5B,1772453743014
NMEA,$GPGSV,4,1,14,05,42,020,41,11,11,060,41,12,40,185,48,13,35,099,41,1*65,1772453744012
NMEA,$GPGSV,4,2,14,15,55,143,41,18,18,299,40,20,00,000,42,21,16,034,42,1*67,1772453744012
NMEA,$GPGSV,4,3,14,23,31,235,44,24,10,172,33,25,50,244,51,29,45,346,49,1*60,1772453744012
NMEA,$GPGSV,4,4,14,40,00,000,50,41,00,000,48,1*69,1772453744012
NMEA,$GLGSV,2,1,07,82,26,038,40,73,19,289,37,80,30,230,40,69,29,184,43,1*76,1772453744012
NMEA,$GLGSV,2,2,07,83,21,341,42,67,35,043,38,68,64,121,42,1*44,1772453744012
NMEA,$GAGSV,2,1,08,07,32,159,42,08,33,097,36,13,37,354,42,15,15,047,41,7*72,1772453744012
NMEA,$GAGSV,2,2,08,21,51,289,47,26,24,295,43,27,52,189,47,30,11,157,42,7*70,1772453744012
NMEA,$GQGSV,1,1,02,02,13,133,37,03,21,065,36,1*64,1772453744012
NMEA,$GBGSV,5,1,17,07,53,108,,08,56,011,,09,12,168,,10,65,093,,1*7A,1772453744012
NMEA,$GBGSV,5,2,17,11,42,022,,12,23,082,,13,65,002,,14,70,166,,1*79,1772453744012
NMEA,$GBGSV,5,3,17,21,20,040,,23,18,269,,25,25,219,,33,46,196,,1*70,1772453744012
NMEA,$GBGSV,5,4,17,34,41,060,,38,41,023,,40,40,106,,42,67,071,,1*7C,1772453744012
NMEA,$GBGSV,5,5,17,43,36,344,,1*41,1772453744012
NMEA,$GBGSV,3,1,09,21,20,040,37,23,18,269,40,25,25,219,41,33,46,196,48,3*70,1772453744012
NMEA,$GBGSV,3,2,09,34,41,060,41,38,41,023,47,40,40,106,42,42,67,071,49,3*7C,1772453744012
NMEA,$GBGSV,3,3,09,43,36,344,50,3*49,1772453744012
NMEA,$GNGSA,A,3,05,11,12,13,15,18,21,23,24,25,29,,0.7,0.4,0.6,1*35,1772453744016
NMEA,$GNGSA,A,3,67,68,69,73,80,82,83,,,,,,0.7,0.4,0.6,2*3A,1772453744016
NMEA,$GNGSA,A,3,07,08,13,15,21,26,27,30,,,,,0.7,0.4,0.6,3*3E,1772453744016
NMEA,$GNGSA,A,3,21,23,25,33,34,38,40,42,43,,,,0.7,0.4,0.6,4*3D,1772453744016
NMEA,$GNGSA,A,3,02,03,,,,,,,,,,,0.7,0.4,0.6,5*31,1772453744016
NMEA,$GNVTG,,T,,M,0.0,N,0.0,K,A*3D,1772453744016
NMEA,$GNDTM,W84,,0000.000000,N,00000.000000,E,0.000,W84*41,1772453744016
NMEA,$GNRMC,121544.00,A,1304.092023,N,07735.505609,E,0.0,,020326,1.1,W,A,V*6A,1772453744016
NMEA,$GNGNS,121544.00,1304.092023,N,07735.505609,E,AAAAAN,37,0.4,962.6,-85.8,,,V*0C,1772453744016
NMEA,$GNGGA,121544.00,1304.092023,N,07735.505609,E,1,12,0.4,962.6,M,-85.8,M,,*54,1772453744016
NMEA,$GPGSV,4,1,14,05,42,020,42,11,11,060,41,12,40,185,48,13,35,099,42,1*65,1772453745010
NMEA,$GPGSV,4,2,14,15,55,143,41,18,18,299,40,20,00,000,42,21,16,034,41,1*64,1772453745010
NMEA,$GPGSV,4,3,14,23,31,235,44,24,10,172,33,25,50,244,51,29,45,346,49,1*60,1772453745010
NMEA,$GPGSV,4,4,14,40,00,000,50,41,00,000,48,1*69,1772453745010
NMEA,$GLGSV,2,1,07,82,26,038,39,73,19,289,36,80,30,230,41,69,29,184,42,1*79,1772453745010
NMEA,$GLGSV,2,2,07,83,21,341,42,67,35,043,39,68,64,121,42,1*45,1772453745010
NMEA,$GAGSV,2,1,08,07,32,159,43,08,33,097,37,13,37,354,42,15,15,047,42,7*71,1772453745010
NMEA,$GAGSV,2,2,08,21,51,289,48,26,24,295,43,27,52,189,47,30,11,157,42,7*7F,1772453745010
NMEA,$GQGSV,1,1,02,02,13,133,38,03,21,065,36,1*6B,1772453745010
NMEA,$GBGSV,5,1,17,07,53,108,,08,56,011,,09,12,168,,10,65,093,,1*7A,1772453745010
NMEA,$GBGSV,5,2,17,11,42,022,,12,23,082,,13,65,002,,14,70,166,,1*79,1772453745010
NMEA,$GBGSV,5,3,17,21,20,040,,23,18,269,,25,25,219,,33,46,196,,1*70,1772453745010
NMEA,$GBGSV,5,4,17,34,41,060,,38,41,023,,40,40,106,,42,67,071,,1*7C,1772453745010
NMEA,$GBGSV,5,5,17,43,36,344,,1*41,1772453745010
NMEA,$GBGSV,3,1,09,21,20,040,37,23,18,269,40,25,25,219,41,33,46,196,49,3*71,1772453745010
NMEA,$GBGSV,3,2,09,34,41,060,40,38,41,023,46,40,40,106,43,42,67,071,50,3*75,1772453745010
NMEA,$GBGSV,3,3,09,43,36,344,50,3*49,1772453745010
NMEA,$GNGSA,A,3,05,11,12,13,15,18,21,23,24,25,29,,0.7,0.4,0.6,1*35,1772453745014
NMEA,$GNGSA,A,3,67,68,69,73,80,82,83,,,,,,0.7,0.4,0.6,2*3A,1772453745014
NMEA,$GNGSA,A,3,07,08,13,15,21,26,27,30,,,,,0.7,0.4,0.6,3*3E,1772453745014
NMEA,$GNGSA,A,3,21,23,25,33,34,38,40,42,43,,,,0.7,0.4,0.6,4*3D,1772453745014
NMEA,$GNGSA,A,3,02,03,,,,,,,,,,,0.7,0.4,0.6,5*31,1772453745014
NMEA,$GNVTG,,T,,M,0.0,N,0.0,K,A*3D,1772453745014
NMEA,$GNDTM,W84,,0000.000000,N,00000.000000,E,0.000,W84*41,1772453745014
NMEA,$GNRMC,121545.00,A,1304.092023,N,07735.505609,E,0.0,,020326,1.1,W,A,V*6B,1772453745014
NMEA,$GNGNS,121545.00,1304.092023,N,07735.505609,E,AAAAAN,37,0.4,962.6,-85.8,,,V*0D,1772453745014
NMEA,$GNGGA,121545.00,1304.092023,N,07735.505609,E,1,12,0.4,962.6,M,-85.8,M,,*55,1772453745014
NMEA,$GPGSV,4,1,14,05,42,020,42,11,11,060,41,12,40,185,49,13,35,099,42,1*64,1772453746012
NMEA,$GPGSV,4,2,14,15,55,143,41,18,18,299,39,20,00,000,42,21,16,034,42,1*69,1772453746012
NMEA,$GPGSV,4,3,14,23,31,235,44,24,10,172,33,25,50,244,51,29,45,346,49,1*60,1772453746012
NMEA,$GPGSV,4,4,14,40,00,000,50,41,00,000,49,1*68,1772453746012
NMEA,$GLGSV,2,1,07,82,26,038,41,73,19,289,36,80,30,230,39,69,29,184,43,1*78,1772453746012
NMEA,$GLGSV,2,2,07,83,21,341,41,67,35,043,37,68,64,121,42,1*48,1772453746012
NMEA,$GAGSV,2,1,08,07,32,159,42,08,33,097,38,13,37,354,42,15,15,047,41,7*7C,1772453746012
NMEA,$GAGSV,2,2,08,21,51,289,48,26,24,295,43,27,52,189,47,30,11,157,42,7*7F,1772453746012
NMEA,$GQGSV,1,1,02,02,13,133,38,03,21,065,36,1*6B,1772453746012
NMEA,$GBGSV,5,1,17,07,53,108,,08,56,011,,09,12,168,,10,65,093,,1*7A,1772453746012
NMEA,$GBGSV,5,2,17,11,42,022,,12,23,082,,13,65,002,,14,70,166,,1*79,1772453746012
NMEA,$GBGSV,5,3,17,21,20,040,,23,18,269,,25,25,219,,33,46,196,,1*70,1772453746012
NMEA,$GBGSV,5,4,17,34,41,060,,38,41,023,,40,40,106,,42,67,071,,1*7C,1772453746012
NMEA,$GBGSV,5,5,17,43,36,344,,1*41,1772453746012
NMEA,$GBGSV,3,1,09,21,20,040,37,23,18,269,39,25,25,219,41,33,46,196,48,3*7E,1772453746012
NMEA,$GBGSV,3,2,09,34,41,060,41,38,41,023,46,40,40,106,43,42,67,071,49,3*7C,1772453746012
NMEA,$GBGSV,3,3,09,43,36,344,50,3*49,1772453746012
NMEA,$GNGSA,A,3,05,11,12,13,15,18,21,23,24,25,29,,0.7,0.4,0.6,1*35,1772453746016
NMEA,$GNGSA,A,3,67,68,69,73,80,82,83,,,,,,0.7,0.4,0.6,2*3A,1772453746016
NMEA,$GNGSA,A,3,07,08,13,15,21,26,27,30,,,,,0.7,0.4,0.6,3*3E,1772453746016
NMEA,$GNGSA,A,3,21,23,25,33,34,38,40,42,43,,,,0.7,0.4,0.6,4*3D,1772453746016
NMEA,$GNGSA,A,3,02,03,,,,,,,,,,,0.7,0.4,0.6,5*31,1772453746016
NMEA,$GNVTG,,T,,M,0.0,N,0.0,K,A*3D,1772453746016
NMEA,$GNDTM,W84,,0000.000000,N,00000.000000,E,0.000,W84*41,1772453746016
NMEA,$GNRMC,121546.00,A,1304.092022,N,07735.505609,E,0.0,,020326,1.1,W,A,V*69,1772453746016
NMEA,$GNGNS,121546.00,1304.092022,N,07735.505609,E,AAAAAN,37,0.4,962.6,-85.8,,,V*0F,1772453746016
NMEA,$GNGGA,121546.00,1304.092022,N,07735.505609,E,1,12,0.4,962.6,M,-85.8,M,,*57,1772453746016
NMEA,$GPGSV,4,1,14,05,42,020,40,11,11,060,39,12,40,185,47,13,35,099,40,1*65,1772453747012
NMEA,$GPGSV,4,2,14,15,55,143,40,18,18,299,38,20,00,000,41,21,16,034,40,1*68,1772453747012
NMEA,$GPGSV,4,3,14,23,31,235,42,24,10,172,32,25,50,244,49,29,45,346,48,1*6F,1772453747012
NMEA,$GPGSV,4,4,14,40,00,000,48,41,00,000,47,1*6F,1772453747012
NMEA,$GLGSV,2,1,07,82,26,038,37,73,19,289,33,80,30,230,35,69,29,184,39,1*7D,1772453747012
NMEA,$GLGSV,2,2,07,83,21,341,37,67,35,043,32,68,64,121,37,1*4E,1772453747012
NMEA,$GAGSV,2,1,08,07,32,159,41,08,33,097,35,13,37,354,41,15,15,047,40,7*70,1772453747012
NMEA,$GAGSV,2,2,08,21,51,289,46,26,24,295,41,27,52,189,45,30,11,157,40,7*73,1772453747012
NMEA,$GQGSV,1,1,02,02,13,133,36,03,21,065,34,1*67,1772453747012
NMEA,$GBGSV,5,1,17,07,53,108,,08,56,011,,09,12,168,,10,65,093,,1*7A,1772453747012
NMEA,$GBGSV,5,2,17,11,42,022,,12,23,082,,13,65,002,,14,70,166,,1*79,1772453747012
NMEA,$GBGSV,5,3,17,21,20,040,,23,18,269,,25,25,219,,33,46,196,,1*70,1772453747012
NMEA,$GBGSV,5,4,17,34,41,060,,38,41,023,,40,40,106,,42,67,071,,1*7C,1772453747012
NMEA,$GBGSV,5,5,17,43,36,344,,1*41,1772453747012
NMEA,$GBGSV,3,1,09,21,20,040,36,23,18,269,38,25,25,219,39,33,46,196,47,3*7E,1772453747012
NMEA,$GBGSV,3,2,09,34,41,060,39,38,41,023,45,40,40,106,42,42,67,071,47,3*7F,1772453747012
NMEA,$GBGSV,3,3,09,43,36,344,48,3*40,1772453747012
NMEA,$GNGSA,A,3,05,11,12,13,15,18,21,23,24,25,29,,0.7,0.4,0.6,1*35,1772453747017
NMEA,$GNGSA,A,3,67,68,69,73,80,82,83,,,,,,0.7,0.4,0.6,2*3A,1772453747017
NMEA,$GNGSA,A,3,07,08,13,15,21,26,27,30,,,,,0.7,0.4,0.6,3*3E,1772453747017
NMEA,$GNGSA,A,3,21,23,25,33,34,38,40,42,43,,,,0.7,0.4,0.6,4*3D,1772453747017
NMEA,$GNGSA,A,3,02,03,,,,,,,,,,,0.7,0.4,0.6,5*31,1772453747017
NMEA,$GNVTG,,T,,M,0.0,N,0.0,K,A*3D,1772453747017
NMEA,$GNDTM,W84,,0000.000000,N,00000.000000,E,0.000,W84*41,1772453747017
NMEA,$GNRMC,121547.00,A,1304.092022,N,07735.505610,E,0.0,,020326,1.1,W,A,V*60,1772453747017
NMEA,$GNGNS,121547.00,1304.092022,N,07735.505610,E,AAAAAN,37,0.4,962.6,-85.8,,,V*06,1772453747017
NMEA,$GNGGA,121547.00,1304.092022,N,07735.505610,E,1,12,0.4,962.6,M,-85.8,M,,*5E,1772453747017
NMEA,$GPGSV,4,1,14,05,42,020,42,11,11,060,41,12,40,185,48,13,35,099,42,1*65,1772453748014
NMEA,$GPGSV,4,2,14,15,55,143,42,18,18,299,39,20,00,000,42,21,16,034,42,1*6A,1772453748014
NMEA,$GPGSV,4,3,14,23,31,235,44,24,10,172,34,25,50,244,51,29,45,346,49,1*67,1772453748014
NMEA,$GPGSV,4,4,14,40,00,000,50,41,00,000,48,1*69,1772453748014
NMEA,$GLGSV,2,1,07,82,26,038,40,73,19,289,38,80,30,230,41,69,29,184,42,1*79,1772453748014
NMEA,$GLGSV,2,2,07,83,21,341,42,67,35,043,38,68,64,121,42,1*44,1772453748014
NMEA,$GAGSV,2,1,08,07,32,159,43,08,33,097,37,13,37,354,42,15,15,047,42,7*71,1772453748014
NMEA,$GAGSV,2,2,08,21,51,289,47,26,24,295,42,27,52,189,47,30,11,157,42,7*71,1772453748014
NMEA,$GQGSV,1,1,02,02,13,133,38,03,21,065,36,1*6B,1772453748014
NMEA,$GBGSV,5,1,17,07,53,108,,08,56,011,,09,12,168,,10,65,093,,1*7A,1772453748014
NMEA,$GBGSV,5,2,17,11,42,022,,12,23,082,,13,65,002,,14,70,166,,1*79,1772453748014
NMEA,$GBGSV,5,3,17,21,20,040,,23,18,269,,25,25,219,,33,46,196,,1*70,1772453748014
NMEA,$GBGSV,5,4,17,34,41,060,,38,41,023,,40,40,106,,42,67,071,,1*7C,1772453748014
NMEA,$GBGSV,5,5,17,43,36,344,,1*41,1772453748014
NMEA,$GBGSV,3,1,09,21,20,040,37,23,18,269,39,25,25,219,40,33,46,196,48,3*7F,1772453748014
NMEA,$GBGSV,3,2,09,34,41,060,40,38,41,023,46,40,40,106,43,42,67,071,49,3*7D,1772453748014
NMEA,$GBGSV,3,3,09,43,36,344,50,3*49,1772453748014
NMEA,$GNGSA,A,3,05,11,12,13,15,18,21,23,24,25,29,,0.7,0.4,0.6,1*35,1772453748018
NMEA,$GNGSA,A,3,67,68,69,73,80,82,83,,,,,,0.7,0.4,0.6,2*3A,1772453748018
NMEA,$GNGSA,A,3,07,08,13,15,21,26,27,30,,,,,0.7,0.4,0.6,3*3E,1772453748018
NMEA,$GNGSA,A,3,21,23,25,33,34,38,40,42,43,,,,0.7,0.4,0.6,4*3D,1772453748018
NMEA,$GNGSA,A,3,02,03,,,,,,,,,,,0.7,0.4,0.6,5*31,1772453748018
NMEA,$GNVTG,,T,,M,0.0,N,0.0,K,A*3D,1772453748018
NMEA,$GNDTM,W84,,0000.000000,N,00000.000000,E,0.000,W84*41,1772453748018
NMEA,$GNRMC,121548.00,A,1304.092022,N,07735.505610,E,0.0,,020326,1.1,W,A,V*6F,1772453748018
NMEA,$GNGNS,121548.00,1304.092022,N,07735.505610,E,AAAAAN,37,0.4,962.6,-85.8,,,V*09,1772453748018
NMEA,$GNGGA,121548.00,1304.092022,N,07735.505610,E,1,12,0.4,962.6,M,-85.8,M,,*51,1772453748018
NMEA,$GPGSV,4,1,14,05,42,020,42,11,11,060,41,12,40,185,49,13,35,099,43,1*65,1772453749011
NMEA,$GPGSV,4,2,14,15,55,143,42,18,18,299,39,20,00,000,43,21,16,034,43,1*6A,1772453749011
NMEA,$GPGSV,4,3,14,23,31,235,45,24,10,172,34,25,50,244,52,29,45,346,50,1*6D,1772453749011
NMEA,$GPGSV,4,4,14,40,00,000,51,41,00,000,50,1*61,1772453749011
NMEA,$GLGSV,2,1,07,82,26,038,41,73,19,289,38,80,30,230,42,69,29,184,44,1*7D,1772453749011
NMEA,$GLGSV,2,2,07,83,21,341,43,67,35,043,40,68,64,121,44,1*4C,1772453749011
NMEA,$GAGSV,2,1,08,07,32,159,44,08,33,097,37,13,37,354,43,15,15,047,43,7*76,1772453749011
NMEA,$GAGSV,2,2,08,21,51,289,49,26,24,295,44,27,52,189,48,30,11,157,43,7*77,1772453749011
NMEA,$GQGSV,1,1,02,02,13,133,38,03,21,065,37,1*6A,1772453749011
NMEA,$GBGSV,5,1,17,07,53,108,,08,56,011,,09,12,168,,10,65,093,,1*7A,1772453749011
NMEA,$GBGSV,5,2,17,11,42,022,,12,23,082,,13,65,002,,14,70,166,,1*79,1772453749011
NMEA,$GBGSV,5,3,17,21,20,040,,23,18,269,,25,25,219,,33,46,196,,1*70,1772453749011
NMEA,$GBGSV,5,4,17,34,41,060,,38,41,023,,40,40,106,,42,67,071,,1*7C,1772453749011
NMEA,$GBGSV,5,5,17,43,36,344,,1*41,1772453749011
NMEA,$GBGSV,3,1,09,21,20,040,38,23,18,269,40,25,25,219,41,33,46,196,50,3*76,1772453749011
NMEA,$GBGSV,3,2,09,34,41,060,41,38,41,023,48,40,40,106,43,42,67,071,50,3*7A,1772453749011
NMEA,$GBGSV,3,3,09,43,36,344,51,3*48,1772453749011
NMEA,$GNGSA,A,3,05,11,12,13,15,18,21,23,24,25,29,,0.7,0.4,0.6,1*35,1772453749016
NMEA,$GNGSA,A,3,67,68,69,73,80,82,83,,,,,,0.7,0.4,0.6,2*3A,1772453749016
NMEA,$GNGSA,A,3,07,08,13,15,21,26,27,30,,,,,0.7,0.4,0.6,3*3E,1772453749016
NMEA,$GNGSA,A,3,21,23,25,33,34,38,40,42,43,,,,0.7,0.4,0.6,4*3D,1772453749016
NMEA,$GNGSA,A,3,02,03,,,,,,,,,,,0.7,0.4,0.6,5*31,1772453749016
NMEA,$GNVTG,,T,,M,0.0,N,0.0,K,A*3D,1772453749016
NMEA,$GNDTM,W84,,0000.000000,N,00000.000000,E,0.000,W84*41,1772453749016
NMEA,$GNRMC,121549.00,A,1304.092022,N,07735.505610,E,0.0,,020326,1.1,W,A,V*6E,1772453749016
NMEA,$GNGNS,121549.00,1304.092022,N,07735.505610,E,AAAAAN,37,0.4,962.6,-85.8,,,V*08,1772453749016
NMEA,$GNGGA,121549.00,1304.092022,N,07735.505610,E,1,12,0.4,962.6,M,-85.8,M,,*50,1772453749016
NMEA,$GPGSV,4,1,14,05,42,020,43,11,11,060,42,12,40,185,49,13,35,099,43,1*67,1772453750010
NMEA,$GPGSV,4,2,14,15,55,143,42,18,18,299,39,20,00,000,43,21,16,034,43,1*6A,1772453750010
NMEA,$GPGSV,4,3,14,23,31,235,45,24,10,172,34,25,50,244,52,29,45,346,50,1*6D,1772453750010
NMEA,$GPGSV,4,4,14,40,00,000,50,41,00,000,50,1*60,1772453750010
NMEA,$GLGSV,2,1,07,82,26,038,43,73,19,289,39,80,30,230,41,69,29,184,45,1*7C,1772453750010
NMEA,$GLGSV,2,2,07,83,21,341,44,67,35,043,40,68,64,121,45,1*4A,1772453750010
NMEA,$GAGSV,2,1,08,07,32,159,44,08,33,097,38,13,37,354,43,15,15,047,42,7*78,1772453750010
NMEA,$GAGSV,2,2,08,21,51,289,49,26,24,295,44,27,52,189,48,30,11,157,43,7*77,1772453750010
NMEA,$GQGSV,1,1,02,02,13,133,38,03,21,065,37,1*6A,1772453750010
NMEA,$GBGSV,5,1,17,07,53,108,,08,56,011,,09,12,168,,10,65,093,,1*7A,1772453750010
NMEA,$GBGSV,5,2,17,11,42,022,,12,23,082,,13,65,002,,14,70,166,,1*79,1772453750010
NMEA,$GBGSV,5,3,17,21,20,040,,23,18,269,,25,25,219,,33,46,196,,1*70,1772453750010
NMEA,$GBGSV,5,4,17,34,41,060,,38,41,023,,40,40,106,,42,67,071,,1*7C,1772453750010
NMEA,$GBGSV,5,5,17,43,36,344,,1*41,1772453750010
NMEA,$GBGSV,3,1,09,21,20,040,38,23,18,269,40,25,25,219,41,33,46,196,49,3*7E,1772453750010
NMEA,$GBGSV,3,2,09,34,41,060,41,38,41,023,47,40,40,106,43,42,67,071,50,3*75,1772453750010
NMEA,$GBGSV,3,3,09,43,36,344,51,3*48,1772453750010
NMEA,$GNGSA,A,3,05,11,12,13,15,18,21,23,24,25,29,,0.7,0.4,0.6,1*35,1772453750016
NMEA,$GNGSA,A,3,67,68,69,73,80,82,83,,,,,,0.7,0.4,0.6,2*3A,1772453750016
NMEA,$GNGSA,A,3,07,08,13,15,21,26,27,30,,,,,0.7,0.4,0.6,3*3E,1772453750016
NMEA,$GNGSA,A,3,21,23,25,33,34,38,40,42,43,,,,0.7,0.4,0.6,4*3D,1772453750016
NMEA,$GNGSA,A,3,02,03,,,,,,,,,,,0.7,0.4,0.6,5*31,1772453750016
NMEA,$GNVTG,,T,,M,0.0,N,0.0,K,A*3D,1772453750016
NMEA,$GNDTM,W84,,0000.000000,N,00000.000000,E,0.000,W84*41,1772453750016
NMEA,$GNRMC,121550.00,A,1304.092022,N,07735.505610,E,0.0,,020326,1.1,W,A,V*66,1772453750016
NMEA,$GNGNS,121550.00,1304.092022,N,07735.505610,E,AAAAAN,37,0.4,962.6,-85.8,,,V*00,1772453750016
NMEA,$GNGGA,121550.00,1304.092022,N,07735.505610,E,1,12,0.4,962.6,M,-85.8,M,,*58,1772453750016
NMEA,$GPGSV,4,1,14,05,42,020,43,11,11,060,42,12,40,185,50,13,35,099,43,1*6F,1772453751011
NMEA,$GPGSV,4,2,14,15,55,143,42,18,18,299,40,20,00,000,43,21,16,034,43,1*64,1772453751011
NMEA,$GPGSV,4,3,14,23,31,235,45,24,10,172,34,25,50,244,52,29,45,346,51,1*6C,1772453751011
NMEA,$GPGSV,4,4,14,40,00,000,51,41,00,000,50,1*61,1772453751011
NMEA,$GLGSV,2,1,07,82,26,038,43,73,19,289,40,80,30,230,43,69,29,184,46,1*73,1772453751011
NMEA,$GLGSV,2,2,07,83,21,341,45,67,35,043,41,68,64,121,45,1*4A,1772453751011
NMEA,$GAGSV,2,1,08,07,32,159,44,08,33,097,38,13,37,354,43,15,15,047,43,7*79,1772453751011
NMEA,$GAGSV,2,2,08,21,51,289,49,26,24,295,44,27,52,189,48,30,11,157,43,7*77,1772453751011
NMEA,$GQGSV,1,1,02,02,13,133,38,03,21,065,37,1*6A,1772453751011
NMEA,$GBGSV,5,1,17,07,53,108,,08,56,011,,09,12,168,,10,65,093,,1*7A,1772453751011
NMEA,$GBGSV,5,2,17,11,42,022,,12,23,082,,13,65,002,,14,70,166,,1*79,1772453751011
NMEA,$GBGSV,5,3,17,21,20,040,,23,18,269,,25,25,219,,33,46,196,,1*70,1772453751011
NMEA,$GBGSV,5,4,17,34,41,060,,38,41,023,,40,40,106,,42,67,071,,1*7C,1772453751011
NMEA,$GBGSV,5,5,17,43,36,344,,1*41,1772453751011
NMEA,$GBGSV,3,1,09,21,20,040,39,23,18,269,40,25,25,219,41,33,46,196,50,3*77,1772453751011
NMEA,$GBGSV,3,2,09,34,41,060,41,38,41,023,48,40,40,106,44,42,67,071,51,3*7C,1772453751011
NMEA,$GBGSV,3,3,09,43,36,344,51,3*48,1772453751011
NMEA,$GNGSA,A,3,05,11,12,13,15,18,21,23,24,25,29,,0.7,0.4,0.6,1*35,1772453751016
NMEA,$GNGSA,A,3,67,68,69,73,80,82,83,,,,,,0.7,0.4,0.6,2*3A,1772453751016
NMEA,$GNGSA,A,3,07,08,13,15,21,26,27,30,,,,,0.7,0.4,0.6,3*3E,1772453751016
NMEA,$GNGSA,A,3,21,23,25,33,34,38,40,42,43,,,,0.7,0.4,0.6,4*3D,1772453751016
NMEA,$GNGSA,A,3,02,03,,,,,,,,,,,0.7,0.4,0.6,5*31,1772453751016
NMEA,$GNVTG,,T,,M,0.0,N,0.0,K,A*3D,1772453751016
NMEA,$GNDTM,W84,,0000.000000,N,00000.000000,E,0.000,W84*41,1772453751016
NMEA,$GNRMC,121551.00,A,1304.092022,N,07735.505610,E,0.0,,020326,1.1,W,A,V*67,1772453751016
NMEA,$GNGNS,121551.00,1304.092022,N,07735.505610,E,AAAAAN,37,0.4,962.6,-85.8,,,V*01,1772453751016
NMEA,$GNGGA,121551.00,1304.092022,N,07735.505610,E,1,12,0.4,962.6,M,-85.8,M,,*59,1772453751016
NMEA,$GPGSV,4,1,14,05,42,020,43,11,11,060,41,12,40,185,50,13,35,099,43,1*6C,1772453752011
NMEA,$GPGSV,4,2,14,15,55,143,42,18,18,299,39,20,00,000,43,21,16,034,43,1*6A,1772453752011
NMEA,$GPGSV,4,3,14,23,31,235,45,24,10,172,34,25,50,244,53,29,45,346,51,1*6D,1772453752011
NMEA,$GPGSV,4,4,14,40,00,000,50,41,00,000,50,1*60,1772453752011
NMEA,$GLGSV,2,1,07,82,26,038,42,73,19,289,40,80,30,230,43,69,29,184,45,1*71,1772453752011
NMEA,$GLGSV,2,2,07,83,21,341,45,67,35,043,41,68,64,121,44,1*4B,1772453752011
NMEA,$GAGSV,2,1,08,07,32,159,44,08,33,097,38,13,37,354,43,15,15,047,43,7*79,1772453752011
NMEA,$GAGSV,2,2,08,21,51,289,48,26,24,295,44,27,52,189,48,30,11,157,43,7*76,1772453752011
NMEA,$GQGSV,1,1,02,02,13,133,38,03,21,065,37,1*6A,1772453752011
NMEA,$GBGSV,5,1,17,07,53,108,,08,56,011,,09,12,168,,10,65,093,,1*7A,1772453752011
NMEA,$GBGSV,5,2,17,11,42,022,,12,23,082,,13,65,002,,14,70,166,,1*79,1772453752011
NMEA,$GBGSV,5,3,17,21,20,040,,23,18,269,,25,25,219,,33,46,196,,1*70,1772453752011
NMEA,$GBGSV,5,4,17,34,41,060,,38,41,023,,40,40,106,,42,67,071,,1*7C,1772453752011
NMEA,$GBGSV,5,5,17,43,36,344,,1*41,1772453752011
NMEA,$GBGSV,3,1,09,21,20,040,39,23,18,269,40,25,25,219,41,33,46,196,49,3*7F,1772453752011
NMEA,$GBGSV,3,2,09,34,41,060,41,38,41,023,47,40,40,106,44,42,67,071,50,3*72,1772453752011
NMEA,$GBGSV,3,3,09,43,36,344,51,3*48,1772453752011
NMEA,$GNGSA,A,3,05,11,12,13,15,18,21,23,24,25,29,,0.7,0.4,0.6,1*35,1772453752016
NMEA,$GNGSA,A,3,67,68,69,73,80,82,83,,,,,,0.7,0.4,0.6,2*3A,1772453752016
NMEA,$GNGSA,A,3,07,08,13,15,21,26,27,30,,,,,0.7,0.4,0.6,3*3E,1772453752016
NMEA,$GNGSA,A,3,21,23,25,33,34,38,40,42,43,,,,0.7,0.4,0.6,4*3D,1772453752016
NMEA,$GNGSA,A,3,02,03,,,,,,,,,,,0.7,0.4,0.6,5*31,1772453752016
NMEA,$GNVTG,,T,,M,0.0,N,0.0,K,A*3D,1772453752016
NMEA,$GNDTM,W84,,0000.000000,N,00000.000000,E,0.000,W84*41,1772453752016
NMEA,$GNRMC,121552.00,A,1304.092022,N,07735.505608,E,0.0,,020326,1.1,W,A,V*6D,1772453752016
NMEA,$GNGNS,121552.00,1304.092022,N,07735.505608,E,AAAAAN,37,0.4,962.6,-85.8,,,V*0B,1772453752016
NMEA,$GNGGA,121552.00,1304.092022,N,07735.505608,E,1,12,0.4,962.6,M,-85.8,M,,*53,1772453752016
NMEA,$GPGSV,4,1,14,05,42,020,43,11,11,060,42,12,40,185,49,13,35,099,43,1*67,1772453753011
NMEA,$GPGSV,4,2,14,15,55,143,43,18,18,299,39,20,00,000,44,21,16,034,43,1*6C,1772453753011
NMEA,$GPGSV,4,3,14,23,31,235,45,24,10,172,34,25,50,244,53,29,45,346,50,1*6C,1772453753011
NMEA,$GPGSV,4,4,14,40,00,000,50,41,00,000,49,1*68,1772453753011
NMEA,$GLGSV,2,1,07,82,26,038,42,73,19,289,39,80,30,230,42,69,29,184,45,1*7E,1772453753011
NMEA,$GLGSV,2,2,07,83,21,341,44,67,35,043,41,68,64,121,45,1*4B,1772453753011
NMEA,$GAGSV,2,1,08,07,32,159,43,08,33,097,38,13,37,354,43,15,15,047,43,7*7E,1772453753011
NMEA,$GAGSV,2,2,08,21,51,289,48,26,24,295,44,27,52,189,48,30,11,157,43,7*76,1772453753011
NMEA,$GQGSV,1,1,02,02,13,133,38,03,21,065,37,1*6A,1772453753011
NMEA,$GBGSV,5,1,17,07,53,108,,08,56,011,,09,12,168,,10,65,093,,1*7A,1772453753011
NMEA,$GBGSV,5,2,17,11,42,022,,12,23,082,,13,65,002,,14,70,166,,1*79,1772453753011
NMEA,$GBGSV,5,3,17,21,20,040,,23,18,269,,25,25,219,,33,46,196,,1*70,1772453753011
NMEA,$GBGSV,5,4,17,34,41,060,,38,41,023,,40,40,106,,42,67,071,,1*7C,1772453753011
NMEA,$GBGSV,5,5,17,43,36,344,,1*41,1772453753011
NMEA,$GBGSV,3,1,09,21,20,040,39,23,18,269,40,25,25,219,41,33,46,196,49,3*7F,1772453753011
NMEA,$GBGSV,3,2,09,34,41,060,42,38,41,023,47,40,40,106,44,42,67,071,50,3*71,1772453753011
NMEA,$GBGSV,3,3,09,43,36,344,51,3*48,1772453753011
NMEA,$GNGSA,A,3,05,11,12,13,15,18,21,23,24,25,29,,0.7,0.4,0.6,1*35,1772453753016
NMEA,$GNGSA,A,3,67,68,69,73,80,82,83,,,,,,0.7,0.4,0.6,2*3A,1772453753016
NMEA,$GNGSA,A,3,07,08,13,15,21,26,27,30,,,,,0.7,0.4,0.6,3*3E,1772453753016
NMEA,$GNGSA,A,3,21,23,25,33,34,38,40,42,43,,,,0.7,0.4,0.6,4*3D,1772453753016
NMEA,$GNGSA,A,3,02,03,,,,,,,,,,,0.7,0.4,0.6,5*31,1772453753016
NMEA,$GNVTG,,T,,M,0.0,N,0.0,K,A*3D,1772453753016
NMEA,$GNDTM,W84,,0000.000000,N,00000.000000,E,0.000,W84*41,1772453753016
NMEA,$GNRMC,121553.00,A,1304.092021,N,07735.505609,E,0.0,,020326,1.1,W,A,V*6E,1772453753016
NMEA,$GNGNS,121553.00,1304.092021,N,07735.505609,E,AAAAAN,37,0.4,962.6,-85.8,,,V*08,1772453753016
NMEA,$GNGGA,121553.00,1304.092021,N,07735.505609,E,1,12,0.4,962.6,M,-85.8,M,,*50,1772453753016
NMEA,$GPGSV,4,1,14,05,42,020,43,11,11,060,42,12,40,185,50,13,35,099,43,1*6F,1772453754011
NMEA,$GPGSV,4,2,14,15,55,143,43,18,18,299,39,20,00,000,43,21,16,034,43,1*6B,1772453754011
NMEA,$GPGSV,4,3,14,23,31,235,45,24,10,172,34,25,50,244,53,29,45,346,50,1*6C,1772453754011
NMEA,$GPGSV,4,4,14,40,00,000,51,41,00,000,50,1*61,1772453754011
NMEA,$GLGSV,2,1,07,82,26,038,44,73,19,289,39,80,30,230,42,69,29,184,46,1*7B,1772453754011
NMEA,$GLGSV,2,2,07,83,21,341,45,67,35,043,41,68,64,121,46,1*49,1772453754011
NMEA,$GAGSV,2,1,08,07,32,159,43,08,33,097,37,13,37,354,42,15,15,047,43,7*70,1772453754011
NMEA,$GAGSV,2,2,08,21,51,289,48,26,24,295,44,27,52,189,47,30,11,157,42,7*78,1772453754011
NMEA,$GQGSV,1,1,02,02,13,133,38,03,21,065,37,1*6A,1772453754011
NMEA,$GBGSV,5,1,17,07,53,108,,08,56,011,,09,12,168,,10,65,093,,1*7A,1772453754011
NMEA,$GBGSV,5,2,17,11,42,022,,12,23,082,,13,65,002,,14,70,166,,1*79,1772453754011
NMEA,$GBGSV,5,3,17,21,20,040,,23,18,269,,25,25,219,,33,46,196,,1*70,1772453754011
NMEA,$GBGSV,5,4,17,34,41,060,,38,41,023,,40,40,106,,42,67,071,,1*7C,1772453754011
NMEA,$GBGSV,5,5,17,43,36,344,,1*41,1772453754011
NMEA,$GBGSV,3,1,09,21,20,040,38,23,18,269,39,25,25,219,41,33,46,196,49,3*70,1772453754011
NMEA,$GBGSV,3,2,09,34,41,060,41,38,41,023,47,40,40,106,43,42,67,071,50,3*75,1772453754011
NMEA,$GBGSV,3,3,09,43,36,344,51,3*48,1772453754011
NMEA,$GNGSA,A,3,05,11,12,13,15,18,21,23,24,25,29,,0.7,0.4,0.6,1*35,1772453754016
NMEA,$GNGSA,A,3,67,68,69,73,80,82,83,,,,,,0.7,0.4,0.6,2*3A,1772453754016
NMEA,$GNGSA,A,3,07,08,13,15,21,26,27,30,,,,,0.7,0.4,0.6,3*3E,1772453754016
NMEA,$GNGSA,A,3,21,23,25,33,34,38,40,42,43,,,,0.7,0.4,0.6,4*3D,1772453754016
NMEA,$GNGSA,A,3,02,03,,,,,,,,,,,0.7,0.4,0.6,5*31,1772453754016
NMEA,$GNVTG,,T,,M,0.0,N,0.0,K,A*3D,1772453754016
NMEA,$GNDTM,W84,,0000.000000,N,00000.000000,E,0.000,W84*41,1772453754016
NMEA,$GNRMC,121554.00,A,1304.092021,N,07735.505609,E,0.0,,020326,1.1,W,A,V*69,1772453754016
NMEA,$GNGNS,121554.00,1304.092021,N,07735.505609,E,AAAAAN,37,0.4,962.6,-85.8,,,V*0F,1772453754016
NMEA,$GNGGA,121554.00,1304.092021,N,07735.505609,E,1,12,0.4,962.6,M,-85.8,M,,*57,1772453754016
NMEA,$GPGSV,4,1,14,05,42,020,43,11,11,060,41,12,40,185,50,13,35,099,42,1*6D,1772453755011
NMEA,$GPGSV,4,2,14,15,55,143,43,18,18,299,39,20,00,000,44,21,16,034,43,1*6C,1772453755011
NMEA,$GPGSV,4,3,14,23,31,235,45,24,10,172,34,25,50,244,52,29,45,346,51,1*6C,1772453755011
NMEA,$GPGSV,4,4,14,40,00,000,51,41,00,000,50,1*61,1772453755011
NMEA,$GLGSV,2,1,07,82,26,038,43,73,19,289,40,80,30,230,43,69,29,184,46,1*73,1772453755011
NMEA,$GLGSV,2,2,07,83,21,341,45,67,35,043,41,68,64,121,46,1*49,1772453755011
NMEA,$GAGSV,2,1,08,07,32,159,44,08,33,097,38,13,37,354,43,15,15,047,43,7*79,1772453755011
NMEA,$GAGSV,2,2,08,21,51,289,49,26,24,295,44,27,52,189,48,30,11,157,43,7*77,1772453755011
NMEA,$GQGSV,1,1,02,02,13,133,38,03,21,065,37,1*6A,1772453755011
NMEA,$GBGSV,5,1,17,07,53,108,,08,56,011,,09,12,168,,10,65,093,,1*7A,1772453755011
NMEA,$GBGSV,5,2,17,11,42,022,,12,23,082,,13,65,002,,14,70,166,,1*79,1772453755011
NMEA,$GBGSV,5,3,17,21,20,040,,23,18,269,,25,25,219,,33,46,196,,1*70,1772453755011
NMEA,$GBGSV,5,4,17,34,41,060,,38,41,023,,40,40,106,,42,67,071,,1*7C,1772453755011
NMEA,$GBGSV,5,5,17,43,36,344,,1*41,1772453755011
NMEA,$GBGSV,3,1,09,21,20,040,39,23,18,269,40,25,25,219,42,33,46,196,50,3*74,1772453755011
NMEA,$GBGSV,3,2,09,34,41,060,41,38,41,023,48,40,40,106,44,42,67,071,50,3*7D,1772453755011
NMEA,$GBGSV,3,3,09,43,36,344,51,3*48,1772453755011
NMEA,$GNGSA,A,3,05,11,12,13,15,18,21,23,24,25,29,,0.7,0.4,0.6,1*35,1772453755015
NMEA,$GNGSA,A,3,67,68,69,73,80,82,83,,,,,,0.7,0.4,0.6,2*3A,1772453755015
NMEA,$GNGSA,A,3,07,08,13,15,21,26,27,30,,,,,0.7,0.4,0.6,3*3E,1772453755015
NMEA,$GNGSA,A,3,21,23,25,33,34,38,40,42,43,,,,0.7,0.4,0.6,4*3D,1772453755015
NMEA,$GNGSA,A,3,02,03,,,,,,,,,,,0.7,0.4,0.6,5*31,1772453755015
NMEA,$GNVTG,,T,,M,0.0,N,0.0,K,A*3D,1772453755015
NMEA,$GNDTM,W84,,0000.000000,N,00000.000000,E,0.000,W84*41,1772453755015
NMEA,$GNRMC,121555.00,A,1304.092020,N,07735.505608,E,0.0,,020326,1.1,W,A,V*68,1772453755015
NMEA,$GNGNS,121555.00,1304.092020,N,07735.505608,E,AAAAAN,37,0.4,962.6,-85.8,,,V*0E,1772453755015
NMEA,$GNGGA,121555.00,1304.092020,N,07735.505608,E,1,12,0.4,962.6,M,-85.8,M,,*56,1772453755015
NMEA,$GPGSV,4,1,14,05,42,020,43,11,11,060,42,12,40,185,50,13,35,099,43,1*6F,1772453756010
NMEA,$GPGSV,4,2,14,15,55,143,43,18,18,299,40,20,00,000,43,21,16,034,43,1*65,1772453756010
NMEA,$GPGSV,4,3,14,23,31,235,45,24,10,172,34,25,50,244,53,29,45,346,51,1*6D,1772453756010
NMEA,$GPGSV,4,4,14,40,00,000,51,41,00,000,50,1*61,1772453756010
NMEA,$GLGSV,2,1,07,82,26,038,42,73,19,289,39,80,30,230,43,69,29,184,45,1*7F,1772453756010
NMEA,$GLGSV,2,2,07,83,21,341,45,67,35,043,41,68,64,121,45,1*4A,1772453756010
NMEA,$GAGSV,2,1,08,07,32,159,43,08,33,097,37,13,37,354,43,15,15,047,43,7*71,1772453756010
NMEA,$GAGSV,2,2,08,21,51,289,49,26,24,295,43,27,52,189,48,30,11,157,43,7*70,1772453756010
NMEA,$GQGSV,1,1,02,02,13,133,38,03,21,065,37,1*6A,1772453756010
NMEA,$GBGSV,5,1,17,07,53,108,,08,56,011,,09,12,168,,10,65,093,,1*7A,1772453756010
NMEA,$GBGSV,5,2,17,11,42,022,,12,23,082,,13,65,002,,14,70,166,,1*79,1772453756010
NMEA,$GBGSV,5,3,17,21,20,040,,23,18,269,,25,25,219,,33,46,196,,1*70,1772453756010
NMEA,$GBGSV,5,4,17,34,41,060,,38,41,023,,40,40,106,,42,67,071,,1*7C,1772453756010
NMEA,$GBGSV,5,5,17,43,36,344,,1*41,1772453756010
NMEA,$GBGSV,3,1,09,21,20,040,39,23,18,269,39,25,25,219,41,33,46,196,49,3*71,1772453756010
NMEA,$GBGSV,3,2,09,34,41,060,42,38,41,023,47,40,40,106,44,42,67,071,50,3*71,1772453756010
NMEA,$GBGSV,3,3,09,43,36,344,51,3*48,1772453756010
NMEA,$GNGSA,A,3,05,11,12,13,15,18,21,23,24,25,29,,0.7,0.4,0.6,1*35,1772453756017
NMEA,$GNGSA,A,3,67,68,69,73,80,82,83,,,,,,0.7,0.4,0.6,2*3A,1772453756017
NMEA,$GNGSA,A,3,07,08,13,15,21,26,27,30,,,,,0.7,0.4,0.6,3*3E,1772453756017
NMEA,$GNGSA,A,3,21,23,25,33,34,38,40,42,43,,,,0.7,0.4,0.6,4*3D,1772453756017
NMEA,$GNGSA,A,3,02,03,,,,,,,,,,,0.7,0.4,0.6,5*31,1772453756017
NMEA,$GNVTG,,T,,M,0.0,N,0.0,K,A*3D,1772453756017
NMEA,$GNDTM,W84,,0000.000000,N,00000.000000,E,0.000,W84*41,1772453756017
NMEA,$GNRMC,121556.00,A,1304.092020,N,07735.505608,E,0.0,,020326,1.1,W,A,V*6B,1772453756017
NMEA,$GNGNS,121556.00,1304.092020,N,07735.505608,E,AAAAAN,37,0.4,962.6,-85.8,,,V*0D,1772453756017
NMEA,$GNGGA,121556.00,1304.092020,N,07735.505608,E,1,12,0.4,962.6,M,-85.8,M,,*55,1772453756017
NMEA,$GPGSV,4,1,14,05,42,020,43,11,11,060,42,12,40,185,50,13,35,099,43,1*6F,1772453757010
NMEA,$GPGSV,4,2,14,15,55,143,43,18,18,299,39,20,00,000,44,21,16,034,44,1*6B,1772453757010
NMEA,$GPGSV,4,3,14,23,31,235,45,24,10,172,34,25,50,244,53,29,45,346,51,1*6D,1772453757010
NMEA,$GPGSV,4,4,14,40,00,000,50,41,00,000,49,1*68,1772453757010
NMEA,$GLGSV,2,1,07,82,26,038,43,73,19,289,38,80,30,230,41,69,29,184,45,1*7D,1772453757010
NMEA,$GLGSV,2,2,07,83,21,341,44,67,35,043,39,68,64,121,45,1*44,1772453757010
NMEA,$GAGSV,2,1,08,07,32,159,44,08,33,097,37,13,37,354,43,15,15,047,43,7*76,1772453757010
NMEA,$GAGSV,2,2,08,21,51,289,49,26,24,295,44,27,52,189,48,30,11,157,42,7*76,1772453757010
NMEA,$GQGSV,1,1,02,02,13,133,38,03,21,065,38,1*65,1772453757010
NMEA,$GBGSV,5,1,17,07,53,108,,08,56,011,,09,12,168,,10,65,093,,1*7A,1772453757010
NMEA,$GBGSV,5,2,17,11,42,022,,12,23,082,,13,65,002,,14,70,166,,1*79,1772453757010
NMEA,$GBGSV,5,3,17,21,20,040,,23,18,269,,25,25,219,,33,46,196,,1*70,1772453757010
NMEA,$GBGSV,5,4,17,34,41,060,,38,41,023,,40,40,106,,42,67,071,,1*7C,1772453757010
NMEA,$GBGSV,5,5,17,43,36,344,,1*41,1772453757010
NMEA,$GBGSV,3,1,09,21,20,040,40,23,18,269,39,25,25,219,42,33,46,196,49,3*7C,1772453757010
NMEA,$GBGSV,3,2,09,34,41,060,41,38,41,023,48,40,40,106,44,42,67,071,50,3*7D,1772453757010
NMEA,$GBGSV,3,3,09,43,36,344,51,3*48,1772453757010
NMEA,$GNGSA,A,3,05,11,12,13,15,18,21,23,24,25,29,,0.7,0.4,0.6,1*35,1772453757016
NMEA,$GNGSA,A,3,67,68,69,73,80,82,83,,,,,,0.7,0.4,0.6,2*3A,1772453757016
NMEA,$GNGSA,A,3,07,08,13,15,21,26,27,30,,,,,0.7,0.4,0.6,3*3E,1772453757016
NMEA,$GNGSA,A,3,21,23,25,33,34,38,40,42,43,,,,0.7,0.4,0.6,4*3D,1772453757016
NMEA,$GNGSA,A,3,02,03,,,,,,,,,,,0.7,0.4,0.6,5*31,1772453757016
NMEA,$GNVTG,,T,,M,0.0,N,0.0,K,A*3D,1772453757016
NMEA,$GNDTM,W84,,0000.000000,N,00000.000000,E,0.000,W84*41,1772453757016
NMEA,$GNRMC,121557.00,A,1304.092020,N,07735.505608,E,0.0,,020326,1.1,W,A,V*6A,1772453757016
NMEA,$GNGNS,121557.00,1304.092020,N,07735.505608,E,AAAAAN,37,0.4,962.6,-85.8,,,V*0C,1772453757016
NMEA,$GNGGA,121557.00,1304.092020,N,07735.505608,E,1,12,0.4,962.6,M,-85.8,M,,*54,1772453757016
NMEA,$GPGSV,4,1,14,05,42,020,43,11,11,060,42,12,40,185,50,13,35,099,43,1*6F,1772453758010
NMEA,$GPGSV,4,2,14,15,55,143,43,18,18,299,39,20,00,000,44,21,16,034,44,1*6B,1772453758010
NMEA,$GPGSV,4,3,14,23,31,235,45,24,10,172,34,25,50,244,53,29,45,346,51,1*6D,1772453758010
NMEA,$GPGSV,4,4,14,40,00,000,51,41,00,000,50,1*61,1772453758010
NMEA,$GLGSV,2,1,07,82,26,038,43,73,19,289,39,80,30,230,42,69,29,184,46,1*7C,1772453758010
NMEA,$GLGSV,2,2,07,83,21,341,44,67,35,043,39,68,64,121,45,1*44,1772453758010
NMEA,$GAGSV,2,1,08,07,32,159,43,08,33,097,37,13,37,354,43,15,15,047,42,7*70,1772453758010
NMEA,$GAGSV,2,2,08,21,51,289,49,26,24,295,43,27,52,189,48,30,11,157,43,7*70,1772453758010
NMEA,$GQGSV,1,1,02,02,13,133,38,03,21,065,38,1*65,1772453758010
NMEA,$GBGSV,5,1,17,07,53,108,,08,56,011,,09,12,168,,10,65,093,,1*7A,1772453758010
NMEA,$GBGSV,5,2,17,11,42,022,,12,23,082,,13,65,002,,14,70,166,,1*79,1772453758010
NMEA,$GBGSV,5,3,17,21,20,040,,23,18,269,,25,25,219,,33,46,196,,1*70,1772453758010
NMEA,$GBGSV,5,4,17,34,41,060,,38,41,023,,40,40,106,,42,67,071,,1*7C,1772453758010
NMEA,$GBGSV,5,5,17,43,36,344,,1*41,1772453758010
NMEA,$GBGSV,3,1,09,21,20,040,39,23,18,269,39,25,25,219,41,33,46,196,50,3*79,1772453758010
NMEA,$GBGSV,3,2,09,34,41,060,42,38,41,023,47,40,40,106,44,42,67,071,50,3*71,1772453758010
NMEA,$GBGSV,3,3,09,43,36,344,51,3*48,1772453758010
NMEA,$GNGSA,A,3,05,11,12,13,15,18,21,23,24,25,29,,0.7,0.4,0.6,1*35,1772453758015
NMEA,$GNGSA,A,3,67,68,69,73,80,82,83,,,,,,0.7,0.4,0.6,2*3A,1772453758015
NMEA,$GNGSA,A,3,07,08,13,15,21,26,27,30,,,,,0.7,0.4,0.6,3*3E,1772453758015
NMEA,$GNGSA,A,3,21,23,25,33,34,38,40,42,43,,,,0.7,0.4,0.6,4*3D,1772453758015
NMEA,$GNGSA,A,3,02,03,,,,,,,,,,,0.7,0.4,0.6,5*31,1772453758015
NMEA,$GNVTG,,T,,M,0.0,N,0.0,K,A*3D,1772453758015
NMEA,$GNDTM,W84,,0000.000000,N,00000.000000,E,0.000,W84*41,1772453758015
NMEA,$GNRMC,121558.00,A,1304.092020,N,07735.505608,E,0.0,,020326,1.1,W,A,V*65,1772453758015
NMEA,$GNGNS,121558.00,1304.092020,N,07735.505608,E,AAAAAN,37,0.4,962.6,-85.8,,,V*03,1772453758015
NMEA,$GNGGA,121558.00,1304.092020,N,07735.505608,E,1,12,0.4,962.6,M,-85.8,M,,*5B,1772453758015
NMEA,$GPGSV,4,1,14,05,42,020,43,11,11,060,42,12,40,185,50,13,35,099,43,1*6F,1772453759012
NMEA,$GPGSV,4,2,14,15,55,143,43,18,18,299,39,20,00,000,44,21,16,034,44,1*6B,1772453759012
NMEA,$GPGSV,4,3,14,23,31,235,45,24,10,172,34,25,50,244,52,29,45,346,51,1*6C,1772453759012
NMEA,$GPGSV,4,4,14,40,00,000,51,41,00,000,50,1*61,1772453759012
NMEA,$GLGSV,2,1,07,82,26,038,43,73,19,289,39,80,30,230,43,69,29,184,45,1*7E,1772453759012
NMEA,$GLGSV,2,2,07,83,21,341,45,67,35,043,41,68,64,121,45,1*4A,1772453759012
NMEA,$GAGSV,2,1,08,07,32,159,43,08,33,097,37,13,37,354,43,15,15,047,43,7*71,1772453759012
NMEA,$GAGSV,2,2,08,21,51,289,49,26,24,295,43,27,52,189,48,30,11,157,42,7*71,1772453759012
NMEA,$GQGSV,1,1,02,02,13,133,39,03,21,065,37,1*6B,1772453759012
NMEA,$GBGSV,5,1,17,07,53,108,,08,56,011,,09,12,168,,10,65,093,,1*7A,1772453759012
NMEA,$GBGSV,5,2,17,11,42,022,,12,23,082,,13,65,002,,14,70,166,,1*79,1772453759012
NMEA,$GBGSV,5,3,17,21,20,040,,23,18,269,,25,25,219,,33,46,196,,1*70,1772453759012
NMEA,$GBGSV,5,4,17,34,41,060,,38,41,023,,40,40,106,,42,67,071,,1*7C,1772453759012
NMEA,$GBGSV,5,5,17,43,36,344,,1*41,1772453759012
NMEA,$GBGSV,3,1,09,21,20,040,40,23,18,269,39,25,25,219,41,33,46,196,50,3*77,1772453759012
NMEA,$GBGSV,3,2,09,34,41,060,41,38,41,023,47,40,40,106,43,42,67,071,50,3*75,1772453759012
NMEA,$GBGSV,3,3,09,43,36,344,51,3*48,1772453759012
NMEA,$GNGSA,A,3,05,11,12,13,15,18,21,23,24,25,29,,0.7,0.4,0.6,1*35,1772453759017
NMEA,$GNGSA,A,3,67,68,69,73,80,82,83,,,,,,0.7,0.4,0.6,2*3A,1772453759017
NMEA,$GNGSA,A,3,07,08,13,15,21,26,27,30,,,,,0.7,0.4,0.6,3*3E,1772453759017
NMEA,$GNGSA,A,3,21,23,25,33,34,38,40,42,43,,,,0.7,0.4,0.6,4*3D,1772453759017
NMEA,$GNGSA,A,3,02,03,,,,,,,,,,,0.7,0.4,0.6,5*31,1772453759017
NMEA,$GNVTG,,T,,M,0.0,N,0.0,K,A*3D,1772453759017
NMEA,$GNDTM,W84,,0000.000000,N,00000.000000,E,0.000,W84*41,1772453759017
NMEA,$GNRMC,121559.00,A,1304.092021,N,07735.505607,E,0.0,,020326,1.1,W,A,V*6A,1772453759017
NMEA,$GNGNS,121559.00,1304.092021,N,07735.505607,E,AAAAAN,37,0.4,962.6,-85.8,,,V*0C,1772453759017
NMEA,$GNGGA,121559.00,1304.092021,N,07735.505607,E,1,12,0.4,962.6,M,-85.8,M,,*54,1772453759017
NMEA,$GPGSV,4,1,14,05,42,020,43,11,11,060,42,12,40,185,50,13,35,099,43,1*6F,1772453760010
NMEA,$GPGSV,4,2,14,15,55,143,43,18,18,299,39,20,00,000,44,21,16,034,44,1*6B,1772453760010
NMEA,$GPGSV,4,3,14,23,31,235,45,24,10,172,34,25,50,244,53,29,45,346,51,1*6D,1772453760010
NMEA,$GPGSV,4,4,14,40,00,000,50,41,00,000,50,1*60,1772453760010
NMEA,$GLGSV,2,1,07,82,26,038,43,73,19,289,38,80,30,230,43,69,29,184,45,1*7F,1772453760010
NMEA,$GLGSV,2,2,07,83,21,341,45,67,35,043,41,68,64,121,45,1*4A,1772453760010
NMEA,$GAGSV,2,1,08,07,32,159,44,08,33,097,37,13,37,354,43,15,15,047,43,7*76,1772453760010
NMEA,$GAGSV,2,2,08,21,51,289,49,26,24,295,44,27,52,189,48,30,11,157,42,7*76,1772453760010
NMEA,$GQGSV,1,1,02,02,13,133,39,03,21,065,37,1*6B,1772453760010
NMEA,$GBGSV,5,1,17,07,53,108,,08,56,011,,09,12,168,,10,65,093,,1*7A,1772453760010
NMEA,$GBGSV,5,2,17,11,42,022,,12,23,082,,13,65,002,,14,70,166,,1*79,1772453760010
NMEA,$GBGSV,5,3,17,21,20,040,,23,18,269,,25,25,219,,33,46,196,,1*70,1772453760010
NMEA,$GBGSV,5,4,17,34,41,060,,38,41,023,,40,40,106,,42,67,071,,1*7C,1772453760010
NMEA,$GBGSV,5,5,17,43,36,344,,1*41,1772453760010
NMEA,$GBGSV,3,1,09,21,20,040,40,23,18,269,39,25,25,219,41,33,46,196,50,3*77,1772453760010
NMEA,$GBGSV,3,2,09,34,41,060,42,38,41,023,48,40,40,106,44,42,67,071,50,3*7E,1772453760010
NMEA,$GBGSV,3,3,09,43,36,344,51,3*48,1772453760010
NMEA,$GNGSA,A,3,05,11,12,13,15,18,21,23,24,25,29,,0.7,0.4,0.6,1*35,1772453760014
NMEA,$GNGSA,A,3,67,68,69,73,80,82,83,,,,,,0.7,0.4,0.6,2*3A,1772453760014
NMEA,$GNGSA,A,3,07,08,13,15,21,26,27,30,,,,,0.7,0.4,0.6,3*3E,1772453760014
NMEA,$GNGSA,A,3,21,23,25,33,34,38,40,42,43,,,,0.7,0.4,0.6,4*3D,1772453760014
NMEA,$GNGSA,A,3,02,03,,,,,,,,,,,0.7,0.4,0.6,5*31,1772453760014
NMEA,$GNVTG,,T,,M,0.0,N,0.0,K,A*3D,1772453760014
NMEA,$GNDTM,W84,,0000.000000,N,00000.000000,E,0.000,W84*41,1772453760014
NMEA,$GNRMC,121600.00,A,1304.092020,N,07735.505607,E,0.0,,020326,1.1,W,A,V*64,1772453760014
NMEA,$GNGNS,121600.00,1304.092020,N,07735.505607,E,AAAAAN,37,0.4,962.6,-85.8,,,V*02,1772453760014
NMEA,$GNGGA,121600.00,1304.092020,N,07735.505607,E,1,12,0.4,962.6,M,-85.8,M,,*5A,1772453760014
NMEA,$GPGSV,4,1,14,05,42,020,43,11,11,060,42,12,40,185,50,13,35,099,43,1*6F,1772453761010
NMEA,$GPGSV,4,2,14,15,55,143,43,18,18,299,39,20,00,000,44,21,16,034,44,1*6B,1772453761010
NMEA,$GPGSV,4,3,14,23,31,235,45,24,10,172,34,25,50,244,53,29,45,346,51,1*6D,1772453761010
NMEA,$GPGSV,4,4,14,40,00,000,50,41,00,000,50,1*60,1772453761010
NMEA,$GLGSV,2,1,07,82,26,038,44,73,19,289,37,80,30,230,42,69,29,184,46,1*75,1772453761010
NMEA,$GLGSV,2,2,07,83,21,341,44,67,35,043,40,68,64,121,45,1*4A,1772453761010
NMEA,$GAGSV,2,1,08,07,32,159,43,08,33,097,37,13,37,354,43,15,15,047,43,7*71,1772453761010
NMEA,$GAGSV,2,2,08,21,51,289,49,26,24,295,43,27,52,189,48,30,11,157,43,7*70,1772453761010
NMEA,$GQGSV,1,1,02,02,13,133,38,03,21,065,37,1*6A,1772453761010
NMEA,$GBGSV,5,1,17,07,53,108,,08,56,011,,09,12,168,,10,65,093,,1*7A,1772453761010
NMEA,$GBGSV,5,2,17,11,42,022,,12,23,082,,13,65,002,,14,70,166,,1*79,1772453761010
NMEA,$GBGSV,5,3,17,21,20,040,,23,18,269,,25,25,219,,33,46,196,,1*70,1772453761010
NMEA,$GBGSV,5,4,17,34,41,060,,38,41,023,,40,40,106,,42,67,071,,1*7C,1772453761010
NMEA,$GBGSV,5,5,17,43,36,344,,1*41,1772453761010
NMEA,$GBGSV,3,1,09,21,20,040,40,23,18,269,39,25,25,219,41,33,46,196,50,3*77,1772453761010
NMEA,$GBGSV,3,2,09,34,41,060,42,38,41,023,48,40,40,106,44,42,67,071,51,3*7F,1772453761010
NMEA,$GBGSV,3,3,09,43,36,344,51,3*48,1772453761010
NMEA,$GNGSA,A,3,05,11,12,13,15,18,21,23,24,25,29,,0.7,0.4,0.6,1*35,1772453761014
NMEA,$GNGSA,A,3,67,68,69,73,80,82,83,,,,,,0.7,0.4,0.6,2*3A,1772453761014
NMEA,$GNGSA,A,3,07,08,13,15,21,26,27,30,,,,,0.7,0.4,0.6,3*3E,1772453761014
NMEA,$GNGSA,A,3,21,23,25,33,34,38,40,42,43,,,,0.7,0.4,0.6,4*3D,1772453761014
NMEA,$GNGSA,A,3,02,03,,,,,,,,,,,0.7,0.4,0.6,5*31,1772453761014
NMEA,$GNVTG,,T,,M,0.0,N,0.0,K,A*3D,1772453761014
NMEA,$GNDTM,W84,,0000.000000,N,00000.000000,E,0.000,W84*41,1772453761014
NMEA,$GNRMC,121601.00,A,1304.092020,N,07735.505607,E,0.0,,020326,1.1,W,A,V*65,1772453761014
NMEA,$GNGNS,121601.00,1304.092020,N,07735.505607,E,AAAAAN,37,0.4,962.6,-85.8,,,V*03,1772453761014
NMEA,$GNGGA,121601.00,1304.092020,N,07735.505607,E,1,12,0.4,962.6,M,-85.8,M,,*5B,1772453761014
NMEA,$GPGSV,4,1,14,05,42,020,43,11,11,060,42,12,40,185,50,13,35,099,43,1*6F,1772453762011
NMEA,$GPGSV,4,2,14,15,55,143,43,18,18,299,39,20,00,000,44,21,16,034,44,1*6B,1772453762011
NMEA,$GPGSV,4,3,14,23,31,235,45,24,10,172,34,25,50,244,52,29,45,346,51,1*6C,1772453762011
NMEA,$GPGSV,4,4,14,40,00,000,51,41,00,000,50,1*61,1772453762011
NMEA,$GLGSV,2,1,07,82,26,038,44,73,19,289,38,80,30,230,43,69,29,184,46,1*7B,1772453762011
NMEA,$GLGSV,2,2,07,83,21,341,45,67,35,043,40,68,64,121,45,1*4B,1772453762011
NMEA,$GAGSV,2,1,08,07,32,159,43,08,33,097,37,13,37,354,43,15,15,047,43,7*71,1772453762011
NMEA,$GAGSV,2,2,08,21,51,289,49,26,24,295,43,27,52,189,48,30,11,157,43,7*70,1772453762011
NMEA,$GQGSV,1,1,02,02,13,133,39,03,21,065,37,1*6B,1772453762011
NMEA,$GBGSV,5,1,17,07,53,108,,08,56,011,,09,12,168,,10,65,093,,1*7A,1772453762011
NMEA,$GBGSV,5,2,17,11,42,022,,12,23,082,,13,65,002,,14,70,166,,1*79,1772453762011
NMEA,$GBGSV,5,3,17,21,20,040,,23,18,269,,25,25,219,,33,46,196,,1*70,1772453762011
NMEA,$GBGSV,5,4,17,34,41,060,,38,41,023,,40,40,106,,42,67,071,,1*7C,1772453762011
NMEA,$GBGSV,5,5,17,43,36,344,,1*41,1772453762011
NMEA,$GBGSV,3,1,09,21,20,040,40,23,18,269,39,25,25,219,41,33,46,196,50,3*77,1772453762011
NMEA,$GBGSV,3,2,09,34,41,060,42,38,41,023,47,40,40,106,44,42,67,071,50,3*71,1772453762011
NMEA,$GBGSV,3,3,09,43,36,344,51,3*48,1772453762011
NMEA,$GNGSA,A,3,05,11,12,13,15,18,21,23,24,25,29,,0.7,0.4,0.6,1*35,1772453762015
NMEA,$GNGSA,A,3,67,68,69,73,80,82,83,,,,,,0.7,0.4,0.6,2*3A,1772453762015
NMEA,$GNGSA,A,3,07,08,13,15,21,26,27,30,,,,,0.7,0.4,0.6,3*3E,1772453762015
NMEA,$GNGSA,A,3,21,23,25,33,34,38,40,42,43,,,,0.7,0.4,0.6,4*3D,1772453762015
NMEA,$GNGSA,A,3,02,03,,,,,,,,,,,0.7,0.4,0.6,5*31,1772453762015
NMEA,$GNVTG,,T,,M,0.0,N,0.0,K,A*3D,1772453762015
NMEA,$GNDTM,W84,,0000.000000,N,00000.000000,E,0.000,W84*41,1772453762015
NMEA,$GNRMC,121602.00,A,1304.092020,N,07735.505607,E,0.0,,020326,1.1,W,A,V*66,1772453762015
NMEA,$GNGNS,121602.00,1304.092020,N,07735.505607,E,AAAAAN,37,0.4,962.6,-85.8,,,V*00,1772453762015
NMEA,$GNGGA,121602.00,1304.092020,N,07735.505607,E,1,12,0.4,962.6,M,-85.8,M,,*58,1772453762015
NMEA,$GPGSV,4,1,14,05,42,020,43,11,11,060,42,12,40,185,50,13,35,099,42,1*6E,1772453763012
NMEA,$GPGSV,4,2,14,15,55,143,43,18,18,299,39,20,00,000,44,21,16,034,44,1*6B,1772453763012
NMEA,$GPGSV,4,3,14,23,31,235,45,24,10,172,35,25,50,244,53,29,45,346,51,1*6C,1772453763012
NMEA,$GPGSV,4,4,14,40,00,000,51,41,00,000,49,1*69,1772453763012
NMEA,$GLGSV,2,1,07,82,26,038,43,73,19,289,38,80,30,230,43,69,29,184,46,1*7C,1772453763012
NMEA,$GLGSV,2,2,07,83,21,341,45,67,35,043,41,68,64,121,45,1*4A,1772453763012
NMEA,$GAGSV,2,1,08,07,32,159,44,08,33,097,37,13,37,354,43,15,15,047,43,7*76,1772453763012
NMEA,$GAGSV,2,2,08,21,51,289,49,26,24,295,43,27,52,189,48,30,11,157,43,7*70,1772453763012
NMEA,$GQGSV,1,1,02,02,13,133,39,03,21,065,37,1*6B,1772453763012
NMEA,$GBGSV,5,1,17,07,53,108,,08,56,011,,09,12,168,,10,65,093,,1*7A,1772453763012
NMEA,$GBGSV,5,2,17,11,42,022,,12,23,082,,13,65,002,,14,70,166,,1*79,1772453763012
NMEA,$GBGSV,5,3,17,21,20,040,,23,18,269,,25,25,219,,33,46,196,,1*70,1772453763012
NMEA,$GBGSV,5,4,17,34,41,060,,38,41,023,,40,40,106,,42,67,071,,1*7C,1772453763012
NMEA,$GBGSV,5,5,17,43,36,344,,1*41,1772453763012
NMEA,$GBGSV,3,1,09,21,20,040,40,23,18,269,38,25,25,219,41,33,46,196,50,3*76,1772453763012
NMEA,$GBGSV,3,2,09,34,41,060,42,38,41,023,47,40,40,106,44,42,67,071,51,3*70,1772453763012
NMEA,$GBGSV,3,3,09,43,36,344,51,3*48,1772453763012
NMEA,$GNGSA,A,3,05,11,12,13,15,18,21,23,24,25,29,,0.7,0.4,0.6,1*35,1772453763016
NMEA,$GNGSA,A,3,67,68,69,73,80,82,83,,,,,,0.7,0.4,0.6,2*3A,1772453763016
NMEA,$GNGSA,A,3,07,08,13,15,21,26,27,30,,,,,0.7,0.4,0.6,3*3E,1772453763016
NMEA,$GNGSA,A,3,21,23,25,33,34,38,40,42,43,,,,0.7,0.4,0.6,4*3D,1772453763016
NMEA,$GNGSA,A,3,02,03,,,,,,,,,,,0.7,0.4,0.6,5*31,1772453763016
NMEA,$GNVTG,,T,,M,0.0,N,0.0,K,A*3D,1772453763016
NMEA,$GNDTM,W84,,0000.000000,N,00000.000000,E,0.000,W84*41,1772453763016
NMEA,$GNRMC,121603.00,A,1304.092020,N,07735.505607,E,0.0,,020326,1.1,W,A,V*67,1772453763016
NMEA,$GNGNS,121603.00,1304.092020,N,07735.505607,E,AAAAAN,37,0.4,962.6,-85.8,,,V*01,1772453763016
NMEA,$GNGGA,121603.00,1304.092020,N,07735.505607,E,1,12,0.4,962.6,M,-85.8,M,,*59,1772453763016
NMEA,$GPGSV,4,1,14,05,42,020,43,11,11,060,42,12,40,185,50,13,35,099,42,1*6E,1772453764011
NMEA,$GPGSV,4,2,14,15,55,143,44,18,18,299,39,20,00,000,44,21,16,034,44,1*6C,1772453764011
NMEA,$GPGSV,4,3,14,23,31,235,45,24,10,172,35,25,50,244,52,29,45,346,50,1*6C,1772453764011
NMEA,$GPGSV,4,4,14,40,00,000,51,41,00,000,50,1*61,1772453764011
NMEA,$GLGSV,2,1,07,82,26,038,43,73,19,289,36,80,30,230,42,69,29,184,45,1*70,1772453764011
NMEA,$GLGSV,2,2,07,83,21,341,44,67,35,043,41,68,64,121,45,1*4B,1772453764011
NMEA,$GAGSV,2,1,08,07,32,159,43,08,33,097,37,13,37,354,43,15,15,047,43,7*71,1772453764011
NMEA,$GAGSV,2,2,08,21,51,289,49,26,24,295,44,27,52,189,48,30,11,157,43,7*77,1772453764011
NMEA,$GQGSV,1,1,02,02,13,133,39,03,21,065,38,1*64,1772453764011
NMEA,$GBGSV,5,1,17,07,53,108,,08,56,011,,09,12,168,,10,65,093,,1*7A,1772453764011
NMEA,$GBGSV,5,2,17,11,42,022,,12,23,082,,13,65,002,,14,70,166,,1*79,1772453764011
NMEA,$GBGSV,5,3,17,21,20,040,,23,18,269,,25,25,219,,33,46,196,,1*70,1772453764011
NMEA,$GBGSV,5,4,17,34,41,060,,38,41,023,,40,40,106,,42,67,071,,1*7C,1772453764011
NMEA,$GBGSV,5,5,17,43,36,344,,1*41,1772453764011
NMEA,$GBGSV,3,1,09,21,20,040,39,23,18,269,38,25,25,219,41,33,46,196,49,3*70,1772453764011
NMEA,$GBGSV,3,2,09,34,41,060,42,38,41,023,47,40,40,106,44,42,67,071,50,3*71,1772453764011
NMEA,$GBGSV,3,3,09,43,36,344,51,3*48,1772453764011
NMEA,$GNGSA,A,3,05,11,12,13,15,18,21,23,24,25,29,,0.7,0.4,0.6,1*35,1772453764016
NMEA,$GNGSA,A,3,67,68,69,73,80,82,83,,,,,,0.7,0.4,0.6,2*3A,1772453764016
NMEA,$GNGSA,A,3,07,08,13,15,21,26,27,30,,,,,0.7,0.4,0.6,3*3E,1772453764016
NMEA,$GNGSA,A,3,21,23,25,33,34,38,40,42,43,,,,0.7,0.4,0.6,4*3D,1772453764016
NMEA,$GNGSA,A,3,02,03,,,,,,,,,,,0.7,0.4,0.6,5*31,1772453764016
NMEA,$GNVTG,,T,,M,0.0,N,0.0,K,A*3D,1772453764016
NMEA,$GNDTM,W84,,0000.000000,N,00000.000000,E,0.000,W84*41,1772453764016
NMEA,$GNRMC,121604.00,A,1304.092020,N,07735.505607,E,0.0,,020326,1.1,W,A,V*60,1772453764016
NMEA,$GNGNS,121604.00,1304.092020,N,07735.505607,E,AAAAAN,37,0.4,962.6,-85.8,,,V*06,1772453764016
NMEA,$GNGGA,121604.00,1304.092020,N,07735.505607,E,1,12,0.4,962.6,M,-85.8,M,,*5E,1772453764016
NMEA,$GPGSV,4,1,14,05,42,020,43,11,11,060,42,12,40,185,50,13,35,099,42,1*6E,1772453765009
NMEA,$GPGSV,4,2,14,15,55,143,44,18,18,299,39,20,00,000,44,21,16,034,45,1*6D,1772453765009
NMEA,$GPGSV,4,3,14,23,31,235,45,24,10,172,34,25,50,244,53,29,45,346,51,1*6D,1772453765009
NMEA,$GPGSV,4,4,14,40,00,000,51,41,00,000,50,1*61,1772453765009
NMEA,$GLGSV,2,1,07,82,26,038,43,73,19,289,36,80,30,230,41,69,29,184,45,1*73,1772453765009
NMEA,$GLGSV,2,2,07,83,21,341,44,67,35,043,40,68,64,121,45,1*4A,1772453765009
NMEA,$GAGSV,2,1,08,07,32,159,43,08,33,097,37,13,37,354,43,15,15,047,43,7*71,1772453765009
NMEA,$GAGSV,2,2,08,21,51,289,48,26,24,295,43,27,52,189,48,30,11,157,43,7*71,1772453765009
NMEA,$GQGSV,1,1,02,02,13,133,39,03,21,065,38,1*64,1772453765009
NMEA,$GBGSV,5,1,17,07,53,108,,08,56,011,,09,12,168,,10,65,093,,1*7A,1772453765009
NMEA,$GBGSV,5,2,17,11,42,022,,12,23,082,,13,65,002,,14,70,166,,1*79,1772453765009
NMEA,$GBGSV,5,3,17,21,20,040,,23,18,269,,25,25,219,,33,46,196,,1*70,1772453765009
NMEA,$GBGSV,5,4,17,34,41,060,,38,41,023,,40,40,106,,42,67,071,,1*7C,1772453765009
NMEA,$GBGSV,5,5,17,43,36,344,,1*41,1772453765009
NMEA,$GBGSV,3,1,09,21,20,040,40,23,18,269,38,25,25,219,42,33,46,196,50,3*75,1772453765009
NMEA,$GBGSV,3,2,09,34,41,060,42,38,41,023,47,40,40,106,44,42,67,071,51,3*70,1772453765009
NMEA,$GBGSV,3,3,09,43,36,344,51,3*48,1772453765009
NMEA,$GNGSA,A,3,05,11,12,13,15,18,21,23,24,25,29,,0.7,0.4,0.6,1*35,1772453765013
NMEA,$GNGSA,A,3,67,68,69,73,80,82,83,,,,,,0.7,0.4,0.6,2*3A,1772453765013
NMEA,$GNGSA,A,3,07,08,13,15,21,26,27,30,,,,,0.7,0.4,0.6,3*3E,1772453765013
NMEA,$GNGSA,A,3,21,23,25,33,34,38,40,42,43,,,,0.7,0.4,0.6,4*3D,1772453765013
NMEA,$GNGSA,A,3,02,03,,,,,,,,,,,0.7,0.4,0.6,5*31,1772453765013
NMEA,$GNVTG,,T,,M,0.0,N,0.0,K,A*3D,1772453765013
NMEA,$GNDTM,W84,,0000.000000,N,00000.000000,E,0.000,W84*41,1772453765013
NMEA,$GNRMC,121605.00,A,1304.092020,N,07735.505607,E,0.0,,020326,1.1,W,A,V*61,1772453765013
NMEA,$GNGNS,121605.00,1304.092020,N,07735.505607,E,AAAAAN,37,0.4,962.6,-85.8,,,V*07,1772453765013
NMEA,$GNGGA,121605.00,1304.092020,N,07735.505607,E,1,12,0.4,962.6,M,-85.8,M,,*5F,1772453765013
NMEA,$GPGSV,4,1,14,05,42,020,43,11,11,060,42,12,40,185,50,13,35,099,42,1*6E,1772453766009
NMEA,$GPGSV,4,2,14,15,55,143,44,18,18,299,39,20,00,000,44,21,16,034,44,1*6C,1772453766009
NMEA,$GPGSV,4,3,14,23,31,235,45,24,10,172,34,25,50,244,53,29,45,346,50,1*6C,1772453766009
NMEA,$GPGSV,4,4,14,40,00,000,50,41,00,000,49,1*68,1772453766009
NMEA,$GLGSV,2,1,07,82,26,038,43,73,19,289,36,80,30,230,43,69,29,184,45,1*71,1772453766009
NMEA,$GLGSV,2,2,07,83,21,341,45,67,35,043,41,68,64,121,45,1*4A,1772453766009
NMEA,$GAGSV,2,1,08,07,32,159,43,08,33,097,37,13,37,354,43,15,15,047,43,7*71,1772453766009
NMEA,$GAGSV,2,2,08,21,51,289,49,26,24,295,43,27,52,189,48,30,11,157,42,7*71,1772453766009
NMEA,$GQGSV,1,1,02,02,13,133,38,03,21,065,37,1*6A,1772453766009
NMEA,$GBGSV,5,1,17,07,53,108,,08,56,011,,09,12,168,,10,65,093,,1*7A,1772453766009
NMEA,$GBGSV,5,2,17,11,42,022,,12,23,082,,13,65,002,,14,70,166,,1*79,1772453766009
NMEA,$GBGSV,5,3,17,21,20,040,,23,18,269,,25,25,219,,33,46,196,,1*70,1772453766009
NMEA,$GBGSV,5,4,17,34,41,060,,38,41,023,,40,40,106,,42,67,071,,1*7C,1772453766009
NMEA,$GBGSV,5,5,17,43,36,344,,1*41,1772453766009
NMEA,$GBGSV,3,1,09,21,20,040,40,23,18,269,37,25,25,219,41,33,46,196,50,3*79,1772453766009
NMEA,$GBGSV,3,2,09,34,41,060,42,38,41,023,47,40,40,106,44,42,67,071,51,3*70,1772453766009
NMEA,$GBGSV,3,3,09,43,36,344,51,3*48,1772453766009
NMEA,$GNGSA,A,3,05,11,12,13,15,18,21,23,24,25,29,,0.7,0.4,0.6,1*35,1772453766013
NMEA,$GNGSA,A,3,67,68,69,73,80,82,83,,,,,,0.7,0.4,0.6,2*3A,1772453766013
NMEA,$GNGSA,A,3,07,08,13,15,21,26,27,30,,,,,0.7,0.4,0.6,3*3E,1772453766013
NMEA,$GNGSA,A,3,21,23,25,33,34,38,40,42,43,,,,0.7,0.4,0.6,4*3D,1772453766013
NMEA,$GNGSA,A,3,02,03,,,,,,,,,,,0.7,0.4,0.6,5*31,1772453766013
NMEA,$GNVTG,,T,,M,0.0,N,0.0,K,A*3D,1772453766013
NMEA,$GNDTM,W84,,0000.000000,N,00000.000000,E,0.000,W84*41,1772453766013
NMEA,$GNRMC,121606.00,A,1304.092019,N,07735.505607,E,0.0,,020326,1.1,W,A,V*68,1772453766013
NMEA,$GNGNS,121606.00,1304.092019,N,07735.505607,E,AAAAAN,37,0.4,962.6,-85.8,,,V*0E,1772453766013
NMEA,$GNGGA,121606.00,1304.092019,N,07735.505607,E,1,12,0.4,962.6,M,-85.8,M,,*56,1772453766013
NMEA,$GPGSV,4,1,14,05,42,020,43,11,11,060,41,12,40,185,50,13,35,099,42,1*6D,1772453767010
NMEA,$GPGSV,4,2,14,15,55,143,44,18,18,299,39,20,00,000,43,21,16,034,44,1*6B,1772453767010
NMEA,$GPGSV,4,3,14,23,31,235,45,24,10,172,34,25,50,244,53,29,45,346,51,1*6D,1772453767010
NMEA,$GPGSV,4,4,14,40,00,000,50,41,00,000,50,1*60,1772453767010
NMEA,$GLGSV,2,1,07,82,26,038,43,73,19,289,35,80,30,230,43,69,29,184,45,1*72,1772453767010
NMEA,$GLGSV,2,2,07,83,21,341,45,67,35,043,41,68,64,121,44,1*4B,1772453767010
NMEA,$GAGSV,2,1,08,07,32,159,43,08,33,097,37,13,37,354,43,15,15,047,43,7*71,1772453767010
NMEA,$GAGSV,2,2,08,21,51,289,49,26,24,295,44,27,52,189,48,30,11,157,42,7*76,1772453767010
NMEA,$GQGSV,1,1,02,02,13,133,39,03,21,065,38,1*64,1772453767010
NMEA,$GBGSV,5,1,17,07,53,108,,08,56,011,,09,12,168,,10,65,093,,1*7A,1772453767010
NMEA,$GBGSV,5,2,17,11,42,022,,12,23,082,,13,65,002,,14,70,166,,1*79,1772453767010
NMEA,$GBGSV,5,3,17,21,20,040,,23,18,269,,25,25,219,,33,46,196,,1*70,1772453767010
NMEA,$GBGSV,5,4,17,34,41,060,,38,41,023,,40,40,106,,42,67,071,,1*7C,1772453767010
NMEA,$GBGSV,5,5,17,43,36,344,,1*41,1772453767010
NMEA,$GBGSV,3,1,09,21,20,040,39,23,18,269,38,25,25,219,42,33,46,196,50,3*7B,1772453767010
NMEA,$GBGSV,3,2,09,34,41,060,42,38,41,023,48,40,40,106,44,42,67,071,51,3*7F,1772453767010
NMEA,$GBGSV,3,3,09,43,36,344,51,3*48,1772453767010
NMEA,$GNGSA,A,3,05,11,12,13,15,18,21,23,24,25,29,,0.7,0.4,0.6,1*35,1772453767016
NMEA,$GNGSA,A,3,67,68,69,73,80,82,83,,,,,,0.7,0.4,0.6,2*3A,1772453767016
NMEA,$GNGSA,A,3,07,08,13,15,21,26,27,30,,,,,0.7,0.4,0.6,3*3E,1772453767016
NMEA,$GNGSA,A,3,21,23,25,33,34,38,40,42,43,,,,0.7,0.4,0.6,4*3D,1772453767016
NMEA,$GNGSA,A,3,02,03,,,,,,,,,,,0.7,0.4,0.6,5*31,1772453767016
NMEA,$GNVTG,,T,,M,0.0,N,0.0,K,A*3D,1772453767016
NMEA,$GNDTM,W84,,0000.000000,N,00000.000000,E,0.000,W84*41,1772453767016
NMEA,$GNRMC,121607.00,A,1304.092020,N,07735.505605,E,0.0,,020326,1.1,W,A,V*61,1772453767016
NMEA,$GNGNS,121607.00,1304.092020,N,07735.505605,E,AAAAAN,37,0.4,962.6,-85.8,,,V*07,1772453767016
NMEA,$GNGGA,121607.00,1304.092020,N,07735.505605,E,1,12,0.4,962.6,M,-85.8,M,,*5F,1772453767016
NMEA,$GPGSV,4,1,14,05,42,020,43,11,11,060,42,12,40,185,49,13,35,099,42,1*66,1772453768009
NMEA,$GPGSV,4,2,14,15,55,143,44,18,18,299,39,20,00,000,44,21,16,034,45,1*6D,1772453768009
NMEA,$GPGSV,4,3,14,23,31,235,45,24,10,172,34,25,50,244,52,29,45,346,51,1*6C,1772453768009
NMEA,$GPGSV,4,4,14,40,00,000,51,41,00,000,50,1*61,1772453768009
NMEA,$GLGSV,2,1,07,82,26,038,44,73,19,289,34,80,30,230,42,69,29,184,46,1*76,1772453768009
NMEA,$GLGSV,2,2,07,83,21,341,44,67,35,043,39,68,64,121,45,1*44,1772453768009
NMEA,$GAGSV,2,1,08,07,32,159,44,08,33,097,37,13,37,354,43,15,15,047,43,7*76,1772453768009
NMEA,$GAGSV,2,2,08,21,51,289,49,26,24,295,44,27,52,189,48,30,11,157,43,7*77,1772453768009
NMEA,$GQGSV,1,1,02,02,13,133,38,03,21,065,37,1*6A,1772453768009
NMEA,$GBGSV,5,1,17,07,53,108,,08,56,011,,09,12,168,,10,65,093,,1*7A,1772453768009
NMEA,$GBGSV,5,2,17,11,42,022,,12,23,082,,13,65,002,,14,70,166,,1*79,1772453768009
NMEA,$GBGSV,5,3,17,21,20,040,,23,18,269,,25,25,219,,33,46,196,,1*70,1772453768009
NMEA,$GBGSV,5,4,17,34,41,060,,38,41,023,,40,40,106,,42,67,071,,1*7C,1772453768009
NMEA,$GBGSV,5,5,17,43,36,344,,1*41,1772453768009
NMEA,$GBGSV,3,1,09,21,20,040,40,23,18,269,38,25,25,219,42,33,46,196,50,3*75,1772453768009
NMEA,$GBGSV,3,2,09,34,41,060,42,38,41,023,48,40,40,106,44,42,67,071,51,3*7F,1772453768009
NMEA,$GBGSV,3,3,09,43,36,344,51,3*48,1772453768009
NMEA,$GNGSA,A,3,05,11,12,13,15,18,21,23,24,25,29,,0.7,0.4,0.6,1*35,1772453768016
NMEA,$GNGSA,A,3,67,68,69,73,80,82,83,,,,,,0.7,0.4,0.6,2*3A,1772453768016
NMEA,$GNGSA,A,3,07,08,13,15,21,26,27,30,,,,,0.7,0.4,0.6,3*3E,1772453768016
NMEA,$GNGSA,A,3,21,23,25,33,34,38,40,42,43,,,,0.7,0.4,0.6,4*3D,1772453768016
NMEA,$GNGSA,A,3,02,03,,,,,,,,,,,0.7,0.4,0.6,5*31,1772453768016
NMEA,$GNVTG,,T,,M,0.0,N,0.0,K,A*3D,1772453768016
NMEA,$GNDTM,W84,,0000.000000,N,00000.000000,E,0.000,W84*41,1772453768016
NMEA,$GNRMC,121608.00,A,1304.092019,N,07735.505605,E,0.0,,020326,1.1,W,A,V*64,1772453768016
NMEA,$GNGNS,121608.00,1304.092019,N,07735.505605,E,AAAAAN,37,0.4,962.6,-85.8,,,V*02,1772453768016
NMEA,$GNGGA,121608.00,1304.092019,N,07735.505605,E,1,12,0.4,962.6,M,-85.8,M,,*5A,1772453768016
NMEA,$GPGSV,4,1,14,05,42,020,43,11,11,060,43,12,40,185,50,13,35,099,42,1*6F,1772453769010
NMEA,$GPGSV,4,2,14,15,55,143,44,18,18,299,39,20,00,000,44,21,16,034,44,1*6C,1772453769010
NMEA,$GPGSV,4,3,14,23,31,235,45,24,10,172,34,25,50,244,52,29,45,346,51,1*6C,1772453769010
NMEA,$GPGSV,4,4,14,40,00,000,51,41,00,000,50,1*61,1772453769010
