     4.01           OBSERVATION DATA    M                   RINEX VERSION / TYPE
GnssLogger          Sony 16             20260302 121558 UTC PGM / RUN BY / DATE
Google GnssLogger                                           MARKER NAME
Unknown                                                     MARKER NUMBER
Unknown             Unknown                                 OBSERVER / AGENCY
Unknown             GnssLogger          v3.1.1.2            REC # / TYPE / VERS
Unknown             Unknown                                 ANT # / TYPE
        0.0000        0.0000        0.0000                  ANTENNA: DELTA H/E/N
G    3 C1C D1C S1C                                          SYS / # / OBS TYPES
R    3 C1C D1C S1C                                          SYS / # / OBS TYPES
J    3 C1C D1C S1C                                          SYS / # / OBS TYPES
C    3 C1P D1P S1P                                          SYS / # / OBS TYPES
E    3 C1C D1C S1C                                          SYS / # / OBS TYPES
  2026    03    02    12    15   58.0000000     GPS         TIME OF FIRST OBS
 7 R03  5 R04  6 R05  1 R09 -2 R16 -1 R18 -3 R19  3         GLONASS SLOT / FRQ #
Sony XQ-GE54 (Android 16) HW Year: 2023 HW Model:           COMMENT
qcom;MPSS.DE.9.0.c2-00076.1-KAANAPALI_GEN_PACK-1.141244.8;  COMMENT
                                                            END OF HEADER
> 2026 03 02 12 15 58.4163370  0 37                      
G05  21845207.01126     -2733.11926        40.60026
G11  24713356.83326     -1240.71126        39.40026
G12  22295565.43527     -2974.62427        47.10027
G13  22025975.26826       726.68826        40.60026
G15  21016861.56326      1915.90526        40.50026
G18  24165255.27526       832.64126        38.80026
G21  24025808.31326     -3357.03526        40.60026
G23  22622955.58727      2028.66827        42.60027
G24  25106219.55925       456.58225        31.60025
G25  21375084.77028     -1300.91328        49.80028
G29  21734837.21928      2368.03328        47.90028
J02  37498092.24526      -394.44026        36.60026
J03  41641204.82725       996.41025        34.80025
R18  22038455.62826       330.98926        35.70026
R09  22592623.78625       125.48325        33.10025
R16  21706368.92726     -2600.52926        37.10026
R05  21754449.64126      3931.43626        37.70026
R19  22517724.53726      1192.91326        37.80026
R03  21325380.68025     -2539.17025        34.70025
R04  19518566.01226      1140.35226        37.80026
E07  25696414.67626      2116.12126        41.40026
E08  25598467.98326       650.21326        35.80026
E13  25334130.78026      -650.48726        40.60026
E15  27432055.31726      -983.61226        40.30026
E21  24603831.25627       357.36927        46.80027
E26  26358195.13527       115.22027        41.70027
E27  24613367.65427     -2084.26027        46.80027
E30  28044511.52226     -2881.62626        40.80026
C21  25339318.08926     -2818.66426        36.00026
C23  25425898.15126      -553.96826        39.10026
C25  24341688.83326     -1761.83526        39.40026
C33  23198402.71428      2435.31728        48.20028
C34  23052229.30726       -50.73926        39.10026
C38  37731191.07427     -1096.79527        45.00027
C40  37663722.78126       135.87326        41.40026
C42  22181177.22428      -625.84228        47.90028
C43  23573486.54828      1470.06128        49.40028
> 2026 03 02 12 15 59.4163370  0 37                      
G05  21845726.25226     -2733.31226        40.50026
G11  24713594.86826     -1240.62926        39.90026
G12  22296132.64227     -2974.83927        47.30027
G13  22025836.46426       726.18726        40.10026
G15  21016498.81426      1915.47226        40.30026
G18  24165098.18426       832.67926        38.60026
G21  24026445.67126     -3356.95526        40.40026
G23  22622567.35627      2028.25827        42.70027
G24  25106133.51925       456.97925        32.40025
G25  21375330.60028     -1301.38228        49.70028
G29  21734384.23228      2367.85128        48.00028
J02  37498167.79226      -394.54726        36.80026
J03  41641015.95825       996.61425        34.90025
R18  22038392.97226       331.07026        36.30026
R09  22592603.40025       124.86325        31.80025
R16  21706860.88726     -2600.69526        36.00026
R05  21753714.85026      3931.16726        38.00026
R19  22517503.59026      1193.10826        36.60026
R03  21325848.65625     -2539.80825        33.30025
R04  19518360.65426      1139.51826        37.40026
E07  25696012.95427      2116.04727        41.70027
E08  25598346.86726       649.87426        36.30026
E13  25334255.19426      -650.43426        40.40026
E15  27432242.98726      -983.43026        40.50026
E21  24603762.60327       356.91427        47.20027
E26  26358172.65027       115.15027        42.00027
E27  24613765.47827     -2084.56527        46.00027
E30  28045060.44226     -2881.56826        40.70026
C21  25339857.11626     -2818.86526        35.80026
C23  25426004.27726      -554.33926        38.10026
C25  24342023.70126     -1761.98026        40.10026
C33  23197939.53428      2434.96628        48.10028
C34  23052238.30126       -50.78426        39.30026
C38  37731399.72927     -1096.87527        45.40027
C40  37663698.19826       135.69826        41.40026
C42  22181296.54228      -626.47128        47.70028
C43  23573206.54228      1470.12728        49.20028
> 2026 03 02 12 16 00.4163370  0 37                      
G05  21846246.39227     -2735.07927        41.60027
G11  24713829.90526     -1242.06626        40.30026
G12  22296700.44928     -2976.58128        48.20028
G13  22025700.65826       724.22626        41.40026
G15  21016131.26926      1913.50426        40.80026
G18  24164936.89626       831.24726        38.90026
G21  24027083.03026     -3358.52926        41.40026
G23  22622182.72227      2026.30227        43.50027
G24  25106035.18725       455.79425        32.50025
G25  21375578.82828     -1303.34728        50.80028
G29  21733933.64428      2366.12228        48.90028
J02  37498244.53926      -396.21826        37.40026
J03  41640829.78726       995.16426        35.80026
R18  22038334.81226       329.52526        39.80026
R09  22592576.41826       122.59626        35.50026
R16  21707331.26126     -2602.57926        38.60026
R05  21752984.55627      3929.29127        42.00027
R19  22517288.03926      1191.74426        39.90026
R03  21326331.02226     -2542.08626        36.80026
R04  19518147.50127      1137.14927        41.60027
E07  25695610.63327      2114.35827        42.00027
E08  25598223.05326       647.83926        36.90026
E13  25334379.30827      -651.97327        41.50027
E15  27432430.95726      -984.95626        40.80026
E21  24603695.45027       354.83027        47.30027
E26  26358151.96527       113.53827        42.80027
E27  24614160.60527     -2086.46827        46.30027
E30  28045608.76327     -2883.16427        41.70027
C21  25340393.44426     -2820.83326        37.00026
C23  25426110.10426      -556.19526        39.20026
C25  24342363.06626     -1763.58626        40.70026
C33  23197475.75528      2432.99128        48.20028
C34  23052248.79426       -52.68026        39.50026
C38  37731609.28427     -1098.56827        46.10027
C40  37663672.71627       133.90827        41.90027
C42  22181416.15928      -628.64328        48.30028
C43  23572928.03528      1468.52128        49.40028
> 2026 03 02 12 16 01.4163370  0 37                      
G05  21846768.33126     -2736.77926        41.40026
G11  24714064.94226     -1243.50426        40.60026
G12  22297265.55828     -2978.25428        48.40028
G13  22025560.35526       722.24526        41.40026
G15  21015768.82026      1911.55626        41.30026
G18  24164782.20326       829.75026        39.80026
G21  24027724.88627     -3360.03327        41.70027
G23  22621798.68827      2024.42427        43.70027
G24  25105958.44025       454.62225        33.00025
G25  21375826.45728     -1305.31628        50.90028
G29  21733484.55528      2364.47928        49.10028
J02  37498320.38726      -397.83026        37.20026
J03  41640637.92026       993.71026        35.60026
R18  22038277.25226       328.06126        40.20026
R09  22592562.62826       120.42326        36.80026
R16  21707820.22226     -2604.36326        40.40026
R05  21752251.56327      3927.52827        42.90027
R19  22517069.19127      1190.45327        41.60027
R03  21326805.29426     -2544.30126        38.20026
R04  19517928.05327      1134.72627        42.40027
E07  25695208.91127      2112.95627        42.30027
E08  25598096.84026       646.10926        36.40026
E13  25334503.72227      -653.19627        41.90027
E15  27432617.72826      -986.19326        41.30026
E21  24603628.29627       353.02927        47.20027
E26  26358130.38027       112.15927        43.00027
E27  24614558.72927     -2088.11527        46.80027
E30  28046157.68327     -2884.45027        41.80027
C21  25340929.77326     -2822.36426        36.70026
C23  25426215.93126      -557.85626        39.70026
C25  24342696.43626     -1764.91326        40.50026
C33  23197014.07528      2431.23928        48.40028
C34  23052260.18626       -54.16326        40.50026
C38  37731817.34027     -1099.97027        46.60027
C40  37663647.23327       132.38827        42.10027
C42  22181535.77628      -630.55528        48.70028
C43  23572649.52828      1467.21428        49.60028
> 2026 03 02 12 16 02.4163370  0 37                      
G05  21847290.56927     -2736.13127        41.80027
G11  24714299.38026     -1242.53326        40.50026
G12  22297834.86428     -2977.62828        48.30028
G13  22025426.34827       722.62927        41.50027
G15  21015406.97026      1911.98826        41.20026
G18  24164623.31326       830.66126        39.60026
G21  24028361.34526     -3359.16226        41.40026
G23  22621413.15527      2024.86327        44.00027
G24  25105868.80225       455.84825        32.90025
G25  21376075.28528     -1304.93528        51.20028
G29  21733034.26728      2365.11028        49.20028
J02  37498395.63426      -397.10226        37.60026
J03  41640451.74926       994.67826        36.00026
R18  22038212.49726       328.93726        39.40026
R09  22592524.55426       120.58926        36.40026
R16  21708310.98326     -2603.82826        40.50026
R05  21751516.47227      3928.13127        42.10027
R19  22516841.64827      1191.52027        41.80027
R03  21327279.86526     -2544.07826        38.60026
R04  19517720.29727      1134.71627        41.80027
E07  25694806.58927      2113.91527        42.80027
E08  25597976.62326       646.74926        37.10026
E13  25334626.93627      -652.15027        41.80027
E15  27432805.99727      -985.09727        42.10027
E21  24603561.74228       353.47928        47.80028
E26  26358108.19527       113.09627        43.00027
E27  24614955.95427     -2087.49127        47.20027
E30  28046705.70327     -2883.50327        42.00027
C21  25341468.20026     -2821.81226        36.90026
C23  25426322.35726      -557.21426        39.60026
C25  24343033.70226     -1764.05326        40.90026
C33  23196550.59628      2431.80428        48.90028
C34  23052272.77726       -53.33626        40.20026
C38  37732027.79427     -1099.11027        46.30027
C40  37663620.85127       133.17527        43.10027
C42  22181656.29228      -630.23028        49.50028
C43  23572370.12128      1468.16328        50.40028
> 2026 03 02 12 16 03.4163370  0 37                      
G05  21847810.70927     -2738.07327        41.90027
G11  24714535.61726     -1244.13926        40.50026
G12  22298397.87428     -2979.53128        48.70028
G13  22025288.74327       720.44127        41.90027
G15  21015042.12326      1909.80626        41.40026
G18  24164465.62226       828.98526        39.40026
G21  24029001.40227     -3360.88427        41.60027
G23  22621026.12327      2022.72927        44.00027
G24  25105777.96525       454.42125        33.00025
G25  21376324.41228     -1307.06228        51.10028
G29  21732582.78028      2363.24128        49.30028
J02  37498472.08226      -398.96026        37.70026
J03  41640261.98026       993.07626        36.20026
R18  22038150.14026       327.26026        40.80026
R09  22592517.05926       118.25526        36.40026
R16  21708796.34726     -2605.78926        39.30026
R05  21750780.48227      3926.15827        42.90027
R19  22516618.60326      1190.03026        40.90026
R03  21327759.23326     -2546.50526        37.00026
R04  19517507.14527      1132.14127        42.40027
E07  25694404.26827      2112.10627        42.30027
E08  25597850.71026       644.64026        37.60026
E13  25334752.54927      -653.80727        42.00027
E15  27432993.06826      -986.73326        41.40026
E21  24603493.68928       351.29628        47.70028
E26  26358086.91027       111.37827        43.10027
E27  24615354.07927     -2089.50027        46.70027
E30  28047255.22327     -2885.21527        41.80027
C21  25342004.52926     -2823.97326        36.90026
C23  25426424.58626      -559.27226        39.40026
C25  24343369.47026     -1765.71226        40.50026
C33  23196088.31628      2429.70728        48.40028
C34  23052281.47126       -55.34226        40.50026
C38  37732237.64927     -1100.86027        46.40027
C40  37663596.26827       131.33527        42.70027
C42  22181776.20928      -632.52728        48.50028
C43  23572090.11528      1466.46028        50.40028
> 2026 03 02 12 16 04.4163370  0 37                      
G05  21848327.25126     -2740.71726        40.00026
G11  24714775.75026     -1246.51026        38.80026
G12  22298965.38127     -2982.20327        46.60027
G13  22025151.13926       717.53026        40.00026
G15  21014677.57526      1906.95926        39.90026
G18  24164305.53326       826.62626        37.70026
G21  24029644.75726     -3363.30226        40.20026
G23  22620641.48927      2019.89027        42.40027
G24  25105694.62325       452.37525        31.60025
G25  21376573.54028     -1309.99528        49.30028
G29  21732134.29028      2360.58828        47.50028
J02  37498544.63126      -401.54626        36.40026
J03  41640071.61225       990.63425        34.20025
R18  22038082.08726       324.99526        36.90026
R09  22592484.68225       115.19025        33.40025
R16  21709295.50125     -2608.48525        35.30025
R05  21750050.78726      3923.61026        38.50026
R19  22516411.14726      1187.88726        36.70026
R03  21328256.28925     -2549.51925        32.20025
R04  19517293.09326      1128.97426        37.20026
E07  25694003.14526      2109.63326        41.00026
E08  25597731.09325       641.95125        35.20025
E13  25334877.26326      -656.05726        40.60026
E15  27433179.83826      -988.93726        40.20026
E21  24603426.83627       348.42427        45.80027
E26  26358067.42326       108.88226        40.70026
E27  24615750.70427     -2092.17827        44.90027
E30  28047805.04226     -2887.60726        40.00026
C21  25342542.65626     -2826.66026        35.50026
C23  25426533.11126      -561.99126        38.00026
C25  24343705.23726     -1768.16126        38.70026
C33  23195626.03627      2426.93427        46.70027
C34  23052288.06726       -57.85926        38.50026
C38  37732446.60427     -1103.36827        44.70027
C40  37663571.38627       128.72327        41.50027
C42  22181896.42627      -635.52727        47.40027
C43  23571811.90828      1464.10728        48.40028
> 2026 03 02 12 16 05.4163370  0 37                      
G05  21848849.79027     -2743.02327        41.60027
G11  24715011.68726     -1248.53326        40.60026
G12  22299534.08728     -2984.48528        48.40028
G13  22025016.23227       714.97527        41.70027
G15  21014318.72327      1904.45027        41.50027
G18  24164146.04326       824.50626        39.40026
G21  24030283.01527     -3365.40327        41.90027
G23  22620258.35527      2017.41227        44.10027
G24  25105609.78225       450.55125        33.50025
G25  21376822.66728     -1312.51828        51.00028
G29  21731687.00028      2358.33928        49.30028
J02  37498626.47526      -403.71426        37.60026
J03  41639883.94226       988.66826        36.10026
R18  22038026.92526       322.71326        40.00026
R09  22592481.08426       112.38926        37.70026
R16  21709774.27026     -2611.08226        40.70026
R05  21749308.80027      3921.10327        42.30027
R19  22516174.01127      1185.76327        42.10027
R03  21328714.67226     -2552.48626        38.10026
R04  19517085.93627      1125.88727        41.50027
E07  25693600.52427      2107.51027        42.70027
E08  25597610.87626       639.59026        36.70026
E13  25335001.97727      -658.04627        41.80027
E15  27433369.90727      -990.87427        41.60027
E21  24603361.18127       345.92127        47.30027
E26  26358047.33727       106.78927        42.30027
E27  24616150.32727     -2094.51427        46.90027
E30  28048355.46127     -2889.56527        42.30027
C21  25343080.48426     -2828.92926        37.10026
C23  25426640.13726      -564.28326        39.40026
C25  24344044.30226     -1770.27526        40.20026
C33  23195164.65528      2424.48628        48.40028
C34  23052305.15526       -60.01526        40.20026
C38  37732656.15927     -1105.46327        46.10027
C40  37663547.70227       126.52127        42.60027
C42  22182018.44228      -638.15728        48.50028
C43  23571532.80128      1462.12228        49.60028
> 2026 03 02 12 16 06.4163370  0 37                      
G05  21849374.72627     -2744.50027        42.20027
G11  24715247.62426     -1249.68226        41.40026
G12  22300103.99328     -2985.96328        49.40028
G13  22024878.62727       713.20327        42.80027
G15  21013953.87627      1902.73627        42.00027
G18  24163991.95026       823.39426        39.30026
G21  24030921.27327     -3366.60427        42.70027
G23  22619872.52227      2015.71627        44.90027
G24  25105528.83825       449.85925        33.70025
G25  21377073.59328     -1314.20928        51.80028
G29  21731236.41228      2356.90728        50.20028
J02  37498700.22426      -405.05926        38.10026
J03  41639694.77326       987.55326        36.80026
R18  22037965.76726       321.57426        41.20026
R09  22592444.51026       110.56026        38.20026
R16  21710260.83327     -2612.51127        41.60027
R05  21748573.41027      3919.60727        43.90027
R19  22515953.96327      1184.77827        43.20027
R03  21329187.74426     -2554.41226        40.00026
R04  19516876.98127      1123.78927        43.70027
E07  25693202.10027      2106.19227        43.70027
E08  25597488.86126       637.94726        37.40026
E13  25335127.59027      -659.19827        42.60027
E15  27433560.27527      -991.92927        42.80027
E21  24603296.42628       344.22228        48.50028
E26  26358025.15227       105.52827        44.00027
E27  24616548.75228     -2096.07028        47.60028
E30  28048904.08127     -2890.84527        43.00027
C21  25343621.01026     -2830.43726        37.70026
C23  25426748.66226      -565.88026        40.20026
C25  24344378.57126     -1771.51226        41.40026
C33  23194704.17428      2422.87228        49.60028
C34  23052316.24726       -61.43926        40.50026
C38  37732868.41228     -1106.73628        47.60028
C40  37663524.61827       125.15527        43.40027
C42  22182139.25828      -639.95028        49.90028
C43  23571255.79328      1460.86528        50.80028
> 2026 03 02 12 16 07.4163370  0 37                      
G05  21849897.26427     -2746.27327        42.80027
G11  24715486.55827     -1251.18227        41.60027
G12  22300672.10028     -2987.74228        49.30028
G13  22024741.92227       711.15327        42.50027
G15  21013595.32427      1900.69327        42.20027
G18  24163835.15926       821.80326        39.40026
G21  24031562.52927     -3368.18427        42.80027
G23  22619492.38527      2013.72327        45.00027
G24  25105438.00125       448.58825        34.10025
G25  21377323.02128     -1316.27428        52.30028
G29  21730790.02128      2355.12928        50.10028
J02  37498777.57026      -406.83326        38.30026
J03  41639510.70026       986.05926        36.80026
R18  22037907.00827       320.01127        42.50027
R09  22592431.01926       108.24726        38.70026
R16  21710760.88726     -2614.48326        41.30026
R05  21747847.61227      3917.72927        45.30027
R19  22515732.71627      1183.33827        43.90027
R03  21329664.41426     -2556.74526        39.90026
R04  19516671.02327      1121.39427        44.90027
E07  25692800.37827      2104.60527        43.60027
E08  25597369.54326       635.92026        37.60026
E13  25335251.40427      -660.75127        42.60027
E15  27433747.04627      -993.45027        41.90027
E21  24603231.37128       342.10628        48.50028
E26  26358006.26627       103.95127        44.10027
E27  24616948.07528     -2097.98828        47.60028
E30  28049455.69927     -2892.41127        42.90027
C21  25344156.13926     -2832.49126        38.30026
C23  25426854.48926      -567.84926        39.70026
C25  24344714.93826     -1773.11726        41.10026
C33  23194243.69328      2420.87328        49.40028
C34  23052326.74026       -63.30726        40.90026
C38  37733078.56727     -1108.46927        47.30027
C40  37663500.33527       123.31927        43.30027
C42  22182262.17328      -642.18728        50.00028
C43  23570977.88528      1459.25528        50.60028
> 2026 03 02 12 16 08.4163370  0 37                      
G05  21850420.10327     -2747.09727        43.00027
G11  24715723.99427     -1251.71927        41.80027
G12  22301240.50628     -2988.55928        49.50028
G13  22024606.41627       710.04627        42.80027
G15  21013229.87727      1899.67227        42.40027
G18  24163680.16626       821.25126        39.50026
G21  24032203.78527     -3368.78327        43.00027
G23  22619105.05327      2012.72427        45.20027
G24  25105351.66025       448.31725        34.20025
G25  21377573.64728     -1317.32728        52.10028
G29  21730340.33228      2354.34128        50.60028
J02  37498852.81826      -407.56926        38.10026
J03  41639319.43326       985.51026        37.10026
R18  22037845.85027       319.44627        43.10027
R09  22592410.03426       107.05126        39.80026
R16  21711245.35127     -2615.38227        42.70027
R05  21747117.01827      3916.83927        45.80027
R19  22515511.17027      1182.97027        45.00027
R03  21330140.48526     -2558.02826        40.50026
R04  19516459.67027      1119.92127        45.30027
E07  25692400.45527      2103.95327        43.50027
E08  25597246.02926       635.12726        38.30026
E13  25335378.21627      -661.19427        43.30027
E15  27433937.41427      -993.86527        42.80027
E21  24603165.71628       341.11728        48.60028
E26  26357986.77927       103.32527        43.70027
E27  24617346.19928     -2098.82528        48.20028
E30  28050005.81927     -2892.95127        42.60027
C21  25344700.56326     -2833.20426        38.90026
C23  25426966.31126      -568.60826        40.10026
C25  24345053.10426     -1773.70126        41.30026
C33  23193782.91228      2419.96828        50.00028
C34  23052340.53026       -63.94326        41.00026
C38  37733288.12228     -1109.05428        48.20028
C40  37663477.25127       122.60127        43.60027
C42  22182384.48828      -643.30128        50.50028
C43  23570699.97828      1458.74028        51.00028
> 2026 03 02 12 16 09.4163370  0 37                      
G05  21850942.34127     -2748.56327        42.80027
G11  24715959.63126     -1252.87526        41.40026
G12  22301808.91328     -2989.99828        49.60028
G13  22024472.70827       708.31327        43.00027
G15  21012870.42627      1897.99727        42.00027
G18  24163526.07326       820.06226        39.40026
G21  24032844.14227     -3370.00427        43.40027
G23  22618724.31727      2011.06127        44.90027
G24  25105270.71625       447.37725        34.20025
G25  21377824.27428     -1319.01528        52.60028
G29  21729893.64128      2352.92428        50.60028
J02  37498929.26526      -408.88926        38.10026
J03  41639132.66226       984.40726        37.00026
R18  22037789.19027       318.25127        42.10027
R09  22592386.95026       105.16426        39.70026
R16  21711730.41527     -2616.92627        42.70027
R05  21746378.32927      3915.31527        44.70027
R19  22515286.02527      1181.94227        45.10027
R03  21330624.35026     -2559.95726        41.10026
R04  19516245.01827      1117.82627        44.30027
E07  25691999.93227      2102.75327        43.80027
E08  25597124.91326       633.59226        38.00026
E13  25335504.42927      -662.16027        43.10027
E15  27434126.28327      -994.87627        42.80027
E21  24603100.66128       339.56428        48.30028
E26  26357966.39327       102.17027        44.10027
E27  24617746.72228     -2100.21928        47.70028
E30  28050557.13727     -2894.00927        42.80027
C21  25345238.99026     -2834.61326        38.70026
C23  25427070.03926      -570.09826        39.90026
C25  24345390.67026     -1774.83426        41.30026
C33  23193322.13128      2418.49628        49.30028
C34  23052350.72326       -65.24426        41.20026
C38  37733500.97427     -1110.18327        47.40027
C40  37663453.56727       121.35627        43.90027
C42  22182506.50428      -644.95328        49.70028
C43  23570422.67028      1457.66728        51.00028
> 2026 03 02 12 16 10.4163370  0 37                      
G05  21851468.47727     -2750.73127        42.80027
G11  24716201.26427     -1254.71427        41.50027
G12  22302378.81828     -2992.16328        49.40028
G13  22024338.10227       705.90227        42.80027
G15  21012509.77627      1895.57927        42.50027
G18  24163368.98126       818.14326        39.20026
G21  24033491.39427     -3371.97227        43.20027
G23  22618343.58027      2008.72327        44.90027
G24  25105180.77925       445.85025        34.30025
G25  21378073.40128     -1321.44728        52.80028
G29  21729446.05128      2350.79128        50.40028
J02  37499009.90926      -411.03726        38.30026
J03  41638946.19126       982.51426        37.30026
R18  22037723.53527       316.27327        42.20027
R09  22592371.96026       102.52526        38.90026
R16  21712222.97427     -2619.23327        41.80027
R05  21745650.13327      3913.08027        45.10027
R19  22515068.07627      1180.12027        44.20027
R03  21331096.22326     -2562.64726        40.60026
R04  19516042.35927      1114.90127        44.50027
E07  25691598.81027      2100.76027        43.30027
E08  25597003.79726       631.33426        37.60026
E13  25335630.04227      -664.04127        42.80027
E15  27434316.35227      -996.61827        43.00027
E21  24603037.10528       337.15728        48.30028
E26  26357946.00727       100.23127        44.10027
E27  24618146.64528     -2102.48528        47.80028
E30  28051107.25627     -2895.93127        42.70027
C21  25345778.01726     -2836.90126        39.00026
C23  25427178.56426      -572.25526        39.70026
C25  24345727.03726     -1776.74426        41.00026
C33  23192861.05028      2416.16028        49.40028
C34  23052365.71327       -67.41827        41.70027
C38  37733711.42927     -1112.22727        47.10027
C40  37663431.68227       119.28427        44.30027
C42  22182628.81928      -647.50428        50.00028
C43  23570145.96128      1455.76228        50.80028
> 2026 03 02 12 16 11.4163370  0 37                      
G05  21851987.41827     -2751.39227        42.70027
G11  24716442.29727     -1255.13427        41.60027
G12  22302948.12428     -2992.79928        49.80028
G13  22024202.89527       704.99127        42.60027
G15  21012149.42527      1894.72127        42.50027
G18  24163212.78926       817.71226        39.00026
G21  24034128.75227     -3372.43027        43.30027
G23  22617960.44527      2007.90827        45.20027
G24  25105096.23725       445.67125        33.90025
G25  21378324.02828     -1322.35128        52.70028
G29  21728998.16128      2350.19028        50.40028
J02  37499086.05726      -411.58726        38.40026
J03  41638757.32226       982.12326        36.90026
R18  22037668.67327       315.91127        43.60027
R09  22592343.77926       101.45626        39.40026
R16  21712717.93227     -2619.93727        42.30027
R05  21744915.04227      3912.40627        46.00027
R19  22514851.02727      1179.89627        44.70027
R03  21331585.18426     -2563.79126        40.50026
R04  19515832.20427      1113.59427        45.70027
E07  25691199.48627      2100.59227        42.60027
E08  25596884.17926       630.89026        37.30026
E13  25335756.25527      -663.96927        42.30027
E15  27434505.82027      -996.55627        42.50027
E21  24602972.65028       336.65028        48.30028
E26  26357928.32027       100.04927        43.60027
E27  24618546.86827     -2102.81927        47.30027
E30  28051656.17627     -2895.95927        42.30027
C21  25346317.04326     -2837.15226        38.40026
C23  25427287.38926      -572.63626        39.00026
C25  24346066.70226     -1776.85326        40.70026
C33  23192402.36828      2415.73928        49.20028
C34  23052376.50526       -67.69226        40.70026
C38  37733923.98227     -1112.31127        46.80027
C40  37663407.99927       119.12527        43.40027
C42  22182754.13228      -648.09128        49.80028
C43  23569868.95328      1455.73228        50.70028
> 2026 03 02 12 16 12.4163370  0 37                      
G05  21852512.05427     -2750.99227        43.00027
G11  24716679.13326     -1254.36026        41.30026
G12  22303517.73028     -2992.40828        49.70028
G13  22024067.08927       705.12427        42.20027
G15  21011789.37527      1894.91727        42.80027
G18  24163058.99626       818.46526        39.30026
G21  24034773.00627     -3371.73127        43.10027
G23  22617577.31127      2008.07027        44.90027
G24  25105013.19525       446.73825        33.80025
G25  21378577.95228     -1322.18728        52.30028
G29  21728549.67228      2350.60428        50.50028
J02  37499166.40126      -411.06826        38.00026
J03  41638571.75026       982.88126        37.30026
R18  22037611.11327       316.57227        42.80027
R09  22592328.19026       101.38226        39.50026
R16  21713197.00027     -2619.62327        42.60027
R05  21744180.55127      3912.80627        45.50027
R19  22514624.38327      1180.73927        45.20027
R03  21332063.95326     -2563.77926        41.30026
R04  19515625.04827      1113.51827        45.50027
E07  25690798.96427      2100.82727        43.80027
E08  25596763.66326       630.74726        37.70026
E13  25335882.46727      -663.72227        43.00027
E15  27434695.58927      -996.22527        43.10027
E21  24602908.19528       336.36528        49.10028
E26  26357907.93427       100.30027        43.90027
E27  24618946.49228     -2102.91328        48.20028
E30  28052207.49427     -2895.70827        43.10027
C21  25346855.77026     -2837.36226        38.90026
C23  25427394.11526      -572.80826        39.60026
C25  24346403.66927     -1776.68627        41.50027
C33  23191942.18628      2415.55828        50.30028
C34  23052388.49726       -67.53626        41.40026
C38  37734134.13628     -1112.20428        47.60028
C40  37663384.91527       119.06227        44.20027
C42  22182876.44828      -648.53528        50.40028
C43  23569590.44628      1455.97528        50.60028
> 2026 03 02 12 16 13.4163370  0 37                      
G05  21853035.19227     -2754.03427        42.80027
G11  24716916.26927     -1257.16927        42.10027
G12  22304086.13628     -2995.42428        49.80028
G13  22023934.88127       701.81027        42.70027
G15  21011426.62627      1891.63427        42.50027
G18  24162902.20426       815.62226        39.60026
G21  24035411.56427     -3374.63327        43.10027
G23  22617194.17627      2004.82727        45.10027
G24  25104925.95525       444.19625        34.30025
G25  21378828.57928     -1325.46728        52.80028
G29  21728104.78028      2347.58428        50.70028
J02  37499244.94726      -414.05426        38.30026
J03  41638380.48326       980.05226        37.30026
R18  22037546.95727       313.75927        42.10027
R09  22592313.80026        97.87126        38.80026
R16  21713689.85927     -2622.78827        42.80027
R05  21743452.65527      3909.68427        44.80027
R19  22514404.03627      1178.10827        45.10027
R03  21332542.72226     -2567.39826        40.90026
R04  19515413.69427      1109.73527        44.80027
E07  25690399.94027      2098.03627        43.30027
E08  25596642.54726       627.67426        37.40026
E13  25336008.08027      -666.40327        42.50027
E15  27434885.35827      -998.88127        43.40027
E21  24602844.33928       333.12528        49.10028
E26  26357887.84827        97.54727        43.40027
E27  24619345.81528     -2105.99328        47.70028
E30  28052760.01227     -2898.44227        43.10027
C21  25347397.79526     -2840.46526        39.40026
C23  25427503.83926      -575.87126        38.90026
C25  24346741.83526     -1779.52526        40.80026
C33  23191483.50428      2412.40428        49.40028
C34  23052400.78927       -70.61027        41.60027
C38  37734346.38927     -1115.06327        47.10027
C40  37663363.92927       116.14027        43.70027
C42  22182999.66228      -651.89628        50.10028
C43  23569314.33728      1453.16928        50.90028
> 2026 03 02 12 16 14.4163370  0 37                      
G05  21853559.22927     -2755.13827        42.80027
G11  24717156.10227     -1257.92027        41.50027
G12  22304659.03928     -2996.52928        49.80028
G13  22023802.07327       700.44627        42.50027
G15  21011068.37427      1890.30827        42.60027
G18  24162750.50926       814.78426        39.40026
G21  24036056.41827     -3375.45827        43.50027
G23  22616815.23827      2003.52227        45.00027
G24  25104843.21225       443.61825        34.00025
G25  21379083.10228     -1326.81228        52.50028
G29  21727657.48928      2346.51328        50.50028
J02  37499322.59326      -415.06826        38.30026
J03  41638200.00826       979.42526        37.60026
R18  22037493.59427       312.88527        42.50027
R09  22592291.61626        96.34726        37.50026
R16  21714182.11826     -2624.02726        41.30026
R05  21742722.36027      3908.47327        45.00027
R19  22514185.18827      1177.35127        43.50027
R03  21333022.39026     -2569.04326        39.00026
R04  19515208.63627      1107.94827        44.60027
E07  25690001.81527      2097.31427        43.50027
E08  25596522.63026       626.60026        37.30026
E13  25336135.49227      -666.97427        43.10027
E15  27435075.72627      -999.42427        42.90027
E21  24602781.98228       331.97428        49.00028
E26  26357870.46027        96.90727        43.70027
E27  24619747.83728     -2106.95728        48.30028
E30  28053311.93027     -2899.14627        42.40027
C21  25347940.12026     -2841.41226        39.50026
C23  25427612.06426      -576.82926        39.10026
C25  24347080.60027     -1780.13627        41.50027
C33  23191024.22228      2411.35628        49.40028
C34  23052417.57726       -71.38126        41.40026
C38  37734560.14128     -1115.81328        47.50028
C40  37663339.94627       115.27227        43.80027
C42  22183125.57528      -653.15228        49.90028
C43  23569038.22828      1452.57228        51.10028
> 2026 03 02 12 16 15.4163370  0 37                      
G05  21854082.66727     -2758.22827        43.00027
G11  24717396.23627     -1260.69927        42.20027
G12  22305229.24528     -2999.62328        49.60028
G13  22023665.96727       697.08327        42.60027
G15  21010710.42127      1887.03427        43.00027
G18  24162591.02026       812.03426        39.10026
G21  24036699.17327     -3378.28527        44.00027
G23  22616431.50427      2000.24927        45.30027
G24  25104761.36925       441.17425        34.10025
G25  21379333.42928     -1330.13828        53.30028
G29  21727210.79928      2343.45828        50.70028
J02  37499403.23726      -418.02926        38.40026
J03  41638015.93526       976.62626        38.10026
R18  22037433.93627       310.09727        43.40027
R09  22592272.12926        92.82926        38.70026
R16  21714679.17427     -2627.19727        41.90027
R05  21741991.46627      3905.34127        45.70027
R19  22513964.54027      1174.70027        44.30027
R03  21333490.66526     -2572.59226        38.90026
R04  19515014.37027      1104.27527        45.00027
E07  25689602.49227      2094.28727        43.20027
E08  25596406.61026       623.31626        37.30026
E13  25336262.30427      -669.80227        42.70027
E15  27435265.79427     -1002.22427        42.40027
E21  24602719.32528       328.58528        48.80028
E26  26357852.17227        93.84727        43.40027
E27  24620149.85928     -2110.17428        48.10028
E30  28053864.14827     -2902.01727        42.80027
C21  25348481.24526     -2844.66026        38.90026
C23  25427721.18926      -580.08326        39.00026
C25  24347420.26526     -1783.16726        40.90026
C33  23190566.13928      2408.02928        49.50028
C34  23052431.06827       -74.46027        41.50027
C38  37734771.79527     -1118.78927        47.20027
C40  37663318.96027       112.20627        43.90027
C42  22183249.39028      -656.66128        50.40028
C43  23568762.71928      1449.65428        51.20028
> 2026 03 02 12 16 16.4163370  0 37                      
G05  21854612.40027     -2761.33327        43.30027
G11  24717634.57127     -1263.48227        41.70027
G12  22305799.15028     -3002.69628        49.70028
G13  22023536.75627       693.72527        42.50027
G15  21010349.17227      1883.67727        42.90027
G18  24162431.83026       809.23226        39.20026
G21  24037342.52827     -3381.13527        44.00027
G23  22616051.66727      1996.95827        45.00027
G24  25104678.32625       438.67425        34.30025
G25  21379588.85228     -1333.45428        52.40028
G29  21726763.80828      2340.39928        50.70028
J02  37499484.48126      -421.03526        38.50026
J03  41637824.66726       973.79426        37.40026
R18  22037377.87427       307.17527        42.90027
R09  22592259.23826        89.29126        39.20026
R16  21715173.53227     -2630.36327        43.10027
R05  21741262.07127      3902.18427        45.30027
R19  22513751.68827      1171.97827        45.10027
R03  21333981.12626     -2576.21926        40.80026
R04  19514800.31827      1100.46427        44.70027
E07  25689203.46827      2091.33627        42.70027
E08  25596286.39326       620.02326        37.40026
E13  25336390.91527      -672.62027        42.70027
E15  27435457.66127     -1005.03427        42.90027
E21  24602657.26828       325.20928        49.00028
E26  26357835.38427        90.90327        43.20027
E27  24620552.18028     -2113.38028        48.00028
E30  28054415.16627     -2904.88927        42.30027
C21  25349021.17126     -2847.85926        39.70026
C23  25427834.81026      -583.36926        38.90026
C25  24347758.43126     -1786.11626        41.10026
C33  23190108.05628      2404.74428        49.50028
C34  23052447.25626       -77.60726        41.30026
C38  37734985.54727     -1121.78527        47.10027
C40  37663298.27527       109.07727        43.40027
C42  22183375.30228      -660.14528        50.40028
C43  23568486.61028      1446.76628        51.10028
> 2026 03 02 12 16 17.4163370  0 37                      
G05  21855134.33927     -2763.60727        43.00027
G11  24717879.50227     -1265.42727        42.30027
G12  22306371.75428     -3004.97028        49.80028
G13  22023403.34927       691.17227        42.80027
G15  21009992.71827      1881.21427        43.30027
G18  24162281.63426       807.15026        39.00026
G21  24037985.88227     -3383.21427        44.00027
G23  22615672.42927      1994.46627        45.00027
G24  25104594.38525       436.97325        33.90025
G25  21379841.27728     -1335.97828        53.40028
G29  21726321.91428      2338.15528        50.80028
J02  37499560.92826      -423.21926        38.70026
J03  41637639.39626       971.79026        37.30026
R18  22037320.31427       305.10227        42.80027
R09  22592234.65526        86.51726        37.80026
R16  21715662.79327     -2632.73727        43.00027
R05  21740531.77727      3899.80627        45.20027
R19  22513528.34227      1170.08227        44.50027
R03  21334456.89626     -2579.03026        40.70026
R04  19514591.06327      1097.54327        44.50027
E07  25688805.94327      2089.22527        43.50027
E08  25596167.97526       617.66426        36.70026
E13  25336518.92727      -674.60227        43.00027
E15  27435648.92927     -1006.94927        42.70027
E21  24602595.21128       322.66528        48.60028
E26  26357816.79727        88.86127        43.60027
E27  24620953.90228     -2115.73428        47.60028
E30  28054968.58327     -2906.92027        42.40027
C21  25349562.29726     -2850.23526        39.60026
C23  25427942.73526      -585.66626        39.10026
C25  24348099.59526     -1788.18026        41.00026
C33  23189650.27328      2402.31628        49.80028
C34  23052460.14827       -79.80727        41.70027
C38  37735198.69928     -1123.90128        47.50028
C40  37663278.78827       106.87527        43.90027
C42  22183501.21528      -662.78128        50.20028
C43  23568211.70028      1444.74228        50.90028
> 2026 03 02 12 16 18.4163370  0 37                      
G05  21855660.17527     -2766.23727        43.00027
G11  24718118.13627     -1267.81427        42.40027
G12  22306941.65928     -3007.60428        49.80028
G13  22023275.33727       688.28727        42.70027
G15  21009635.66527      1878.33327        43.40027
G18  24162128.74026       804.79426        39.00026
G21  24038626.53927     -3385.64227        43.80027
G23  22615294.69127      1991.63927        45.00027
G24  25104507.44525       434.95325        33.90025
G25  21380096.70128     -1338.86828        52.80028
G29  21725876.12328      2335.54728        50.60028
J02  37499643.07126      -425.76526        38.20026
J03  41637453.22526       969.52526        37.40026
R18  22037259.45627       302.69727        43.60027
R09  22592223.56326        83.43426        37.30026
R16  21716163.74627     -2635.48327        42.20027
R05  21739795.18727      3897.04627        46.10027
R19  22513309.79427      1167.82927        44.00027
R03  21334939.86226     -2582.22726        39.60026
R04  19514388.40427      1094.28527        45.30027
E07  25688408.41927      2086.92827        43.10027
E08  25596050.45726       615.01326        37.20026
E13  25336647.53727      -676.76027        42.70027
E15  27435841.09627     -1009.08727        42.90027
E21  24602533.75428       319.96928        48.70028
E26  26357800.30827        86.59127        43.40027
E27  24621356.52328     -2118.31828        47.90028
E30  28055522.30027     -2909.16427        42.60027
C21  25350106.12026     -2852.75926        39.60026
C23  25428054.85826      -588.25426        38.70026
C25  24348437.76126     -1790.53926        41.20026
C33  23189194.28828      2399.67428        49.60028
C34  23052475.43727       -82.22227        42.00027
C38  37735413.05128     -1126.23728        47.80028
C40  37663256.90327       104.45627        43.70027
C42  22183627.72828      -665.64228        50.50028
C43  23567937.09028      1442.50728        50.90028
> 2026 03 02 12 16 19.4163370  0 37                      
G05  21856189.30927     -2768.74127        42.90027
G11  24718360.66927     -1270.01427        42.10027
G12  22307516.36128     -3010.11528        49.80028
G13  22023142.82927       685.51227        42.70027
G15  21009278.31327      1875.57527        43.00027
G18  24161974.94626       802.55926        39.10026
G21  24039273.49127     -3387.90227        44.40027
G23  22614917.55227      1988.92127        45.10027
G24  25104422.60325       432.96025        34.00025
G25  21380351.82428     -1341.62528        52.10028
G29  21725431.53028      2333.04728        50.60028
J02  37499722.51626      -428.15726        38.50026
J03  41637272.15026       967.29726        37.20026
R18  22037207.59227       300.41827        43.60027
R09  22592211.87126        80.42126        38.30026
R16  21716647.91127     -2638.08927        42.80027
R05  21739072.68727      3894.49627        46.20027
R19  22513091.54527      1165.69027        45.00027
R03  21335424.32726     -2585.11426        40.40026
R04  19514185.74427      1091.10527        45.30027
E07  25688011.49327      2084.48927        42.80027
E08  25595935.03626       612.40226        37.00026
E13  25336776.14827      -678.98927        43.30027
E15  27436032.96327     -1011.24727        42.70027
E21  24602473.79528       317.16128        48.80028
E26  26357784.41927        84.20127        43.20027
E27  24621760.04428     -2120.91528        47.80028
E30  28056077.21627     -2911.44827        42.60027
C21  25350647.54526     -2855.41326        40.00026
C23  25428167.87926      -590.75126        38.80026
C25  24348780.72326     -1792.76826        40.70026
C33  23188737.40528      2396.96728        49.60028
C34  23052490.12727       -84.72327        42.00027
C38  37735628.60227     -1128.60927        47.00027
C40  37663237.71727       101.97227        43.90027
C42  22183755.43928      -668.54928        50.40028
C43  23567662.78028      1440.18828        50.90028
> 2026 03 02 12 16 20.4163370  0 37                      
G05  21856716.94327     -2771.16427        42.80027
G11  24718602.90127     -1272.13327        41.80027
G12  22308088.96528     -3012.56428        50.00028
G13  22023014.21827       682.78327        42.40027
G15  21008924.55827      1872.93127        43.20027
G18  24161822.05226       800.36326        38.70026
G21  24039919.54427     -3390.15327        44.20027
G23  22614538.01527      1986.29327        45.00027
G24  25104349.75425       431.04725        34.80025
G25  21380608.74628     -1344.30528        52.70028
G29  21724986.93828      2330.62328        50.50028
J02  37499805.55826      -430.58326        38.50026
J03  41637086.27926       965.11026        36.90026
R18  22037154.52927       298.22727        43.00027
R09  22592188.18726        77.59026        37.70026
R16  21717144.96727     -2640.64427        42.90027
R05  21738341.79327      3891.93227        45.70027
R19  22512871.79727      1163.60627        45.30027
R03  21335908.19226     -2588.21326        41.10026
R04  19513984.58327      1087.95327        44.90027
E07  25687614.86827      2082.28427        43.70027
E08  25595816.01926       609.77826        36.60026
E13  25336904.75927      -681.10127        42.90027
E15  27436225.43027     -1013.34327        43.10027
E21  24602412.93828       314.53428        48.70028
E26  26357769.43027        82.02127        43.30027
E27  24622164.16428     -2123.41628        47.90028
E30  28056630.03327     -2913.62827        42.70027
C21  25351190.47026     -2857.85226        39.90026
C23  25428281.50126      -593.28926        38.10026
C25  24349121.58726     -1795.02026        41.10026
C33  23188281.72028      2394.40728        49.80028
C34  23052508.71427       -87.09827        41.80027
C38  37735842.65327     -1130.86827        46.90027
C40  37663218.23027        99.62227        43.80027
C42  22183882.55128      -671.31928        50.70028
C43  23567388.77028      1438.04728        51.10028
> 2026 03 02 12 16 21.4163370  0 37                      
G05  21857244.87827     -2773.96227        42.80027
G11  24718844.53427     -1274.62627        41.60027
G12  22308660.07028     -3015.32328        49.70028
G13  22022882.30927       679.76527        42.30027
G15  21008564.80727      1869.90927        44.00027
G18  24161670.65726       797.87326        38.80026
G21  24040561.99927     -3392.70127        44.10027
G23  22614161.47527      1983.33327        44.90027
G24  25104265.21225       428.97525        34.50025
G25  21380864.46928     -1347.31428        52.30028
G29  21724543.54528      2327.89428        50.30028
J02  37499888.90126      -433.24826        38.60026
J03  41636907.00326       962.66826        37.70026
R18  22037095.47027       295.63427        43.10027
R09  22592184.29026        74.33226        36.10026
R16  21717640.22427     -2643.50027        42.20027
R05  21737615.39627      3889.10127        44.90027
R19  22512657.74527      1161.24427        44.20027
R03  21336388.45926     -2591.42226        40.60026
R04  19513778.62627      1084.47627        44.50027
E07  25687219.44227      2079.63427        42.90027
E08  25595699.99926       606.84226        36.90026
E13  25337036.06927      -683.48227        42.90027
E15  27436417.89727     -1015.71627        42.90027
E21  24602354.17828       311.55228        49.00028
E26  26357753.84027        79.43527        43.70027
E27  24622568.88428     -2126.20028        47.70028
E30  28057185.84827     -2916.11327        42.70027
C21  25351735.49226     -2860.62826        39.30026
C23  25428392.12426      -596.27626        38.30026
C25  24349463.65126     -1797.52626        41.20026
C33  23187827.23528      2391.51228        49.40028
C34  23052524.30327       -89.81727        41.70027
C38  37736058.80427     -1133.45927        47.20027
C40  37663198.74427        96.95627        43.80027
C42  22184010.86228      -674.40428        50.40028
C43  23567115.65928      1435.55728        51.00028
> 2026 03 02 12 16 22.4163370  0 37                      
G05  21857769.81427     -2777.21927        42.70027
G11  24719086.76627     -1277.61227        41.60027
G12  22309236.87028     -3018.57128        49.90028
G13  22022753.69827       676.20527        42.30027
G15  21008211.95127      1866.39827        43.60027
G18  24161521.66026       794.86026        39.00026
G21  24041208.65127     -3395.75027        44.50027
G23  22613783.13727      1979.83627        45.00027
G24  25104178.57225       426.08125        34.00025
G25  21381120.79228     -1350.82828        53.20028
G29  21724101.65128      2324.64328        50.60028
J02  37499969.84526      -436.41826        38.70026
J03  41636714.53626       959.76626        38.10026
R18  22037031.61427       292.57627        43.10027
R09  22592161.80526        70.56126        35.90026
R16  21718128.88626     -2646.95826        41.20026
R05  21736886.60027      3885.75227        45.40027
R19  22512434.99927      1158.31027        43.80027
R03  21336880.11926     -2595.23626        39.90026
R04  19513575.66627      1080.55127        44.70027
E07  25686822.81627      2076.41927        42.90027
E08  25595583.08026       603.38426        36.90026
E13  25337165.87927      -686.58727        42.50027
E15  27436611.86227     -1018.78127        42.60027
E21  24602294.52028       307.85628        48.30028
E26  26357738.55127        76.17527        43.30027
E27  24622973.00428     -2129.68928        47.70028
E30  28057741.06427     -2919.28427        42.70027
C21  25352279.91526     -2864.17526        39.70026
C23  25428506.04526      -599.67526        38.00026
C25  24349803.31627     -1800.79027        41.50027
C33  23187371.25128      2387.93328        49.60028
C34  23052540.49227       -93.17127        41.90027
C38  37736273.45527     -1136.73227        47.30027
C40  37663181.35627        93.52427        43.80027
C42  22184139.47328      -678.19728        50.80028
C43  23566842.24828      1432.37828        51.00028
> 2026 03 02 12 16 23.4163370  0 37                      
G05  21858301.04727     -2779.80927        42.80027
G11  24719328.39927     -1279.88727        41.50027
G12  22309810.97328     -3021.16128        49.50028
G13  22022623.28927       673.34427        42.30027
G15  21007856.09727      1863.62527        43.80027
G18  24161369.06626       792.56526        39.20026
G21  24041855.00427     -3398.11927        44.10027
G23  22613405.69927      1977.05827        45.20027
G24  25104100.32725       424.14525        33.90025
G25  21381377.71428     -1353.68428        53.20028
G29  21723657.65828      2322.07328        50.30028
J02  37500054.68626      -438.93526        38.30026
J03  41636540.95626       957.45526        37.30026
R18  22036984.24727       290.26527        43.40027
R09  22592162.10526        67.55226        36.00026
R16  21718628.94027     -2649.67627        42.50027
R05  21736159.00427      3883.12227        45.40027
R19  22512217.35027      1156.14427        45.00027
R03  21337363.68426     -2598.27026        41.00026
R04  19513366.71127      1077.36727        45.00027
E07  25686428.88927      2074.19727        43.30027
E08  25595469.75926       601.00726        36.60026
E13  25337295.98927      -688.66527        42.70027
E15  27436805.82827     -1020.77627        43.00027
E21  24602236.95928       305.27228        49.00028
E26  26357722.66227        74.01427        43.30027
E27  24623378.02428     -2132.11728        48.00028
E30  28058296.27927     -2921.40127        42.40027
C21  25352826.13726     -2866.63426        39.80026
C23  25428618.46726      -602.12826        37.40026
C25  24350149.27626     -1802.88226        41.20026
C33  23186917.66528      2385.44528        49.60028
C34  23052559.07927       -95.43927        42.30027
C38  37736490.80527     -1138.90327        47.30027
C40  37663164.26827        91.27027        44.00027
C42  22184268.08428      -680.91228        50.50028
C43  23566570.33628      1430.29628        51.00028
> 2026 03 02 12 16 24.4163370  0 37                      
G05  21858829.28127     -2782.33027        42.70027
G11  24719575.12826     -1282.11126        41.40026
G12  22310385.07528     -3023.67128        49.80028
G13  22022495.57727       670.57927        42.10027
G15  21007501.14327      1860.87227        43.50027
G18  24161217.37126       790.24126        38.70026
G21  24042504.35427     -3400.39627        44.10027
G23  22613029.75927      1974.36527        44.90027
G24  25104018.18325       422.22625        34.10025
G25  21381635.23628     -1356.42928        53.00028
G29  21723215.46428      2319.60628        50.50028
J02  37500135.33026      -441.35526        38.50026
J03  41636355.68426       955.21726        37.50026
R18  22036929.98427       287.95427        43.00027
R09  22592126.13025        64.55925        35.30025
R16  21719124.19727     -2652.28427        42.80027
R05  21735438.30327      3880.49627        45.10027
R19  22512004.49727      1154.00827        44.90027
R03  21337848.14926     -2601.29926        40.70026
R04  19513174.84427      1074.12227        44.30027
E07  25686033.76227      2071.93827        43.20027
E08  25595354.93826       598.21326        36.80026
E13  25337427.89727      -690.81527        42.50027
E15  27437000.69327     -1022.90727        43.20027
E21  24602177.90028       302.56528        48.70028
E26  26357709.17127        71.77127        43.60027
E27  24623784.84228     -2134.66828        48.00028
E30  28058851.49527     -2923.62927        42.40027
C21  25353370.56026     -2869.20926        39.40026
C23  25428732.68826      -604.71326        37.50026
C25  24350492.53827     -1805.17927        41.60027
C33  23186463.77928      2382.79828        49.60028
C34  23052578.86527       -97.84727        42.40027
C38  37736707.85428     -1141.20028        47.50028
C40  37663145.98027        88.83627        43.60027
C42  22184398.19428      -683.75028        50.80028
C43  23566298.42528      1428.05528        50.90028
> 2026 03 02 12 16 25.4163370  0 37                      
G05  21859359.61427     -2783.77227        43.10027
G11  24719818.26027     -1283.23527        42.20027
G12  22310960.07728     -3025.10828        49.40028
G13  22022366.06727       668.85227        41.80027
G15  21007147.38827      1859.18927        43.50027
G18  24161065.37626       789.08526        38.80026
G21  24043150.10727     -3401.63327        44.50027
G23  22612654.11927      1972.68727        44.90027
G24  25103940.23725       421.31725        34.30025
G25  21381892.75728     -1358.12028        52.30028
G29  21722774.77028      2318.18928        51.00028
J02  37500218.97226      -442.74426        38.20026
J03  41636170.41326       954.11026        37.20026
R18  22036878.42027       286.71927        43.50027
R09  22592115.63725        62.64025        34.20025
R16  21719618.55527     -2653.80327        41.70027
R05  21734708.00827      3878.97227        45.50027
R19  22511786.84827      1152.91127        43.60027
R03  21338337.71026     -2603.25926        39.30026
R04  19512971.28527      1072.01527        44.70027
E07  25685640.13527      2070.60327        43.80027
E08  25595241.91626       596.67726        36.80026
E13  25337558.00727      -691.97127        42.60027
E15  27437196.15827     -1024.01327        43.20027
E21  24602120.34028       300.84728        49.10028
E26  26357696.28027        70.47127        43.70027
E27  24624190.46128     -2136.18328        47.90028
E30  28059409.70827     -2924.84127        42.80027
C21  25353916.78226     -2870.76326        40.40026
C23  25428849.00826      -606.25426        37.50026
C25  24350834.60227     -1806.37827        41.50027
C33  23186010.49328      2381.18628        49.80028
C34  23052595.95427       -99.25727        42.40027
C38  37736924.30528     -1142.48828        48.00028
C40  37663128.89227        87.43427        43.60027
C42  22184528.30428      -685.53128        50.60028
C43  23566026.51328      1426.83628        51.20028
> 2026 03 02 12 16 26.4163370  0 37                      
G05  21859886.94927     -2784.55227        42.90027
G11  24720063.49027     -1283.70527        42.50027
G12  22311534.48028     -3025.89428        49.90028
G13  22022238.05527       667.80327        42.10027
G15  21006792.73427      1858.19227        43.60027
G18  24160915.48026       788.59326        39.00026
G21  24043793.16227     -3402.16827        44.10027
G23  22612280.57727      1971.73727        45.30027
G24  25103858.09425       421.09825        34.30025
G25  21382149.97928     -1359.13528        52.40028
G29  21722334.37428      2317.43328        50.70028
J02  37500302.31526      -443.38526        38.30026
J03  41635992.03626       953.63026        37.50026
R18  22036829.85427       286.19527        43.20027
R09  22592108.44225        61.46225        34.50025
R16  21720117.40927     -2654.67227        41.80027
R05  21733989.40627      3878.15727        45.70027
R19  22511572.19627      1152.58427        44.30027
R03  21338826.97126     -2604.55126        39.60026
R04  19512773.12227      1070.59827        44.40027
E07  25685244.70927      2069.91427        44.80027
E08  25595128.29526       595.76726        36.60026
E13  25337690.81527      -692.43127        42.90027
E15  27437390.72327     -1024.47527        44.00027
E21  24602063.97928       299.77928        49.30028
E26  26357681.89027        69.87127        43.80027
E27  24624597.57928     -2137.11028        48.90028
E30  28059965.22427     -2925.43627        42.70027
C21  25354463.00426     -2871.64826        39.80026
C23  25428962.03026      -607.16926        37.40026
C25  24351178.76327     -1807.01227        41.50027
C33  23185557.50628      2380.19328        50.40028
C34  23052613.94127      -100.04627        42.70027
C38  37737141.65428     -1143.22828        48.10028
C40  37663112.10427        86.65927        43.50027
C42  22184659.01428      -686.74128        50.90028
C43  23565754.60128      1426.23028        51.40028
> 2026 03 02 12 16 27.4163370  0 37                      
G05  21860417.58127     -2784.07027        43.10027
G11  24720309.61927     -1282.89027        42.30027
G12  22312112.77928     -3025.41928        50.10028
G13  22022110.94327       668.01427        41.90027
G15  21006439.27827      1858.47227        44.10027
G18  24160763.18526       789.39526        38.50026
G21  24044444.61127     -3401.42527        44.10027
G23  22611905.53727      1971.99527        45.40027
G24  25103782.84625       422.24125        34.20025
G25  21382409.30028     -1358.89428        52.30028
G29  21721892.18128      2317.93228        50.90028
J02  37500388.35526      -442.78526        38.80026
J03  41635807.36426       954.54026        37.50026
R18  22036770.79527       286.95527        43.70027
R09  22592077.26425        61.57225        34.30025
R16  21720617.76327     -2654.24327        43.00027
R05  21733260.61027      3878.59527        46.00027
R19  22511361.14327      1153.52227        45.40027
R03  21339303.94126     -2604.49926        40.90026
R04  19512572.26127      1070.54227        44.70027
