# 
# Header Description:
# 
# Version: v3.1.1.2 Platform: 13 Manufacturer: Xiaomi Model: 2201116PI GNSS Hardware Model Name: qcom;MPSS.HI.4.3.1.c4-00041-MANNAR_GEN_PACK-1.42847.10.50349.11;
# 
# Raw,utcTimeMillis,TimeNanos,LeapSecond,TimeUncertaintyNanos,FullBiasNanos,BiasNanos,BiasUncertaintyNanos,DriftNanosPerSecond,DriftUncertaintyNanosPerSecond,HardwareClockDiscontinuityCount,Svid,TimeOffsetNanos,State,ReceivedSvTimeNanos,ReceivedSvTimeUncertaintyNanos,Cn0DbHz,PseudorangeRateMetersPerSecond,PseudorangeRateUncertaintyMetersPerSecond,AccumulatedDeltaRangeState,AccumulatedDeltaRangeMeters,AccumulatedDeltaRangeUncertaintyMeters,CarrierFrequencyHz,CarrierCycles,CarrierPhase,CarrierPhaseUncertainty,MultipathIndicator,SnrInDb,ConstellationType,AgcDb,BasebandCn0DbHz,FullInterSignalBiasNanos,FullInterSignalBiasUncertaintyNanos,SatelliteInterSignalBiasNanos,SatelliteInterSignalBiasUncertaintyNanos,CodeType,ChipsetElapsedRealtimeNanos,IsFullTracking,SvPositionEcefXMeters,SvPositionEcefYMeters,SvPositionEcefZMeters,SvVelocityEcefXMetersPerSecond,SvVelocityEcefYMetersPerSecond,SvVelocityEcefZMetersPerSecond,SvClockBiasMeters,SvClockDriftMetersPerSecond,KlobucharAlpha0,KlobucharAlpha1,KlobucharAlpha2,KlobucharAlpha3,KlobucharBeta0,KlobucharBeta1,KlobucharBeta2,KlobucharBeta3
# 
# UncalAccel,utcTimeMillis,elapsedRealtimeNanos,UncalAccelXMps2,UncalAccelYMps2,UncalAccelZMps2,BiasXMps2,BiasYMps2,BiasZMps2,CalibrationAccuracy
# 
# Accel,utcTimeMillis,elapsedRealtimeNanos,AccelXMps2,AccelYMps2,AccelZMps2,CalibrationAccuracy
# 
# UncalGyro,utcTimeMillis,elapsedRealtimeNanos,UncalGyroXRadPerSec,UncalGyroYRadPerSec,UncalGyroZRadPerSec,DriftXRadPerSec,DriftYRadPerSec,DriftZRadPerSec,CalibrationAccuracy
# 
# Gyro,utcTimeMillis,elapsedRealtimeNanos,GyroXRadPerSec,GyroYRadPerSec,GyroZRadPerSec,CalibrationAccuracy
# 
# UncalMag,utcTimeMillis,elapsedRealtimeNanos,UncalMagXMicroT,UncalMagYMicroT,UncalMagZMicroT,BiasXMicroT,BiasYMicroT,BiasZMicroT,CalibrationAccuracy
# 
# Mag,utcTimeMillis,elapsedRealtimeNanos,MagXMicroT,MagYMicroT,MagZMicroT,CalibrationAccuracy
# 
# Pressure,utcTimeMillis,elapsedRealtimeNanos,PressureHpa,CalibrationAccuracy
# 
# OrientationDeg,utcTimeMillis,elapsedRealtimeNanos,yawDeg,rollDeg,pitchDeg,CalibrationAccuracy
# 
# Fix,Provider,LatitudeDegrees,LongitudeDegrees,AltitudeMeters,SpeedMps,AccuracyMeters,BearingDegrees,UnixTimeMillis,SpeedAccuracyMps,BearingAccuracyDegrees,elapsedRealtimeNanos,VerticalAccuracyMeters,MockLocation,NumberOfUsedSignals,VerticalSpeedAccuracyMps,SolutionType
# 
# Nav,Svid,Type,Status,MessageId,Sub-messageId,Data(Bytes)
# 
# Status,UnixTimeMillis,SignalCount,SignalIndex,ConstellationType,Svid,CarrierFrequencyHz,Cn0DbHz,AzimuthDegrees,ElevationDegrees,UsedInFix,HasAlmanacData,HasEphemerisData,BasebandCn0DbHz
# 
# Agc,utcTimeMillis,TimeNanos,LeapSecond,TimeUncertaintyNanos,FullBiasNanos,BiasNanos,BiasUncertaintyNanos,DriftNanosPerSecond,DriftUncertaintyNanosPerSecond,HardwareClockDiscontinuityCount,AgcDb,CarrierFrequencyHz,ConstellationType
# 
# GameRotationVector,utcTimeMillis,elapsedRealtimeNanos,x,y,z,w
# 
UncalAccel,1772042137878,6567086648280490,3.8327036,4.6654058,8.043473,0.0,0.0,0.0,3
UncalGyro,1772042137885,6567086655126584,0.12186752,-0.072540194,0.029779658,0.0022210346,0.002246409,-0.0031306786,3
UncalAccel,1772042137887,6567086657626584,3.8135612,4.6893344,8.009974,0.0,0.0,0.0,3
UncalAccel,1772042137896,6567086666972730,3.8087754,4.727619,7.9429746,0.0,0.0,0.0,3
UncalGyro,1772042137894,6567086664472730,0.124310985,-0.06887501,0.034666575,0.0022210346,0.002246409,-0.0031306786,3
UncalMag,1772042137900,6567086670699501,61.706253,-21.712502,-230.11876,90.810165,-16.149149,-220.26883,3
UncalGyro,1772042137903,6567086673818824,0.11575887,-0.07131846,0.035888307,0.0022210346,0.002246409,-0.0031306786,3
UncalAccel,1772042137906,6567086676318824,3.8231323,4.727619,7.914261,0.0,0.0,0.0,3
UncalMag,1772042137910,6567086680699501,61.74375,-21.6375,-230.1,90.810165,-16.149149,-220.26883,3
UncalAccel,1772042137915,6567086685664917,3.8231323,4.7371907,7.899904,0.0,0.0,0.0,3
UncalGyro,1772042137913,6567086683164917,0.10109812,-0.073761925,0.034666575,0.0022210346,0.002246409,-0.0031306786,3
UncalMag,1772042137920,6567086690699501,61.593754,-21.768751,-229.95001,90.810165,-16.149149,-220.26883,3
UncalGyro,1772042137922,6567086692511063,0.08888082,-0.07620538,0.031001387,0.0022210346,0.002246409,-0.0031306786,3
UncalAccel,1772042137925,6567086695011063,3.8231323,4.727619,7.8759756,0.0,0.0,0.0,3
UncalMag,1772042137930,6567086700699501,61.631252,-21.75,-229.9125,90.810165,-16.149149,-220.26883,3
UncalGyro,1772042137931,6567086701857157,0.07422007,-0.0810923,0.02611447,0.0022210346,0.002246409,-0.0031306786,3
UncalAccel,1772042137934,6567086704357157,3.80399,4.718048,7.7946196,0.0,0.0,0.0,3
UncalMag,1772042137940,6567086710699501,61.65,-21.675001,-229.95001,90.810165,-16.149149,-220.26883,3
UncalGyro,1772042137941,6567086711203251,0.054672398,-0.07864884,0.02367101,0.0022210346,0.002246409,-0.0031306786,3
UncalAccel,1772042137943,6567086713703251,3.8087754,4.703691,7.813762,0.0,0.0,0.0,3
UncalMag,1772042137950,6567086720699501,61.350002,-21.91875,-229.95001,90.810165,-16.149149,-220.26883,3
OrientationDeg,1772042137903,6567086673818824,79.0,-25.0,-28.0,3
GameRotationVector,1772042137903,6567086673818824,0.0,0.0,0.0,1.0
GameRotationVector,1772042137913,6567086683164917,0.0,0.0,0.0,1.0
OrientationDeg,1772042137913,6567086683164917,77.0,-25.0,-28.0,3
GameRotationVector,1772042137922,6567086692511063,0.31793475,0.051597662,0.7051721,0.6316546
OrientationDeg,1772042137922,6567086692511063,77.0,-25.0,-28.0,3
GameRotationVector,1772042137931,6567086701857157,0.31848758,0.051569197,0.7051373,0.63141716
OrientationDeg,1772042137931,6567086701857157,76.0,-25.0,-28.0,3
GameRotationVector,1772042137941,6567086711203251,0.31917357,0.051636565,0.70500934,0.6312082
OrientationDeg,1772042137941,6567086711203251,76.0,-25.0,-28.0,3
OrientationDeg,1772042137950,6567086720549397,76.0,-25.0,-28.0,3
GameRotationVector,1772042137950,6567086720549397,0.31953362,0.051490664,0.70498043,0.6310702
UncalGyro,1772042137950,6567086720549397,0.033902995,-0.08231403,0.018784093,0.0022210346,0.002246409,-0.0031306786,3
UncalAccel,1772042137953,6567086723049397,3.8518462,4.69412,7.832905,0.0,0.0,0.0,3
Fix,FLP,13.0667530000,77.5916879000,837.3999633789062,1.0787652,10.963,45.03763,1772042137541,1.5,45.0,6567086310814647,1.0556681,0,,,
UncalMag,1772042137960,6567086730699501,61.10625,-22.087502,-229.93126,90.810165,-16.149149,-220.26883,3
UncalGyro,1772042137959,6567086729895490,0.014355322,-0.092087865,0.009162972,0.0022210346,0.002246409,-0.0031306786,3
UncalAccel,1772042137962,6567086732395490,3.9284165,4.6558347,7.780263,0.0,0.0,0.0,3
OrientationDeg,1772042137959,6567086729895490,77.0,-26.0,-28.0,3
GameRotationVector,1772042137959,6567086729895490,0.31988797,0.051041335,0.7049883,0.6309183
UncalMag,1772042137970,6567086740699501,60.787502,-22.03125,-230.06252,90.810165,-16.149149,-220.26883,3
UncalGyro,1772042137969,6567086739241584,0.0021380268,-0.092087865,-0.0018325944,0.0022210346,0.002246409,-0.0031306786,3
UncalAccel,1772042137971,6567086741741584,3.923631,4.6749773,7.7036924,0.0,0.0,0.0,3
GameRotationVector,1772042137969,6567086739241584,0.3205198,0.050193302,0.70497614,0.6306793
OrientationDeg,1772042137969,6567086739241584,77.0,-26.0,-28.0,3
UncalMag,1772042137980,6567086750699501,60.675003,-22.03125,-230.02501,90.810165,-16.149149,-220.26883,3
UncalGyro,1772042137978,6567086748587730,-0.0051923506,-0.07864884,-0.007941242,0.0022210346,0.002246409,-0.0031306786,3
UncalAccel,1772042137981,6567086751087730,3.9427736,4.69412,7.7180495,0.0,0.0,0.0,3
OrientationDeg,1772042137978,6567086748587730,76.0,-26.0,-28.0,3
GameRotationVector,1772042137978,6567086748587730,0.32127148,0.04963133,0.7048174,0.6305187
UncalMag,1772042137990,6567086760699501,60.99375,-22.06875,-230.02501,90.810165,-16.149149,-220.26883,3
UncalGyro,1772042137987,6567086757933824,-0.0051923506,-0.061544627,-0.011606431,0.0022210346,0.002246409,-0.0031306786,3
UncalAccel,1772042137990,6567086760433824,3.9714873,4.679763,7.713264,0.0,0.0,0.0,3
OrientationDeg,1772042137987,6567086757933824,77.0,-26.0,-28.0,3
GameRotationVector,1772042137987,6567086757933824,0.32190913,0.04918714,0.70464754,0.6304182
UncalMag,1772042138000,6567086770699501,61.050003,-21.9375,-229.83751,90.810165,-16.149149,-220.26883,3
UncalGyro,1772042137997,6567086767279917,-0.0003054324,-0.046883874,-0.0140498895,0.0022210346,0.002246409,-0.0031306786,3
UncalAccel,1772042137999,6567086769779917,4.000201,4.6893344,7.708478,0.0,0.0,0.0,3
OrientationDeg,1772042137997,6567086767279917,76.0,-26.0,-28.0,3
GameRotationVector,1772042137997,6567086767279917,0.32247552,0.0487255,0.7045145,0.6303131
UncalMag,1772042138010,6567086780699501,60.9,-22.050001,-229.59377,90.810165,-16.149149,-220.26883,3
UncalAccel,1772042138009,6567086779126063,3.99063,4.7132626,7.7419777,0.0,0.0,0.0,3
UncalGyro,1772042138006,6567086776626063,0.008246674,-0.037110034,-0.016493348,0.0022210346,0.002246409,-0.0031306786,3
OrientationDeg,1772042138006,6567086776626063,76.0,-26.0,-28.0,3
GameRotationVector,1772042138006,6567086776626063,0.3230546,0.04833175,0.7043835,0.63019335
UncalMag,1772042138020,6567086790699501,60.9,-22.29375,-229.55626,90.810165,-16.149149,-220.26883,3
UncalGyro,1772042138015,6567086785972157,0.02046397,-0.033597562,-0.016493348,0.0022210346,0.002246409,-0.0031306786,3
UncalAccel,1772042138018,6567086788472157,3.947559,4.746762,7.789834,0.0,0.0,0.0,3
GameRotationVector,1772042138015,6567086785972157,0.3235263,0.048111558,0.7042499,0.63011754
OrientationDeg,1772042138015,6567086785972157,77.0,-26.0,-28.0,3
UncalAccel,1772042138027,6567086797818251,3.9140596,4.6989055,7.832905,0.0,0.0,0.0,3
UncalMag,1772042138030,6567086800699501,61.031254,-22.125,-229.59377,90.810165,-16.149149,-220.26883,3
UncalGyro,1772042138025,6567086795318251,0.035124727,-0.027488915,-0.009162972,0.0022210346,0.002246409,-0.0031306786,3
GameRotationVector,1772042138025,6567086795318251,0.32383576,0.048126556,0.70411104,0.63011265
OrientationDeg,1772042138025,6567086795318251,77.0,-26.0,-28.0,3
UncalGyro,1772042138034,6567086804664397,0.04612029,-0.018936807,-0.0018325944,0.0022210346,0.002246409,-0.0031306786,3
UncalMag,1772042138040,6567086810699501,61.237503,-22.03125,-229.57501,90.810165,-16.149149,-220.26883,3
UncalAccel,1772042138037,6567086807164397,3.9188452,4.703691,7.8281193,0.0,0.0,0.0,3
OrientationDeg,1772042138034,6567086804664397,77.0,-26.0,-28.0,3
GameRotationVector,1772042138034,6567086804664397,0.32389733,0.048137363,0.70407456,0.6301209
UncalAccel,1772042138046,6567086816510490,3.9332023,4.7084765,7.804191,0.0,0.0,0.0,3
UncalMag,1772042138050,6567086820699501,61.3875,-22.181252,-229.59377,90.810165,-16.149149,-220.26883,3
OrientationDeg,1772042138044,6567086814010490,77.0,-26.0,-28.0,3
GameRotationVector,1772042138044,6567086814010490,0.3239765,0.04818475,0.7040713,0.6300803
UncalGyro,1772042138044,6567086814010490,0.051007207,-0.010384701,0.005497783,0.0022210346,0.002246409,-0.0031306786,3
UncalGyro,1772042138053,6567086823356584,0.04978548,-0.0067195124,0.007941242,0.0022210346,0.002246409,-0.0031306786,3
UncalAccel,1772042138055,6567086825856584,3.99063,4.718048,7.765906,0.0,0.0,0.0,3
UncalMag,1772042138060,6567086830699501,61.4625,-22.0125,-229.48126,90.810165,-16.149149,-220.26883,3
OrientationDeg,1772042138053,6567086823356584,77.0,-26.0,-28.0,3
GameRotationVector,1772042138053,6567086823356584,0.32411355,0.04823708,0.7040928,0.62998176
UncalGyro,1772042138062,6567086832702730,0.042455103,-0.01282816,0.0067195124,0.0022210346,0.002246409,-0.0031306786,3
UncalAccel,1772042138065,6567086835202730,3.9954157,4.7371907,7.751549,0.0,0.0,0.0,3
GameRotationVector,1772042138062,6567086832702730,0.32440832,0.048191074,0.7041163,0.62980723
UncalMag,1772042138070,6567086840699501,61.312504,-21.900002,-229.35,90.810165,-16.149149,-220.26883,3
OrientationDeg,1772042138062,6567086832702730,76.0,-26.0,-28.0,3
UncalAccel,1772042138074,6567086844548824,3.99063,4.718048,7.780263,0.0,0.0,0.0,3
UncalGyro,1772042138072,6567086842048824,0.031459536,-0.020158539,0.0042760535,0.0022210346,0.002246409,-0.0031306786,3
GameRotationVector,1772042138072,6567086842048824,0.3247253,0.04813853,0.70411444,0.62964994
UncalMag,1772042138080,6567086850699501,61.518753,-21.825,-229.50002,90.810165,-16.149149,-220.26883,3
OrientationDeg,1772042138072,6567086842048824,76.0,-26.0,-28.0,3
UncalAccel,1772042138083,6567086853894917,3.9714873,4.732405,7.7850485,0.0,0.0,0.0,3
UncalGyro,1772042138081,6567086851394917,0.01802051,-0.022601997,0.0030543238,0.0022210346,0.002246409,-0.0031306786,3
GameRotationVector,1772042138081,6567086851394917,0.3249169,0.048011564,0.70412755,0.6295461
OrientationDeg,1772042138081,6567086851394917,76.0,-26.0,-28.0,3
UncalMag,1772042138090,6567086860699501,61.66875,-21.84375,-229.55626,90.810165,-16.149149,-220.26883,3
UncalGyro,1772042138090,6567086860741063,0.0058032153,-0.023823727,0.0006108648,0.0022210346,0.002246409,-0.0031306786,3
UncalAccel,1772042138093,6567086863241063,3.9619162,4.7515473,7.8089767,0.0,0.0,0.0,3
GameRotationVector,1772042138090,6567086860741063,0.32504869,0.047909908,0.70412284,0.62949115
UncalMag,1772042138100,6567086870699501,61.65,-21.73125,-229.65001,90.810165,-16.149149,-220.26883,3
OrientationDeg,1772042138090,6567086860741063,76.0,-26.0,-28.0,3
UncalGyro,1772042138100,6567086870087157,-0.0027488915,-0.023823727,-0.005497783,0.0022210346,0.002246409,-0.0031306786,3
UncalAccel,1772042138102,6567086872587157,3.952345,4.775476,7.832905,0.0,0.0,0.0,3
OrientationDeg,1772042138100,6567086870087157,76.0,-26.0,-28.0,3
GameRotationVector,1772042138100,6567086870087157,0.32512373,0.04783692,0.70409876,0.6294847
UncalMag,1772042138110,6567086880699501,61.85625,-21.6375,-229.55626,90.810165,-16.149149,-220.26883,3
UncalGyro,1772042138109,6567086879433251,-0.010079269,-0.022601997,-0.0067195124,0.0022210346,0.002246409,-0.0031306786,3
UncalAccel,1772042138111,6567086881933251,3.9140596,4.7898326,7.880761,0.0,0.0,0.0,3
OrientationDeg,1772042138109,6567086879433251,76.0,-26.0,-28.0,3
GameRotationVector,1772042138109,6567086879433251,0.32515416,0.047785815,0.70405203,0.6295252
UncalMag,1772042138120,6567086890699501,61.687504,-21.6,-229.46251,90.810165,-16.149149,-220.26883,3
UncalGyro,1772042138118,6567086888779397,-0.013744458,-0.016493348,-0.0042760535,0.0022210346,0.002246409,-0.0031306786,3
UncalAccel,1772042138121,6567086891279397,3.9140596,4.7419763,7.9238324,0.0,0.0,0.0,3
OrientationDeg,1772042138118,6567086888779397,76.0,-26.0,-28.0,3
GameRotationVector,1772042138118,6567086888779397,0.32506624,0.047789928,0.70400596,0.6296218
UncalMag,1772042138130,6567086900699501,61.818752,-21.6,-229.40627,90.810165,-16.149149,-220.26883,3
UncalGyro,1772042138128,6567086898125490,-0.013744458,-0.010384701,-0.0018325944,0.0022210346,0.002246409,-0.0031306786,3
UncalAccel,1772042138130,6567086900625490,3.894917,4.761119,7.928618,0.0,0.0,0.0,3
OrientationDeg,1772042138128,6567086898125490,76.0,-26.0,-28.0,3
GameRotationVector,1772042138128,6567086898125490,0.32487175,0.047726553,0.70401233,0.6297199
UncalMag,1772042138140,6567086910699501,61.893753,-21.712502,-229.59377,90.810165,-16.149149,-220.26883,3
UncalGyro,1772042138137,6567086907471584,-0.012522728,-0.011606431,0.0006108648,0.0022210346,0.002246409,-0.0031306786,3
UncalAccel,1772042138139,6567086909971584,3.856632,4.7515473,7.9477606,0.0,0.0,0.0,3
GameRotationVector,1772042138137,6567086907471584,0.32469037,0.047713384,0.7040185,0.62980765
OrientationDeg,1772042138137,6567086907471584,76.0,-26.0,-28.0,3
UncalMag,1772042138150,6567086920699501,61.93125,-21.9375,-229.6125,90.810165,-16.149149,-220.26883,3
UncalGyro,1772042138146,6567086916817730,-0.00763581,-0.020158539,0.0018325944,0.0022210346,0.002246409,-0.0031306786,3
UncalAccel,1772042138149,6567086919317730,3.842275,4.761119,7.995617,0.0,0.0,0.0,3
OrientationDeg,1772042138146,6567086916817730,76.0,-26.0,-28.0,3
GameRotationVector,1772042138146,6567086916817730,0.32449305,0.047722027,0.7040283,0.62989765
UncalMag,1772042138160,6567086930699501,61.7625,-22.050001,-229.18126,90.810165,-16.149149,-220.26883,3
GameRotationVector,1772042138156,6567086926163824,0.324316,0.047736775,0.7040281,0.6299879
OrientationDeg,1772042138156,6567086926163824,76.0,-26.0,-28.0,3
UncalAccel,1772042138158,6567086928663824,3.8470607,4.761119,8.029117,0.0,0.0,0.0,3
UncalGyro,1772042138156,6567086926163824,0.0021380268,-0.029932374,0.0067195124,0.0022210346,0.002246409,-0.0031306786,3
UncalMag,1772042138170,6567086940699501,61.725002,-21.712502,-229.29376,90.810165,-16.149149,-220.26883,3
UncalGyro,1772042138165,6567086935509917,0.014355322,-0.040775225,0.007941242,0.0022210346,0.002246409,-0.0031306786,3
UncalAccel,1772042138168,6567086938009917,3.866203,4.7515473,7.962117,0.0,0.0,0.0,3
GameRotationVector,1772042138165,6567086935509917,0.32419565,0.047745213,0.70402724,0.63005024
OrientationDeg,1772042138165,6567086935509917,77.0,-26.0,-28.0,3
UncalGyro,1772042138174,6567086944856063,0.024129158,-0.05665771,0.007941242,0.0022210346,0.002246409,-0.0031306786,3
UncalMag,1772042138180,6567086950699501,61.706253,-21.75,-229.40627,90.810165,-16.149149,-220.26883,3
UncalAccel,1772042138177,6567086947356063,3.8997028,4.732405,7.9094753,0.0,0.0,0.0,3
GameRotationVector,1772042138174,6567086944856063,0.32424265,0.047719184,0.7040003,0.63005805
OrientationDeg,1772042138174,6567086944856063,76.0,-26.0,-28.0,3
UncalGyro,1772042138184,6567086954202157,0.027794348,-0.07131846,0.005497783,0.0022210346,0.002246409,-0.0031306786,3
UncalAccel,1772042138186,6567086956702157,3.9332023,4.727619,7.87119,0.0,0.0,0.0,3
UncalMag,1772042138190,6567086960699501,61.612503,-21.75,-229.31252,90.810165,-16.149149,-220.26883,3
GameRotationVector,1772042138184,6567086954202157,0.32441685,0.047620554,0.7039524,0.6300294
OrientationDeg,1772042138184,6567086954202157,76.0,-26.0,-28.0,3
UncalGyro,1772042138193,6567086963548251,0.02535089,-0.073761925,0.005497783,0.0022210346,0.002246409,-0.0031306786,3
UncalAccel,1772042138196,6567086966048251,3.9667017,4.6749773,7.8376904,0.0,0.0,0.0,3
UncalMag,1772042138200,6567086970699501,61.55625,-21.825,-229.50002,90.810165,-16.149149,-220.26883,3
GameRotationVector,1772042138193,6567086963548251,0.32465363,0.047466334,0.70388067,0.6299991
OrientationDeg,1772042138193,6567086963548251,76.0,-26.0,-28.0,3
UncalAccel,1772042138205,6567086975394397,3.9954157,4.6749773,7.8376904,0.0,0.0,0.0,3
UncalGyro,1772042138202,6567086972894397,0.01924224,-0.066431545,0.0030543238,0.0022210346,0.002246409,-0.0031306786,3
GameRotationVector,1772042138202,6567086972894397,0.3248656,0.04723548,0.70382786,0.6299663
OrientationDeg,1772042138202,6567086972894397,76.0,-26.0,-28.0,3
UncalMag,1772042138210,6567086980699501,61.500004,-21.712502,-229.40627,90.810165,-16.149149,-220.26883,3
UncalAccel,1772042138214,6567086984740490,4.004987,4.7228336,7.8424764,0.0,0.0,0.0,3
UncalGyro,1772042138212,6567086982240490,0.011911863,-0.061544627,0.0006108648,0.0022210346,0.002246409,-0.0031306786,3
GameRotationVector,1772042138212,6567086982240490,0.32506028,0.046981823,0.70378196,0.6299361
UncalMag,1772042138220,6567086990699501,61.443752,-21.6375,-229.20001,90.810165,-16.149149,-220.26883,3
OrientationDeg,1772042138212,6567086982240490,76.0,-26.0,-28.0,3
UncalGyro,1772042138221,6567086991586584,0.009468404,-0.06398808,-0.0030543238,0.0022210346,0.002246409,-0.0031306786,3
UncalAccel,1772042138224,6567086994086584,3.99063,4.7515473,7.895118,0.0,0.0,0.0,3
GameRotationVector,1772042138221,6567086991586584,0.32528687,0.04676889,0.70371,0.6299153
UncalMag,1772042138230,6567087000699501,61.425003,-21.54375,-229.21877,90.810165,-16.149149,-220.26883,3
OrientationDeg,1772042138221,6567086991586584,76.0,-26.0,-28.0,3
UncalAccel,1772042138233,6567087003432730,3.9571304,4.775476,7.9094753,0.0,0.0,0.0,3
UncalGyro,1772042138230,6567087000932730,0.009468404,-0.073761925,-0.0030543238,0.0022210346,0.002246409,-0.0031306786,3
GameRotationVector,1772042138230,6567087000932730,0.3255038,0.04656777,0.70362055,0.6299181
OrientationDeg,1772042138230,6567087000932730,76.0,-27.0,-28.0,3
UncalMag,1772042138240,6567087010699501,61.443752,-21.431252,-229.63126,90.810165,-16.149149,-220.26883,3
UncalAccel,1772042138242,6567087012778824,3.9619162,4.7659044,7.885547,0.0,0.0,0.0,3
UncalGyro,1772042138240,6567087010278824,0.013133593,-0.08231403,-0.0006108648,0.0022210346,0.002246409,-0.0031306786,3
GameRotationVector,1772042138240,6567087010278824,0.3257337,0.046398774,0.7035043,0.6299416
OrientationDeg,1772042138240,6567087010278824,76.0,-27.0,-28.0,3
UncalMag,1772042138250,6567087020699501,61.500004,-21.675001,-229.57501,90.810165,-16.149149,-220.26883,3
UncalGyro,1772042138249,6567087019624917,0.016798781,-0.07987057,0.0006108648,0.0022210346,0.002246409,-0.0031306786,3
UncalAccel,1772042138252,6567087022124917,4.019344,4.732405,7.813762,0.0,0.0,0.0,3
OrientationDeg,1772042138249,6567087019624917,76.0,-27.0,-28.0,3
GameRotationVector,1772042138249,6567087019624917,0.32597962,0.046232063,0.7033815,0.6299638
UncalMag,1772042138260,6567087030699501,61.518753,-21.675001,-229.55626,90.810165,-16.149149,-220.26883,3
UncalGyro,1772042138258,6567087028971063,0.02046397,-0.066431545,0.0030543238,0.0022210346,0.002246409,-0.0031306786,3
UncalAccel,1772042138261,6567087031471063,4.043272,4.732405,7.780263,0.0,0.0,0.0,3
OrientationDeg,1772042138258,6567087028971063,76.0,-27.0,-28.0,3
GameRotationVector,1772042138258,6567087028971063,0.32626602,0.046035223,0.7032693,0.6299552
UncalMag,1772042138270,6567087040699501,61.500004,-21.768751,-229.68752,90.810165,-16.149149,-220.26883,3
UncalAccel,1772042138270,6567087040817157,4.057629,4.727619,7.7611203,0.0,0.0,0.0,3
UncalGyro,1772042138268,6567087038317157,0.021685699,-0.045662142,0.0042760535,0.0022210346,0.002246409,-0.0031306786,3
GameRotationVector,1772042138268,6567087038317157,0.32652438,0.045886703,0.70318276,0.62992877
OrientationDeg,1772042138268,6567087038317157,76.0,-27.0,-28.0,3
UncalMag,1772042138280,6567087050699501,61.631252,-21.75,-229.36876,90.810165,-16.149149,-220.26883,3
UncalGyro,1772042138277,6567087047663251,0.022907428,-0.037110034,0.0042760535,0.0022210346,0.002246409,-0.0031306786,3
UncalAccel,1772042138280,6567087050163251,4.0480576,4.7563334,7.751549,0.0,0.0,0.0,3
OrientationDeg,1772042138277,6567087047663251,76.0,-27.0,-28.0,3
GameRotationVector,1772042138277,6567087047663251,0.3267711,0.045767553,0.70312846,0.6298701
UncalMag,1772042138290,6567087060699501,61.518753,-21.806252,-229.27501,90.810165,-16.149149,-220.26883,3
UncalGyro,1772042138287,6567087057009397,0.022907428,-0.03970621,0.0030543238,0.0022210346,0.002246409,-0.0031306786,3
UncalAccel,1772042138289,6567087059509397,4.019344,4.746762,7.7276206,0.0,0.0,0.0,3
OrientationDeg,1772042138287,6567087057009397,76.0,-27.0,-28.0,3
GameRotationVector,1772042138287,6567087057009397,0.32703328,0.045688894,0.70307493,0.6297995
UncalMag,1772042138300,6567087070699501,61.3875,-21.825,-229.425,90.810165,-16.149149,-220.26883,3
UncalGyro,1772042138296,6567087066355490,0.02046397,-0.045662142,0.0030543238,0.0022210346,0.002246409,-0.0031306786,3
UncalAccel,1772042138298,6567087068855490,4.057629,4.7563334,7.7036924,0.0,0.0,0.0,3
OrientationDeg,1772042138296,6567087066355490,76.0,-27.0,-28.0,3
GameRotationVector,1772042138296,6567087066355490,0.32729197,0.045605775,0.70301634,0.6297366
UncalMag,1772042138310,6567087080699501,61.256252,-21.806252,-229.40627,90.810165,-16.149149,-220.26883,3
UncalAccel,1772042138308,6567087078201584,4.009773,4.7371907,7.7036924,0.0,0.0,0.0,3
UncalGyro,1772042138305,6567087075701584,0.014355322,-0.054366965,0.0006108648,0.0022210346,0.002246409,-0.0031306786,3
OrientationDeg,1772042138305,6567087075701584,76.0,-27.0,-28.0,3
GameRotationVector,1772042138305,6567087075701584,0.32759824,0.045471832,0.70294756,0.6296637
UncalMag,1772042138320,6567087090699501,61.2,-22.06875,-229.36876,90.810165,-16.149149,-220.26883,3
UncalAccel,1772042138317,6567087087547730,4.004987,4.7132626,7.6941214,0.0,0.0,0.0,3
UncalGyro,1772042138315,6567087085047730,-0.0015271619,-0.07742711,0.0042760535,0.0022210346,0.002246409,-0.0031306786,3
OrientationDeg,1772042138315,6567087085047730,76.0,-27.0,-28.0,3
GameRotationVector,1772042138315,6567087085047730,0.3278837,0.04524644,0.7028798,0.62960696
UncalGyro,1772042138324,6567087094393824,-0.023518294,-0.10797035,-0.0006108648,0.0022210346,0.002246409,-0.0031306786,3
UncalAccel,1772042138326,6567087096893824,4.043272,4.679763,7.6510506,0.0,0.0,0.0,3
UncalMag,1772042138330,6567087100699501,61.143753,-22.06875,-229.40627,90.810165,-16.149149,-220.26883,3
GameRotationVector,1772042138324,6567087094393824,0.32818434,0.04487869,0.7027983,0.6295677
OrientationDeg,1772042138324,6567087094393824,76.0,-27.0,-28.0,3
UncalAccel,1772042138336,6567087106239917,4.019344,4.7659044,7.6271224,0.0,0.0,0.0,3
UncalMag,1772042138340,6567087110699501,61.162502,-21.9375,-229.425,90.810165,-16.149149,-220.26883,3
UncalGyro,1772042138333,6567087103739917,-0.046731155,-0.13362667,-0.010384701,0.0022210346,0.002246409,-0.0031306786,3
GameRotationVector,1772042138333,6567087103739917,0.328525,0.044338595,0.7026634,0.6295789
OrientationDeg,1772042138333,6567087103739917,76.0,-27.0,-28.0,3
UncalGyro,1772042138343,6567087113086063,-0.07101303,-0.14828743,-0.016493348,0.0022210346,0.002246409,-0.0031306786,3
UncalAccel,1772042138345,6567087115586063,4.086343,4.7084765,7.60798,0.0,0.0,0.0,3
UncalMag,1772042138350,6567087120699501,61.312504,-22.050001,-229.12502,90.810165,-16.149149,-220.26883,3
GameRotationVector,1772042138343,6567087113086063,0.32887816,0.04376425,0.70243794,0.62968624
OrientationDeg,1772042138343,6567087113086063,76.0,-27.0,-28.0,3
UncalGyro,1772042138352,6567087122432157,-0.08689552,-0.1385136,-0.023823727,0.0022210346,0.002246409,-0.0031306786,3
UncalAccel,1772042138354,6567087124932157,4.0767717,4.670192,7.665407,0.0,0.0,0.0,3
GameRotationVector,1772042138352,6567087122432157,0.32916966,0.043080546,0.7021836,0.62986475
UncalMag,1772042138360,6567087130699501,61.443752,-22.2,-229.21877,90.810165,-16.149149,-220.26883,3
OrientationDeg,1772042138352,6567087122432157,76.0,-27.0,-28.0,3
UncalGyro,1772042138361,6567087131778251,-0.09422589,-0.12018765,-0.027488915,0.0022210346,0.002246409,-0.0031306786,3
UncalAccel,1772042138364,6567087134278251,4.0719857,4.679763,7.756335,0.0,0.0,0.0,3
UncalMag,1772042138370,6567087140699501,61.350002,-22.087502,-229.20001,90.810165,-16.149149,-220.26883,3
UncalGyro,1772042138371,6567087141124397,-0.08811724,-0.09453133,-0.028710645,0.0022210346,0.002246409,-0.0031306786,3
UncalAccel,1772042138373,6567087143624397,4.110271,4.6989055,7.789834,0.0,0.0,0.0,3
GameRotationVector,1772042138361,6567087131778251,0.32934046,0.042222712,0.7015924,0.630492
GameRotationVector,1772042138371,6567087141124397,0.3293482,0.041815463,0.70169824,0.6303973
UncalMag,1772042138380,6567087150699501,61.500004,-22.125,-229.03127,90.810165,-16.149149,-220.26883,3
OrientationDeg,1772042138361,6567087131778251,76.0,-27.0,-28.0,3
OrientationDeg,1772042138371,6567087141124397,76.0,-27.0,-28.0,3
UncalGyro,1772042138380,6567087150470490,-0.066126116,-0.067653276,-0.029932374,0.0022210346,0.002246409,-0.0031306786,3
UncalAccel,1772042138382,6567087152970490,4.1054854,4.718048,7.780263,0.0,0.0,0.0,3
GameRotationVector,1772042138380,6567087150470490,0.32936794,0.041363616,0.70147324,0.63066715
OrientationDeg,1772042138380,6567087150470490,76.0,-27.0,-28.0,3
UncalMag,1772042138390,6567087160699501,61.7625,-22.050001,-228.88126,90.810165,-16.149149,-220.26883,3
UncalGyro,1772042138389,6567087159816584,-0.040622506,-0.034819294,-0.023823727,0.0022210346,0.002246409,-0.0031306786,3
OrientationDeg,1772042138389,6567087159816584,76.0,-27.0,-28.0,3
GameRotationVector,1772042138389,6567087159816584,0.32937014,0.041087992,0.7012742,0.63090533
UncalAccel,1772042138392,6567087162316584,4.1150565,4.7132626,7.780263,0.0,0.0,0.0,3
UncalMag,1772042138400,6567087170699501,61.7625,-21.9375,-228.46877,90.810165,-16.149149,-220.26883,3
UncalGyro,1772042138399,6567087169162730,-0.013744458,-0.0030543238,-0.016493348,0.0022210346,0.002246409,-0.0031306786,3
UncalAccel,1772042138401,6567087171662730,4.1150565,4.7084765,7.7946196,0.0,0.0,0.0,3
OrientationDeg,1772042138399,6567087169162730,76.0,-27.0,-28.0,3
GameRotationVector,1772042138399,6567087169162730,0.32935235,0.04097334,0.7011392,0.63107204
UncalMag,1772042138410,6567087180699501,62.006252,-22.03125,-228.43126,90.810165,-16.149149,-220.26883,3
UncalGyro,1772042138408,6567087178508824,0.0058032153,0.01527162,-0.01282816,0.0022210346,0.002246409,-0.0031306786,3
UncalAccel,1772042138411,6567087181008824,4.138985,4.7132626,7.722835,0.0,0.0,0.0,3
OrientationDeg,1772042138408,6567087178508824,76.0,-27.0,-28.0,3
GameRotationVector,1772042138408,6567087178508824,0.32932112,0.040985476,0.70107883,0.6311547
UncalMag,1772042138420,6567087190699501,62.193752,-21.88125,-228.3,90.810165,-16.149149,-220.26883,3
UncalGyro,1772042138417,6567087187854917,0.016798781,0.026267186,-0.007941242,0.0022210346,0.002246409,-0.0031306786,3
UncalAccel,1772042138420,6567087190354917,4.0911283,4.7084765,7.7276206,0.0,0.0,0.0,3
OrientationDeg,1772042138417,6567087187854917,76.0,-27.0,-28.0,3
GameRotationVector,1772042138417,6567087187854917,0.32933864,0.041060522,0.70105535,0.6311668
UncalMag,1772042138430,6567087200699501,61.968754,-21.900002,-228.33751,90.810165,-16.149149,-220.26883,3
UncalGyro,1772042138427,6567087197201063,0.01802051,0.033597562,-0.0018325944,0.0022210346,0.002246409,-0.0031306786,3
UncalAccel,1772042138429,6567087199701063,4.0959144,4.6845484,7.732406,0.0,0.0,0.0,3
GameRotationVector,1772042138427,6567087197201063,0.32930675,0.04118241,0.70107526,0.63115335
OrientationDeg,1772042138427,6567087197201063,76.0,-27.0,-28.0,3
UncalMag,1772042138440,6567087210699501,61.875004,-21.75,-228.39375,90.810165,-16.149149,-220.26883,3
UncalGyro,1772042138436,6567087206547157,0.014355322,0.04214967,0.0030543238,0.0022210346,0.002246409,-0.0031306786,3
UncalAccel,1772042138439,6567087209047157,4.0719857,4.679763,7.756335,0.0,0.0,0.0,3
GameRotationVector,1772042138436,6567087206547157,0.32922736,0.04129497,0.7011375,0.6311183
OrientationDeg,1772042138436,6567087206547157,77.0,-27.0,-28.0,3
UncalMag,1772042138450,6567087220699501,61.95,-21.91875,-228.52501,90.810165,-16.149149,-220.26883,3
UncalGyro,1772042138445,6567087215893303,0.010690134,0.04703659,0.0042760535,0.0022210346,0.002246409,-0.0031306786,3
UncalAccel,1772042138448,6567087218393303,4.057629,4.7228336,7.7611203,0.0,0.0,0.0,3
OrientationDeg,1772042138445,6567087215893303,77.0,-27.0,-28.0,3
GameRotationVector,1772042138445,6567087215893303,0.32909656,0.041423157,0.7012285,0.63107705
UncalMag,1772042138460,6567087230699501,61.818752,-22.0125,-228.63751,90.810165,-16.149149,-220.26883,3
UncalGyro,1772042138455,6567087225239397,0.0058032153,0.04092794,0.005497783,0.0022210346,0.002246409,-0.0031306786,3
OrientationDeg,1772042138455,6567087225239397,77.0,-27.0,-28.0,3
GameRotationVector,1772042138455,6567087225239397,0.32898062,0.041555766,0.7013207,0.63102627
UncalAccel,1772042138457,6567087227739397,4.0145583,4.7515473,7.7754774,0.0,0.0,0.0,3
UncalGyro,1772042138464,6567087234585490,0.0009162972,0.021380268,0.005497783,0.0022210346,0.002246409,-0.0031306786,3
UncalMag,1772042138470,6567087240699501,61.818752,-22.06875,-228.69376,90.810165,-16.149149,-220.26883,3
UncalAccel,1772042138467,6567087237085490,4.043272,4.746762,7.7706914,0.0,0.0,0.0,3
GameRotationVector,1772042138464,6567087234585490,0.3288979,0.04166439,0.7013988,0.6309755
OrientationDeg,1772042138464,6567087234585490,77.0,-27.0,-28.0,3
UncalGyro,1772042138473,6567087243931584,-0.0051923506,-0.0018325944,0.0018325944,0.0022210346,0.002246409,-0.0031306786,3
UncalMag,1772042138480,6567087250699501,61.781254,-22.050001,-229.12502,90.810165,-16.149149,-220.26883,3
UncalAccel,1772042138476,6567087246431584,4.057629,4.7371907,7.7850485,0.0,0.0,0.0,3
OrientationDeg,1772042138473,6567087243931584,77.0,-27.0,-28.0,3
GameRotationVector,1772042138473,6567087243931584,0.32888597,0.04167978,0.7014481,0.6309259
UncalAccel,1772042138485,6567087255777730,4.0480576,4.6989055,7.780263,0.0,0.0,0.0,3
UncalMag,1772042138490,6567087260699501,61.74375,-21.956251,-229.08751,90.810165,-16.149149,-220.26883,3
UncalGyro,1772042138483,6567087253277730,-0.012522728,-0.018936807,-0.0006108648,0.0022210346,0.002246409,-0.0031306786,3
GameRotationVector,1772042138483,6567087253277730,0.32890406,0.04160772,0.70146286,0.6309047
OrientationDeg,1772042138483,6567087253277730,77.0,-27.0,-28.0,3
GameRotationVector,1772042138492,6567087262623824,0.32889688,0.041480187,0.70145166,0.6309293
UncalAccel,1772042138495,6567087265123824,4.043272,4.679763,7.8281193,0.0,0.0,0.0,3
UncalGyro,1772042138492,6567087262623824,-0.017409647,-0.020158539,0.0006108648,0.0022210346,0.002246409,-0.0031306786,3
UncalMag,1772042138500,6567087270699501,61.518753,-22.275002,-228.975,90.810165,-16.149149,-220.26883,3
OrientationDeg,1772042138492,6567087262623824,77.0,-27.0,-28.0,3
UncalAccel,1772042138504,6567087274469970,4.0384865,4.703691,7.87119,0.0,0.0,0.0,3
UncalGyro,1772042138501,6567087271969970,-0.014966187,-0.01282816,0.0006108648,0.0022210346,0.002246409,-0.0031306786,3
GameRotationVector,1772042138501,6567087271969970,0.32884115,0.04136306,0.70144355,0.6309751
UncalMag,1772042138510,6567087280699501,61.631252,-22.237501,-228.90001,90.810165,-16.149149,-220.26883,3
OrientationDeg,1772042138501,6567087271969970,77.0,-27.0,-28.0,3
UncalGyro,1772042138511,6567087281316063,-0.00763581,-0.0042760535,0.0006108648,0.0022210346,0.002246409,-0.0031306786,3
UncalAccel,1772042138513,6567087283816063,4.0719857,4.7084765,7.885547,0.0,0.0,0.0,3
GameRotationVector,1772042138511,6567087281316063,0.3287667,0.04130574,0.70143855,0.6310232
UncalMag,1772042138520,6567087290699501,61.48125,-22.21875,-229.14375,90.810165,-16.149149,-220.26883,3
OrientationDeg,1772042138511,6567087281316063,77.0,-27.0,-28.0,3
UncalGyro,1772042138520,6567087290662157,0.004581486,-0.0042760535,-0.0018325944,0.0022210346,0.002246409,-0.0031306786,3
UncalAccel,1772042138523,6567087293162157,4.0719857,4.703691,7.8424764,0.0,0.0,0.0,3
GameRotationVector,1772042138520,6567087290662157,0.32873762,0.041288365,0.7014497,0.6310271
OrientationDeg,1772042138520,6567087290662157,77.0,-27.0,-28.0,3
UncalMag,1772042138530,6567087300699501,61.443752,-22.10625,-229.18126,90.810165,-16.149149,-220.26883,3
UncalGyro,1772042138530,6567087300008303,0.013133593,-0.007941242,-0.005497783,0.0022210346,0.002246409,-0.0031306786,3
UncalAccel,1772042138532,6567087302508303,4.0767717,4.7084765,7.813762,0.0,0.0,0.0,3
GameRotationVector,1772042138530,6567087300008303,0.32876393,0.041295417,0.7014419,0.6310216
OrientationDeg,1772042138530,6567087300008303,77.0,-27.0,-28.0,3
UncalMag,1772042138540,6567087310699501,61.443752,-21.993752,-228.975,90.810165,-16.149149,-220.26883,3
UncalGyro,1772042138539,6567087309354397,0.015577052,-0.01282816,-0.007941242,0.0022210346,0.002246409,-0.0031306786,3
UncalAccel,1772042138541,6567087311854397,4.1054854,4.703691,7.813762,0.0,0.0,0.0,3
OrientationDeg,1772042138539,6567087309354397,77.0,-27.0,-28.0,3
GameRotationVector,1772042138539,6567087309354397,0.32883024,0.04130321,0.7014172,0.6310139
Status,,49,0,1,8,1575420000,13.60,287.0,12.0,1,1,0,10.1
Status,,49,1,1,10,1575420000,14.90,10.0,37.0,0,1,0,11.4
Status,,49,2,1,18,1575420000,21.20,139.0,41.0,1,1,0,17.7
Status,,49,3,1,23,1575420000,25.10,59.0,30.0,1,1,0,21.6
Status,,49,4,1,25,1575420000,25.80,115.0,11.0,1,1,0,22.3
Status,,49,5,1,27,1575420000,14.80,259.0,27.0,1,1,0,11.3
Status,,49,6,1,32,1575420000,18.30,330.0,53.0,1,1,0,14.799999
Status,,49,7,1,2,1575420000,0.00,324.0,5.0,0,1,0,0.0
Status,,49,8,1,24,1575420000,0.00,0.0,0.0,0,1,0,0.0
Status,,49,9,1,26,1575420000,0.00,197.0,5.0,0,1,0,0.0
Status,,49,10,1,28,1575420000,0.00,182.0,51.0,0,1,0,0.0
Status,,49,11,1,31,1575420000,0.00,200.0,21.0,0,1,0,0.0
Status,,49,12,4,195,1575420000,21.50,124.0,22.0,1,1,0,18.0
Status,,49,13,3,2,1599750000,17.90,305.0,30.0,1,1,0,13.9
Status,,49,14,3,12,1601437400,21.70,140.0,19.0,1,1,0,17.7
Status,,49,15,3,11,1602000000,24.90,83.0,17.0,1,1,0,20.9
Status,,49,16,3,13,1600875000,0.00,182.0,1.0,0,1,0,0.0
Status,,49,17,3,1,1602562600,0.00,3.0,26.0,0,1,0,0.0
Status,,49,18,3,24,1603125000,0.00,296.0,68.0,0,1,0,0.0
Status,,49,19,3,23,1603687600,0.00,166.0,35.0,0,1,0,0.0
Status,,49,20,3,3,1604812500,0.00,256.0,3.0,0,1,0,0.0
Status,,49,21,5,26,1561098000,29.10,114.0,36.0,0,1,0,24.8
Status,,49,22,5,21,1561098000,18.00,35.0,22.0,0,1,0,13.7
Status,,49,23,5,10,1561098000,17.70,172.0,25.0,0,1,0,13.400001
Status,,49,24,5,9,1561098000,15.60,129.0,57.0,1,1,0,11.3
Status,,49,25,5,3,1561098000,23.20,106.0,49.0,1,1,0,18.900002
Status,,49,26,5,1,1561098000,26.60,94.0,14.0,0,1,0,22.3
Status,,49,27,5,2,1561098000,0.00,144.0,76.0,0,1,0,0.0
Status,,49,28,5,5,1561098000,0.00,242.0,64.0,0,1,0,0.0
Status,,49,29,5,6,1561098000,0.00,104.0,58.0,0,1,0,0.0
Status,,49,30,5,7,1561098000,0.00,161.0,17.0,0,1,0,0.0
Status,,49,31,5,8,1561098000,0.00,43.0,30.0,0,1,0,0.0
Status,,49,32,5,11,1561098000,0.00,273.0,61.0,0,1,0,0.0
Status,,49,33,5,12,1561098000,0.00,174.0,43.0,0,1,0,0.0
Status,,49,34,5,13,1561098000,0.00,33.0,36.0,0,1,0,0.0
Status,,49,35,5,14,1561098000,0.00,306.0,30.0,0,1,0,0.0
Status,,49,36,5,16,1561098000,0.00,90.0,55.0,0,1,0,0.0
Status,,49,37,5,24,1561098000,0.00,170.0,26.0,0,1,0,0.0
Status,,49,38,6,9,1575420000,11.40,34.0,12.0,1,1,0,7.0999994
Status,,49,39,6,11,1575420000,19.40,135.0,19.0,0,1,0,15.099999
Status,,49,40,6,25,1575420000,19.00,160.0,10.0,1,1,0,14.7
Status,,49,41,6,34,1575420000,14.90,340.0,50.0,1,1,0,10.599999
Status,,49,42,6,36,1575420000,19.60,105.0,66.0,1,1,0,15.3
Status,,49,43,6,2,1575420000,0.00,209.0,4.0,0,1,0,0.0
Status,,49,44,6,3,1575420000,0.00,261.0,47.0,0,1,0,0.0
Status,,49,45,6,5,1575420000,0.00,357.0,55.0,0,1,0,0.0
Status,,49,46,6,8,1575420000,0.00,232.0,4.0,0,1,0,0.0
Status,,49,47,6,15,1575420000,0.00,325.0,2.0,0,1,0,0.0
Status,,49,48,6,16,1575420000,0.00,115.0,3.0,0,1,0,0.0
UncalMag,1772042138550,6567087320699501,61.10625,-22.10625,-228.84377,90.810165,-16.149149,-220.26883,3
UncalGyro,1772042138548,6567087318700490,0.011911863,-0.0140498895,-0.011606431,0.0022210346,0.002246409,-0.0031306786,3
UncalAccel,1772042138551,6567087321200490,4.0624146,4.670192,7.8233337,0.0,0.0,0.0,3
GameRotationVector,1772042138548,6567087318700490,0.32889953,0.041285053,0.7013882,0.6310113
OrientationDeg,1772042138548,6567087318700490,77.0,-27.0,-28.0,3
UncalMag,1772042138560,6567087330699501,61.068752,-21.900002,-228.56252,90.810165,-16.149149,-220.26883,3
UncalGyro,1772042138558,6567087328046636,0.010690134,-0.011606431,-0.016493348,0.0022210346,0.002246409,-0.0031306786,3
UncalAccel,1772042138560,6567087330546636,4.0672,4.718048,7.8233337,0.0,0.0,0.0,3
OrientationDeg,1772042138558,6567087328046636,77.0,-27.0,-28.0,3
GameRotationVector,1772042138558,6567087328046636,0.3289172,0.041278422,0.7013514,0.6310434
UncalMag,1772042138570,6567087340699501,61.050003,-21.975,-228.225,90.810165,-16.149149,-220.26883,3
OrientationDeg,1772042138567,6567087337392730,77.0,-27.0,-28.0,3
GameRotationVector,1772042138567,6567087337392730,0.32896802,0.04128356,0.7012936,0.63108087
UncalAccel,1772042138569,6567087339892730,4.0241294,4.7515473,7.7946196,0.0,0.0,0.0,3
UncalGyro,1772042138567,6567087337392730,0.010690134,-0.01527162,-0.016493348,0.0022210346,0.002246409,-0.0031306786,3
UncalMag,1772042138580,6567087350699501,60.91875,-21.91875,-228.31876,90.810165,-16.149149,-220.26883,3
UncalGyro,1772042138576,6567087346738824,0.008246674,-0.022601997,-0.011606431,0.0022210346,0.002246409,-0.0031306786,3
UncalAccel,1772042138579,6567087349238824,4.043272,4.703691,7.7850485,0.0,0.0,0.0,3
UncalAccel,1772042138588,6567087358584970,4.086343,4.6893344,7.765906,0.0,0.0,0.0,3
UncalGyro,1772042138586,6567087356084970,0.0033597562,-0.031154104,-0.005497783,0.0022210346,0.002246409,-0.0031306786,3
UncalMag,1772042138590,6567087360699501,61.050003,-21.825,-228.28127,90.810165,-16.149149,-220.26883,3
UncalMag,1772042138600,6567087370699501,60.956253,-21.806252,-228.01875,90.810165,-16.149149,-220.26883,3
UncalGyro,1772042138595,6567087365431063,-0.0027488915,-0.031154104,-0.0030543238,0.0022210346,0.002246409,-0.0031306786,3
UncalAccel,1772042138597,6567087367931063,4.1150565,4.7132626,7.756335,0.0,0.0,0.0,3
OrientationDeg,1772042138576,6567087346738824,77.0,-27.0,-28.0,3
GameRotationVector,1772042138576,6567087346738824,0.32904267,0.04129437,0.7012231,0.63111955
OrientationDeg,1772042138586,6567087356084970,77.0,-27.0,-28.0,3
GameRotationVector,1772042138586,6567087356084970,0.32912526,0.041218568,0.7011714,0.63113886
OrientationDeg,1772042138595,6567087365431063,77.0,-27.0,-28.0,3
GameRotationVector,1772042138595,6567087365431063,0.32921353,0.04108873,0.7011285,0.63114893
Raw,1772042137424,712310282000000,18,,-1455365045142047772,-0.4298834800720215,82.71859405795112,1.9710334326835572,25.553821288952552,1066,23,0.0,16399,323755349086204,40,25.1,32.89226150512695,0.7999999523162842,16,0.0,0.0,1575420000,,,,0,,1,0.34,21.6,0.0,0.0,,,C,6567086732545845,,-13141427.173721477,18506243.95294811,13644837.883686682,-1563.66010625533,749.637167871592,-2562.228541646816,185005.5860929353,0.0011380828218534589,0.000000016763806343078613,0.0,-0.00000011920928955078125,0.000000059604644775390625,122880.0,-32768.0,-196608.0,-65536.0
Raw,1772042137424,712310282000000,18,,-1455365045142047772,-0.4298834800720215,82.71859405795112,1.9710334326835572,25.553821288952552,1066,25,0.0,16399,323755342655438,35,25.8,-223.19544982910156,0.8104999661445618,16,0.0,0.0,1575420000,,,,0,,1,0.34,22.3,0.0,0.0,,,C,6567086732545845,,-18364126.766378872,17606414.468377527,-7550657.212495326,-947.1079379433285,207.16787302982416,2962.370590630526,132249.45896170824,-0.0008725861553102732,0.000000016763806343078613,0.0,-0.00000011920928955078125,0.000000059604644775390625,122880.0,-32768.0,-196608.0,-65536.0
Raw,1772042137424,712310282000000,18,,-1455365045142047772,-0.4298834800720215,82.71859405795112,1.9710334326835572,25.553821288952552,1066,195,0.0,16399,323755299347793,61,21.5,-66.90725708007812,1.7949999570846558,16,0.0,0.0,1575420000,,,,0,,4,0.34,18.0,0.0,0.0,,,C,6567086732545845,,,,,,,,,,0.000000016763806343078613,0.0,-0.00000011920928955078125,0.000000059604644775390625,122880.0,-32768.0,-196608.0,-65536.0
Raw,1772042137424,712310282000000,18,,-1455365045142047772,-0.4298834800720215,82.71859405795112,1.9710334326835572,25.553821288952552,1066,11,0.0,49359,75337347892088,46,24.9,-131.2948760986328,0.8629999756813049,16,0.0,0.0,1602000000,,,,0,,3,-0.35,20.9,3790.57275390625,33.12796401977539,,,C,6567086732545845,,-18418222.60384231,16809632.836425167,5432903.012994579,614.4217381757617,-447.1139349652849,3468.9103507608293,7766.814158707021,-0.0005453193043649662,0.000000016763806343078613,0.0,-0.00000011920928955078125,0.000000059604644775390625,122880.0,-32768.0,-196608.0,-65536.0
Raw,1772042137424,712310282000000,18,,-1455365045142047772,-0.4298834800720215,82.71859405795112,1.9710334326835572,25.553821288952552,1066,26,0.0,16399,323741344767326,27,29.1,-220.61497497558594,0.5975000262260437,16,0.0,0.0,1561098000,,,,0,,5,-0.01,24.8,-1604.8402099609375,30.81117057800293,,,I,6567086732545845,,-12046956.476732647,24970598.416742723,-3044611.3443778334,-327.2217682028229,209.16379582361955,3039.306745400307,-180468.1650216579,-0.0017218993161804974,0.000000016763806343078613,0.0,-0.00000011920928955078125,0.000000059604644775390625,122880.0,-32768.0,-196608.0,-65536.0
UncalGyro,1772042138604,6567087374777157,-0.00763581,-0.028710645,-0.0042760535,0.0022210346,0.002246409,-0.0031306786,3
UncalMag,1772042138610,6567087380699501,61.143753,-21.6375,-228.1125,90.810165,-16.149149,-220.26883,3
UncalAccel,1772042138607,6567087377277157,4.1054854,4.732405,7.746763,0.0,0.0,0.0,3
UncalGyro,1772042138614,6567087384123303,-0.008857539,-0.037110034,-0.005497783,0.0022210346,0.002246409,-0.0031306786,3
UncalMag,1772042138620,6567087390699501,61.312504,-21.768751,-228.225,90.810165,-16.149149,-220.26883,3
UncalAccel,1772042138616,6567087386623303,4.0959144,4.703691,7.751549,0.0,0.0,0.0,3
UncalGyro,1772042138623,6567087393469397,-0.010079269,-0.049480047,-0.005497783,0.0022210346,0.002246409,-0.0031306786,3
UncalMag,1772042138630,6567087400699501,61.65,-21.525002,-228.58125,90.810165,-16.149149,-220.26883,3
UncalAccel,1772042138625,6567087395969397,4.1294136,4.6893344,7.765906,0.0,0.0,0.0,3
UncalGyro,1772042138632,6567087402815490,-0.010079269,-0.054366965,-0.0067195124,0.0022210346,0.002246409,-0.0031306786,3
UncalAccel,1772042138635,6567087405315490,4.086343,4.7132626,7.7276206,0.0,0.0,0.0,3
UncalMag,1772042138640,6567087410699501,61.631252,-21.65625,-228.4875,90.810165,-16.149149,-220.26883,3
UncalGyro,1772042138642,6567087412161636,-0.008857539,-0.04459313,-0.005497783,0.0022210346,0.002246409,-0.0031306786,3
UncalAccel,1772042138644,6567087414661636,4.110271,4.6989055,7.746763,0.0,0.0,0.0,3
UncalMag,1772042138650,6567087420699501,61.36875,-21.6,-228.80626,90.810165,-16.149149,-220.26883,3
UncalGyro,1772042138651,6567087421507730,-0.00763581,-0.037110034,-0.007941242,0.0022210346,0.002246409,-0.0031306786,3
UncalAccel,1772042138654,6567087424007730,4.124628,4.703691,7.8089767,0.0,0.0,0.0,3
UncalMag,1772042138660,6567087430699501,61.575,-21.618752,-228.90001,90.810165,-16.149149,-220.26883,3
UncalAccel,1772042138663,6567087433353824,4.0815573,4.7084765,7.818548,0.0,0.0,0.0,3
UncalGyro,1772042138660,6567087430853824,-0.003970621,-0.03970621,-0.010384701,0.0022210346,0.002246409,-0.0031306786,3
UncalMag,1772042138670,6567087440699501,61.312504,-21.525002,-228.93752,90.810165,-16.149149,-220.26883,3
UncalAccel,1772042138672,6567087442699970,4.086343,4.7132626,7.8376904,0.0,0.0,0.0,3
UncalGyro,1772042138670,6567087440199970,-0.0027488915,-0.046883874,-0.010384701,0.0022210346,0.002246409,-0.0031306786,3
UncalMag,1772042138680,6567087450699501,61.55625,-21.46875,-229.06876,90.810165,-16.149149,-220.26883,3
UncalGyro,1772042138679,6567087449546063,-0.0015271619,-0.059101168,-0.007941242,0.0022210346,0.002246409,-0.0031306786,3
UncalAccel,1772042138682,6567087452046063,4.1054854,4.7132626,7.818548,0.0,0.0,0.0,3
UncalMag,1772042138690,6567087460699501,61.537502,-21.6375,-228.95625,90.810165,-16.149149,-220.26883,3
UncalAccel,1772042138691,6567087461392209,4.110271,4.727619,7.780263,0.0,0.0,0.0,3
UncalGyro,1772042138688,6567087458892209,-0.003970621,-0.067653276,-0.0067195124,0.0022210346,0.002246409,-0.0031306786,3
UncalMag,1772042138700,6567087470699501,61.36875,-21.487501,-229.1625,90.810165,-16.149149,-220.26883,3
UncalAccel,1772042138700,6567087470738303,4.1294136,4.727619,7.8233337,0.0,0.0,0.0,3
UncalGyro,1772042138698,6567087468238303,-0.00641408,-0.07620538,-0.0067195124,0.0022210346,0.002246409,-0.0031306786,3
UncalMag,1772042138710,6567087480699501,61.218754,-21.5625,-229.18126,90.810165,-16.149149,-220.26883,3
UncalAccel,1772042138710,6567087480084397,4.1054854,4.732405,7.7850485,0.0,0.0,0.0,3
UncalGyro,1772042138707,6567087477584397,-0.008857539,-0.08842268,-0.009162972,0.0022210346,0.002246409,-0.0031306786,3
UncalMag,1772042138720,6567087490699501,61.350002,-21.46875,-229.33125,90.810165,-16.149149,-220.26883,3
UncalAccel,1772042138719,6567087489430542,4.1054854,4.6893344,7.789834,0.0,0.0,0.0,3
UncalGyro,1772042138716,6567087486930542,-0.010079269,-0.09697478,-0.007941242,0.0022210346,0.002246409,-0.0031306786,3
UncalMag,1772042138730,6567087500699501,61.3875,-21.431252,-229.33125,90.810165,-16.149149,-220.26883,3
UncalGyro,1772042138726,6567087496276636,-0.012522728,-0.099418245,-0.005497783,0.0022210346,0.002246409,-0.0031306786,3
UncalAccel,1772042138728,6567087498776636,4.033701,4.703691,7.804191,0.0,0.0,0.0,3
UncalMag,1772042138740,6567087510699501,61.48125,-21.09375,-229.2375,90.810165,-16.149149,-220.26883,3
UncalGyro,1772042138735,6567087505622730,-0.019853106,-0.10430516,0.0006108648,0.0022210346,0.002246409,-0.0031306786,3
UncalAccel,1772042138738,6567087508122730,4.0719857,4.6845484,7.813762,0.0,0.0,0.0,3
UncalGyro,1772042138744,6567087514968876,-0.032070402,-0.12140937,-0.005497783,0.0022210346,0.002246409,-0.0031306786,3
UncalMag,1772042138750,6567087520699501,61.687504,-21.243752,-229.35,90.810165,-16.149149,-220.26883,3
UncalAccel,1772042138747,6567087517468876,4.043272,4.7132626,7.7754774,0.0,0.0,0.0,3
UncalGyro,1772042138754,6567087524314970,-0.052687086,-0.15195261,-0.009162972,0.0022210346,0.002246409,-0.0031306786,3
UncalMag,1772042138760,6567087530699501,61.74375,-21.16875,-229.18126,90.810165,-16.149149,-220.26883,3
UncalAccel,1772042138756,6567087526814970,4.1294136,4.732405,7.746763,0.0,0.0,0.0,3
UncalAccel,1772042138766,6567087536161063,4.205984,4.679763,7.655836,0.0,0.0,0.0,3
UncalGyro,1772042138763,6567087533661063,-0.07345649,-0.18249585,-0.020158539,0.0022210346,0.002246409,-0.0031306786,3
UncalMag,1772042138770,6567087540699501,61.893753,-21.150002,-229.38751,90.810165,-16.149149,-220.26883,3
UncalGyro,1772042138773,6567087543007209,-0.08811724,-0.1886045,-0.034819294,0.0022210346,0.002246409,-0.0031306786,3
UncalAccel,1772042138775,6567087545507209,4.2107697,4.66062,7.6749787,0.0,0.0,0.0,3
UncalMag,1772042138780,6567087550699501,61.987503,-21.150002,-229.03127,90.810165,-16.149149,-220.26883,3
UncalAccel,1772042138784,6567087554853303,4.2203407,4.6558347,7.737192,0.0,0.0,0.0,3
UncalGyro,1772042138782,6567087552353303,-0.09789108,-0.18371758,-0.04092794,0.0022210346,0.002246409,-0.0031306786,3
UncalMag,1772042138790,6567087560699501,61.987503,-21.075,-229.03127,90.810165,-16.149149,-220.26883,3
UncalGyro,1772042138791,6567087561699397,-0.09789108,-0.17027856,-0.045814857,0.0022210346,0.002246409,-0.0031306786,3
UncalAccel,1772042138794,6567087564199397,4.272983,4.651049,7.7419777,0.0,0.0,0.0,3
UncalMag,1772042138800,6567087570699501,61.7625,-21.225,-228.82501,90.810165,-16.149149,-220.26883,3
UncalGyro,1772042138801,6567087571045542,-0.08811724,-0.14950916,-0.049480047,0.0022210346,0.002246409,-0.0031306786,3
UncalAccel,1772042138803,6567087573545542,4.2634115,4.66062,7.765906,0.0,0.0,0.0,3
UncalMag,1772042138810,6567087580699501,61.875004,-21.300001,-228.58125,90.810165,-16.149149,-220.26883,3
UncalGyro,1772042138810,6567087580391636,-0.0697913,-0.117744185,-0.04459313,0.0022210346,0.002246409,-0.0031306786,3
UncalAccel,1772042138812,6567087582891636,4.2538404,4.6654058,7.8089767,0.0,0.0,0.0,3
UncalMag,1772042138820,6567087590699501,61.631252,-21.75,-228.6,90.810165,-16.149149,-220.26883,3
UncalGyro,1772042138819,6567087589737782,-0.044287696,-0.09453133,-0.034819294,0.0022210346,0.002246409,-0.0031306786,3
UncalAccel,1772042138822,6567087592237782,4.2681975,4.66062,7.847262,0.0,0.0,0.0,3
UncalMag,1772042138830,6567087600699501,61.350002,-21.69375,-228.7875,90.810165,-16.149149,-220.26883,3
UncalAccel,1772042138831,6567087601583876,4.2538404,4.679763,7.7611203,0.0,0.0,0.0,3
UncalGyro,1772042138829,6567087599083876,-0.022296565,-0.08842268,-0.022601997,0.0022210346,0.002246409,-0.0031306786,3
UncalMag,1772042138840,6567087610699501,61.331253,-21.69375,-229.03127,90.810165,-16.149149,-220.26883,3
UncalAccel,1772042138840,6567087610929970,4.28734,4.6558347,7.756335,0.0,0.0,0.0,3
UncalGyro,1772042138838,6567087608429970,-0.0003054324,-0.07742711,-0.01282816,0.0022210346,0.002246409,-0.0031306786,3
UncalMag,1772042138850,6567087620699501,60.956253,-21.825,-228.71251,90.810165,-16.149149,-220.26883,3
UncalAccel,1772042138850,6567087620276115,4.282554,4.627121,7.7276206,0.0,0.0,0.0,3
UncalGyro,1772042138847,6567087617776115,0.015577052,-0.072540194,-0.005497783,0.0022210346,0.002246409,-0.0031306786,3
UncalMag,1772042138860,6567087630699501,60.9,-21.956251,-228.54376,90.810165,-16.149149,-220.26883,3
UncalGyro,1772042138857,6567087627122209,0.026572619,-0.067653276,-0.0006108648,0.0022210346,0.002246409,-0.0031306786,3
UncalAccel,1772042138859,6567087629622209,4.272983,4.6558347,7.665407,0.0,0.0,0.0,3
UncalMag,1772042138870,6567087640699501,60.9,-21.975,-228.28127,90.810165,-16.149149,-220.26883,3
UncalAccel,1772042138868,6567087638968303,4.3064823,4.69412,7.6749787,0.0,0.0,0.0,3
UncalGyro,1772042138866,6567087636468303,0.031459536,-0.06398808,0.0006108648,0.0022210346,0.002246409,-0.0031306786,3
UncalMag,1772042138880,6567087650699501,61.3875,-21.900002,-228.69376,90.810165,-16.149149,-220.26883,3
UncalGyro,1772042138875,6567087645814449,0.033902995,-0.07009673,0.0006108648,0.0022210346,0.002246409,-0.0031306786,3
UncalAccel,1772042138878,6567087648314449,4.2634115,4.6749773,7.6462646,0.0,0.0,0.0,3
UncalMag,1772042138890,6567087660699501,61.425003,-21.900002,-229.10626,90.810165,-16.149149,-220.26883,3
UncalAccel,1772042138887,6567087657660542,4.301697,4.6414776,7.5936227,0.0,0.0,0.0,3
UncalGyro,1772042138885,6567087655160542,0.032681264,-0.072540194,0.0006108648,0.0022210346,0.002246409,-0.0031306786,3
UncalGyro,1772042138894,6567087664506636,0.026572619,-0.06887501,-0.0006108648,0.0022210346,0.002246409,-0.0031306786,3
UncalAccel,1772042138897,6567087667006636,4.301697,4.6414776,7.564909,0.0,0.0,0.0,3
UncalMag,1772042138900,6567087670699501,61.518753,-21.65625,-229.08751,90.810165,-16.149149,-220.26883,3
UncalGyro,1772042138903,6567087673852782,0.016798781,-0.066431545,-0.005497783,0.0022210346,0.002246409,-0.0031306786,3
UncalAccel,1772042138906,6567087676352782,4.2921257,4.6175494,7.598408,0.0,0.0,0.0,3
UncalMag,1772042138910,6567087680699501,61.48125,-21.806252,-228.75002,90.810165,-16.149149,-220.26883,3
UncalGyro,1772042138913,6567087683198876,0.0070249448,-0.07009673,-0.010384701,0.0022210346,0.002246409,-0.0031306786,3
UncalAccel,1772042138915,6567087685698876,4.2969112,4.6654058,7.6031938,0.0,0.0,0.0,3
UncalMag,1772042138920,6567087690699501,61.406254,-22.06875,-228.43126,90.810165,-16.149149,-220.26883,3
UncalGyro,1772042138922,6567087692545022,-0.0003054324,-0.072540194,-0.016493348,0.0022210346,0.002246409,-0.0031306786,3
UncalAccel,1772042138925,6567087695045022,4.3112683,4.6845484,7.6031938,0.0,0.0,0.0,3
UncalMag,1772042138930,6567087700699501,61.66875,-22.087502,-228.37502,90.810165,-16.149149,-220.26883,3
UncalGyro,1772042138931,6567087701891115,-0.0051923506,-0.06276636,-0.022601997,0.0022210346,0.002246409,-0.0031306786,3
UncalAccel,1772042138934,6567087704391115,4.2969112,4.66062,7.6031938,0.0,0.0,0.0,3
UncalMag,1772042138940,6567087710699501,61.7625,-21.9375,-228.65627,90.810165,-16.149149,-220.26883,3
UncalGyro,1772042138941,6567087711237209,-0.00763581,-0.055435978,-0.025045456,0.0022210346,0.002246409,-0.0031306786,3
UncalAccel,1772042138943,6567087713737209,4.301697,4.679763,7.6366935,0.0,0.0,0.0,3
UncalMag,1772042138950,6567087720699501,61.631252,-22.35,-228.80626,90.810165,-16.149149,-220.26883,3
UncalGyro,1772042138950,6567087720583355,-0.010079269,-0.05299252,-0.026267186,0.0022210346,0.002246409,-0.0031306786,3
UncalAccel,1772042138953,6567087723083355,4.2777686,4.6845484,7.665407,0.0,0.0,0.0,3
UncalMag,1772042138960,6567087730699501,61.425003,-22.5375,-228.80626,90.810165,-16.149149,-220.26883,3
UncalGyro,1772042138959,6567087729929449,-0.008857539,-0.05177079,-0.026267186,0.0022210346,0.002246409,-0.0031306786,3
UncalAccel,1772042138962,6567087732429449,4.3064823,4.6893344,7.6941214,0.0,0.0,0.0,3
UncalMag,1772042138970,6567087740699501,61.443752,-22.425001,-228.75002,90.810165,-16.149149,-220.26883,3
UncalGyro,1772042138969,6567087739275542,-0.00641408,-0.05054906,-0.025045456,0.0022210346,0.002246409,-0.0031306786,3
UncalAccel,1772042138971,6567087741775542,4.316054,4.6845484,7.7036924,0.0,0.0,0.0,3
UncalMag,1772042138980,6567087750699501,61.518753,-22.5375,-228.73126,90.810165,-16.149149,-220.26883,3
UncalGyro,1772042138978,6567087748621688,-0.0015271619,-0.045662142,-0.025045456,0.0022210346,0.002246409,-0.0031306786,3
UncalAccel,1772042138981,6567087751121688,4.316054,4.727619,7.665407,0.0,0.0,0.0,3
UncalMag,1772042138990,6567087760699501,61.987503,-22.29375,-228.69376,90.810165,-16.149149,-220.26883,3
UncalGyro,1772042138987,6567087757967782,-0.0003054324,-0.038331766,-0.023823727,0.0022210346,0.002246409,-0.0031306786,3
UncalAccel,1772042138990,6567087760467782,4.3064823,4.679763,7.6510506,0.0,0.0,0.0,3
UncalMag,1772042139000,6567087770699501,62.081253,-22.125,-228.88126,90.810165,-16.149149,-220.26883,3
UncalGyro,1772042138997,6567087767313876,0.0009162972,-0.032375835,-0.021380268,0.0022210346,0.002246409,-0.0031306786,3
UncalAccel,1772042138999,6567087769813876,4.2921257,4.6654058,7.7276206,0.0,0.0,0.0,3
UncalMag,1772042139010,6567087780699501,62.04375,-21.956251,-228.90001,90.810165,-16.149149,-220.26883,3
UncalGyro,1772042139006,6567087776660022,0.004581486,-0.031154104,-0.016493348,0.0022210346,0.002246409,-0.0031306786,3
UncalAccel,1772042139009,6567087779160022,4.28734,4.679763,7.765906,0.0,0.0,0.0,3
UncalMag,1772042139020,6567087790699501,62.006252,-22.0125,-228.7875,90.810165,-16.149149,-220.26883,3
UncalAccel,1772042139018,6567087788506115,4.3064823,4.6845484,7.765906,0.0,0.0,0.0,3
UncalGyro,1772042139016,6567087786006115,0.010690134,-0.029932374,-0.010384701,0.0022210346,0.002246409,-0.0031306786,3
UncalMag,1772042139030,6567087800699501,61.987503,-21.91875,-228.46877,90.810165,-16.149149,-220.26883,3
UncalGyro,1772042139025,6567087795352261,0.01802051,-0.023823727,-0.005497783,0.0022210346,0.002246409,-0.0031306786,3
UncalAccel,1772042139027,6567087797852261,4.330411,4.7084765,7.732406,0.0,0.0,0.0,3
UncalGyro,1772042139034,6567087804698355,0.022907428,-0.021380268,-0.0042760535,0.0022210346,0.002246409,-0.0031306786,3
UncalAccel,1772042139037,6567087807198355,4.354339,4.6893344,7.7276206,0.0,0.0,0.0,3
UncalMag,1772042139040,6567087810699501,62.025,-21.806252,-228.26251,90.810165,-16.149149,-220.26883,3
UncalGyro,1772042139044,6567087814044449,0.024129158,-0.026267186,-0.0042760535,0.0022210346,0.002246409,-0.0031306786,3
UncalAccel,1772042139046,6567087816544449,4.354339,4.7084765,7.713264,0.0,0.0,0.0,3
UncalMag,1772042139050,6567087820699501,62.025,-21.993752,-227.925,90.810165,-16.149149,-220.26883,3
UncalAccel,1772042139055,6567087825890595,4.3447676,4.6893344,7.655836,0.0,0.0,0.0,3
UncalMag,1772042139060,6567087830699501,61.893753,-21.975,-227.90627,90.810165,-16.149149,-220.26883,3
UncalGyro,1772042139053,6567087823390595,0.02046397,-0.03970621,-0.005497783,0.0022210346,0.002246409,-0.0031306786,3
UncalAccel,1772042139065,6567087835236688,4.3734818,4.679763,7.584051,0.0,0.0,0.0,3
UncalGyro,1772042139062,6567087832736688,0.013133593,-0.046883874,-0.007941242,0.0022210346,0.002246409,-0.0031306786,3
UncalMag,1772042139070,6567087840699501,61.4625,-22.181252,-228.01875,90.810165,-16.149149,-220.26883,3
UncalAccel,1772042139074,6567087844582782,4.3734818,4.6414776,7.521838,0.0,0.0,0.0,3
UncalGyro,1772042139072,6567087842082782,-0.0003054324,-0.05054906,-0.0140498895,0.0022210346,0.002246409,-0.0031306786,3
UncalMag,1772042139080,6567087850699501,61.237503,-22.35,-227.85,90.810165,-16.149149,-220.26883,3
UncalGyro,1772042139081,6567087851428928,-0.013744458,-0.049480047,-0.016493348,0.0022210346,0.002246409,-0.0031306786,3
UncalAccel,1772042139083,6567087853928928,4.3351965,4.6319065,7.564909,0.0,0.0,0.0,3
UncalMag,1772042139090,6567087860699501,61.162502,-22.44375,-227.70001,90.810165,-16.149149,-220.26883,3
UncalGyro,1772042139090,6567087860775022,-0.017409647,-0.0481056,-0.018936807,0.0022210346,0.002246409,-0.0031306786,3
UncalAccel,1772042139093,6567087863275022,4.330411,4.651049,7.584051,0.0,0.0,0.0,3
UncalMag,1772042139100,6567087870699501,61.143753,-22.331251,-227.62502,90.810165,-16.149149,-220.26883,3
UncalGyro,1772042139100,6567087870121167,-0.016187917,-0.045662142,-0.021380268,0.0022210346,0.002246409,-0.0031306786,3
UncalAccel,1772042139102,6567087872621167,4.36391,4.6893344,7.5553374,0.0,0.0,0.0,3
