     4.01           OBSERVATION DATA    M                   RINEX VERSION / TYPE
GnssLogger          Xiaomi 13           20260225 175555 UTC PGM / RUN BY / DATE
Google GnssLogger                                           MARKER NAME
Unknown                                                     MARKER NUMBER
Unknown             Unknown                                 OBSERVER / AGENCY
Unknown             GnssLogger          v3.1.1.2            REC # / TYPE / VERS
Unknown             Unknown                                 ANT # / TYPE
        0.0000        0.0000        0.0000                  ANTENNA: DELTA H/E/N
G    3 C1C D1C S1C                                          SYS / # / OBS TYPES
R    3 C1C D1C S1C                                          SYS / # / OBS TYPES
J    3 C1C D1C S1C                                          SYS / # / OBS TYPES
C    3 C2I D2I S2I                                          SYS / # / OBS TYPES
E    3 C1C D1C S1C                                          SYS / # / OBS TYPES
  2026    02    25    17    55   55.0000000     GPS         TIME OF FIRST OBS
 3 R02 -4 R11  0 R12 -1                                     GLONASS SLOT / FRQ #
Xiaomi 2201116PI (Android 13) HW Year: 2018 HW Model:       COMMENT

                                                            END OF HEADER
> 2026 02 25 17 55 55.4240477  0 5                      
G23  22472891.01324      -172.85024        25.10024
G25  24400786.15924      1172.90024        25.80024
J03  37384091.50323       351.60023        21.50023
R11  22830877.98324       701.60024        24.90024
C26  23767658.06424      1148.80024        29.10024
> 2026 02 25 17 55 56.4240477  0 8                      
G08  24466298.90523       254.85023        19.10023
G23  22472935.38223      -164.95023        23.20023
G25  24400543.92624      1181.55024        24.40024
J03  37384014.15723       357.70023        21.60023
R12  22607635.43123      2635.90023        21.90023
R11  22830729.28624       704.65024        23.70024
C26  23767440.41524      1150.90024        27.40024
C01  40217054.38423       -35.40023        22.60023
> 2026 02 25 17 55 57.4240477  0 7                      
G18  21916707.05122     -2564.70022        17.10022
G23  22472933.88324      -157.80024        24.00024
G25  24400361.05324      1191.40024        24.70024
J03  37383945.50423       370.60023        21.80023
R12  22607135.67723      2656.25023        22.90023
R11  22830613.56624       717.45024        24.90024
C26  23767219.46824      1162.20024        28.10024
> 2026 02 25 17 55 58.4240477  0 8                      
G23  22473001.63623      -170.90023        22.50023
G25  24400113.12424      1178.75024        24.10024
J03  37383902.93423       352.75023        22.90023
R12  22606657.50823      2632.70023        23.40023
R11  22830536.52024       704.65024        23.50024
C26  23766991.92524      1149.45024        28.10024
C03  36871154.70223        53.40023        22.20023
E11  25631367.64523     -2243.40023        20.20023
> 2026 02 25 17 55 59.4240477  0 8                      
G08  24466141.21423       269.40023        19.80023
G25  24399861.29924      1186.85024        25.00024
J03  37383812.69623       363.50023        23.40023
R11  22830432.49224       708.85024        24.60024
C26  23766774.57624      1159.25024        26.80024
C01  40217020.80724       -60.50024        23.50024
E11  25631792.45123     -2231.50023        22.60023
E25  27740165.65423       682.80023        18.20023
> 2026 02 25 17 56 00.4240476  0 7                      
G08  24466053.07523       275.30023        21.50023
G23  22473022.02223      -153.65023        22.40023
G25  24399612.17124      1196.90024        25.90024
J03  37383728.45523       375.65023        22.70023
R12  22605667.59323      2654.25023        22.90023
R11  22830240.02524       723.50024        27.80024
C26  23766544.03524      1175.60024        24.50024
> 2026 02 25 17 56 01.4240477  0 8                      
G23  22473069.98924      -152.35024        24.30024
G25  24399419.40524      1194.50024        26.90024
G32  21424834.86722     -1141.70022        15.00022
J03  37383619.63023       368.45023        21.20023
R12  22605169.03824      2649.80024        24.30024
R11  22830092.82724       711.60024        24.10024
C03  36871181.98323        26.95023        23.40023
E11  25632637.86523     -2226.05023        21.30023
> 2026 02 25 17 56 02.4240477  0 8                      
G23  22473082.28024      -151.25024        23.70024
G25  24399193.66124      1190.90024        25.50024
J03  37383614.23424       366.50024        26.60024
R12  22604709.75624      2646.30024        27.70024
R11  22830006.78624       711.70024        25.20024
C26  23766121.62823      1168.95023        22.30023
C12  23130736.39622     -2599.40022        14.50022
C01  40217045.09024        40.55024        24.10024
> 2026 02 25 17 56 03.4240477  0 5                      
G23  22473141.93923      -155.90023        21.60023
J03  37383544.38224       363.10024        27.20024
R12  22604196.51224      2648.40024        26.30024
R11  22829830.20924       711.70024        28.70024
E11  25633482.08123     -2237.40023        21.50023
> 2026 02 25 17 56 04.4240477  0 6                      
G25  24398748.46923      1181.10023        23.20023
R02  21710317.63122      -574.30022        15.90022
R12  22603707.25024      2634.20024        24.50024
R11  22829707.29424       698.65024        28.90024
C26  23765663.24523      1151.80023        21.70023
C03  36871212.26224       -50.35024        23.60024
> 2026 02 25 17 56 05.4240477  0 5                      
G25  24398512.83224      1195.85024        26.80024
R12  22603266.85523      2648.75023        23.30023
R11  22829572.38724       710.10024        28.00024
C26  23765428.20824      1167.70024        23.70024
C01  40217040.89324       -33.40024        24.00024
> 2026 02 25 17 56 06.4240477  0 8                      
G08  24465779.06522       265.65022        17.30022
G23  22473219.58523      -151.20023        18.70023
G25  24398297.58124      1203.65024        27.60024
R11  22829450.67124       724.80024        28.50024
C26  23765214.45623      1174.00023        22.00023
C07  39460952.62223      -790.60023        18.60023
E11  25634760.69623     -2239.70023        19.50023
E36  23813260.09422      -412.55022        15.20022
> 2026 02 25 17 56 07.4240477  0 4                      
G25  24398040.65924      1219.35024        27.20024
R12  22602178.30923      2676.25023        23.30023
R11  22829287.88424       736.65024        27.30024
C26  23764992.01023      1189.20023        23.10023
> 2026 02 25 17 56 08.4240477  0 7                      
G23  22473257.05923      -128.40023        21.20023
G25  24397838.00024      1211.65024        24.70024
R12  22601679.15424      2676.05024        27.00024
R11  22829173.96324       732.85024        28.70024
C26  23764742.58223      1177.80023        22.70023
C01  40217015.71124        36.85024        26.50024
E11  25635611.80723     -2208.25023        21.30023
> 2026 02 25 17 56 09.4240477  0 7                      
G18  21922549.10622     -2555.65022        13.90022
G23  22473307.42423      -133.50023        21.20023
G25  24397613.15524      1212.75024        24.30024
R12  22601181.19924      2670.65024        24.60024
R11  22829017.47124       731.60024        28.40024
C26  23764527.03223      1181.25023        21.90023
C07  39461392.11823      -767.00023        19.60023
> 2026 02 25 17 56 10.4240477  0 6                      
G18  21923031.47223     -2559.00023        20.90023
G23  22473335.90524      -150.15024        24.20024
R02  21710935.50322      -557.30022        17.30022
R11  22828897.25524       718.05024        24.10024
C26  23764307.28424      1161.60024        26.90024
E11  25636460.81923     -2228.60023        20.10023
> 2026 02 25 17 56 11.4240477  0 7                      
G23  22473357.19024      -158.90024        24.00024
J03  37382987.36822       366.80022        15.40022
R12  22600179.59323      2650.10023        20.60023
R11  22828745.26024       704.45024        26.60024
C26  23764089.63424      1154.50024        29.00024
C01  40217038.49523        17.80023        23.30023
E25  27738573.15722       713.05022        14.90022
> 2026 02 25 17 56 12.4240477  0 7                      
G18  21923985.41223     -2563.75023        20.00023
G23  22473366.48324      -162.05024        24.70024
G25  24396936.82323      1189.75023        19.80023
R12  22599682.53723      2645.05023        22.00023
R11  22828629.54024       709.10024        26.20024
C26  23763859.99324      1155.85024        27.70024
C07  39461857.39623      -789.40023        19.10023
> 2026 02 25 17 56 13.4240477  0 5                      
G23  22473418.34824      -170.15024        25.90024
G25  24396691.29324      1174.30024        24.30024
G32  21427527.60322     -1149.90022        14.20022
R11  22828457.45924       688.35024        26.30024
C26  23763645.04224      1145.90024        26.70024
> 2026 02 25 17 56 14.4240477  0 6                      
G23  22473446.82824      -165.70024        24.90024
G25  24396456.25624      1179.80024        24.60024
R12  22598712.70823      2640.55023        22.30023
R11  22828409.49224       694.90024        26.00024
C26  23763433.68824      1151.30024        24.70024
C01  40217028.00223       -29.65023        23.30023
> 2026 02 25 17 56 15.4240477  0 6                      
G23  22473491.19724      -158.05024        25.50024
J03  37382705.26323       359.30023        20.70023
R12  22598230.04224      2647.95024        25.00024
R11  22828320.15423       709.40023        22.60023
C26  23763186.06023      1159.95023        23.20023
E11  25638576.45423     -2243.00023        19.40023
> 2026 02 25 17 56 16.4240477  0 8                      
G08  24465287.40522       255.95022        14.80022
G18  21925912.77823     -2564.75023        17.70023
G23  22473508.58524      -159.10024        25.60024
J03  37382630.91424       360.60024        25.50024
R12  22597728.48923      2649.15023        22.90023
R11  22828076.12323       706.85023        23.20023
C26  23762971.70824      1159.65024        25.10024
E11  25639023.74523     -2236.75023        22.40023
> 2026 02 25 17 56 17.4240477  0 6                      
G23  22473539.46424      -157.65024        25.10024
J03  37382581.44924       364.95024        25.20024
R12  22597244.92423      2648.25023        23.40023
R11  22827948.71124       709.85024        26.20024
C26  23762757.35724      1155.90024        26.00024
C01  40217035.49724       -33.45024        24.30024
> 2026 02 25 17 56 18.4240477  0 9                      
G23  22473552.05523      -142.50023        22.40023
G27  23235886.50222      -943.20022        17.30022
J03  37382502.60324       378.00024        23.50024
R12  22596693.30624      2663.00024        24.30024
R11  22827878.56024       718.60024        26.70024
C26  23762527.11624      1172.45024        26.40024
C07  39462779.25823      -796.45023        17.70023
E11  25639859.56623     -2230.75023        22.10023
E36  23814163.96922      -405.20022        17.10022
> 2026 02 25 17 56 19.4240477  0 7                      
G18  21927406.64423     -2557.00023        19.70023
G23  22473609.31523      -151.35023        21.50023
J03  37382397.97624       362.00024        23.60024
R12  22596191.15424      2646.15024        23.60024
R11  22827670.50424       699.70024        25.60024
C26  23762306.76924      1160.60024        28.00024
E11  25640297.26323     -2230.05023        23.20023
> 2026 02 25 17 56 20.4240477  0 7                      
G23  22473625.20423      -161.85023        22.10023
J03  37382370.09524       353.40024        24.50024
R12  22595654.82524      2638.80024        23.90024
R11  22827606.04824       694.60024        24.40024
C26  23762076.82824      1150.15024        26.00024
C01  40217015.71124        11.70024        24.20024
E11  25640723.26823     -2245.50023        22.30023
> 2026 02 25 17 56 21.4240477  0 7                      
G18  21928396.85823     -2584.60023        19.60023
J03  37382304.44023       347.00023        22.70023
R02  21712177.54422      -577.85022        16.50022
R12  22595225.22224      2627.45024        24.70024
R11  22827429.17124       686.40024        28.20024
C26  23761871.17024      1139.75024        27.20024
E11  25641148.07423     -2256.50023        23.10023
> 2026 02 25 17 56 22.4240477  0 7                      
G23  22473696.25523      -174.00023        21.00023
G25  24394683.28323      1177.75023        19.50023
J03  37382250.47823       339.00023        21.50023
R12  22594772.83624      2629.30024        25.70024
R11  22827311.35225       680.52525        31.50025
C26  23761641.82924      1135.15024        27.70024
E11  25641584.57224     -2260.97824        23.70024
> 2026 02 25 17 56 23.4240477  0 9                      
G18  21929362.19023     -2592.50023        20.70023
G25  24394444.04923      1159.05023        22.50023
J03  37382138.95524       332.90024        24.60024
R12  22594274.28123      2616.70023        22.30023
R11  22827200.12924       669.75024        27.40024
C26  23761431.07524      1125.55024        26.40024
C01  40217022.90624        -0.70024        26.70024
E11  25642026.16623     -2272.05023        23.00023
E25  27736975.26322       693.15022        15.10022
> 2026 02 25 17 56 24.4240477  0 6                      
G23  22473742.12323      -179.20023        20.80023
G25  24394188.02624      1171.55024        25.00024
J03  37382062.80823       344.55023        23.20023
R12  22593730.15723      2628.55023        22.70023
R11  22827056.82924       679.00024        28.90024
C26  23761207.43024      1137.30024        28.30024
> 2026 02 25 17 56 25.4240477  0 5                      
G18  21930367.69423     -2584.85023        21.10023
G32  21430193.95722     -1153.75022        13.70022
J03  37382019.93724       350.45024        25.60024
R11  22826938.71024       690.55024        26.10024
C26  23760984.38424      1143.30024        28.10024
> 2026 02 25 17 56 26.4240477  0 9                      
G18  21930835.37023     -2585.95023        21.80023
G23  22473809.57723      -174.05023        20.10023
G25  24393753.62723      1175.95023        22.30023
J03  37381953.98324       343.05024        25.10024
R12  22592844.87023      2635.50023        21.70023
R11  22826794.51024       683.35024        27.60024
C26  23760770.03224      1137.55024        28.80024
C01  40217039.39424         1.20024        26.00024
E11  25643287.09323     -2261.95023        21.50023
> 2026 02 25 17 56 27.4240477  0 8                      
G08  24464768.46522       251.10022        14.80022
G25  24393525.78523      1187.60023        22.10023
J03  37381880.23424       356.05024        23.70024
R12  22592308.84124      2642.30024        24.50024
R11  22826714.16624       695.10024        26.50024
C26  23760555.08124      1150.65024        27.90024
C24  24477551.31522      2367.50022        15.50022
C07  39464153.20722      -804.60022        17.40022
> 2026 02 25 17 56 28.4240477  0 8                      
G08  24464734.28823       254.55023        23.30023
G18  21931847.76923     -2573.15023        21.80023
G23  22473897.11623      -165.10023        22.00023
G25  24393311.13324      1184.35024        27.10024
R12  22591799.19424      2642.20024        24.10024
R11  22826536.68924       692.65024        28.10024
C26  23760330.23724      1149.60024        25.60024
E11  25644160.08923     -2245.40023        22.20023
> 2026 02 25 17 56 29.4240477  0 8                      
G08  24464718.69924       252.05024        23.50024
G23  22473907.00923      -166.15023        22.30023
G25  24393071.59925      1182.10925        30.10025
R11  22826417.07225       690.25425        31.40025
C26  23760102.99424      1144.20024        26.20024
C01  40217039.39424        20.90024        26.20024
E11  25644576.80024     -2249.53324        26.50024
E36  23815041.46123      -421.80023        17.50023
> 2026 02 25 17 56 30.4240477  0 8                      
G08  24464660.53923       248.25023        21.20023
G23  22473957.67423      -170.75023        21.50023
G25  24392854.25024      1178.10024        26.20024
G27  23238107.36422      -949.25022        14.70022
R12  22590859.04523      2643.15023        20.20023
R11  22826260.58025       686.09525        29.90025
C26  23759893.73923      1139.55023        23.00023
E11  25645014.19724     -2253.86824        25.20024
> 2026 02 25 17 56 31.4240477  0 8                      
G18  21933271.48323     -2583.00023        18.50023
G23  22473991.85024      -177.50024        24.90024
G25  24392654.88823      1178.85023        22.70023
J03  37381643.99823       348.05023        18.80023
R11  22826154.15424       680.85024        27.70024
C26  23759680.88623      1134.05023        22.10023
C07  39464762.08523      -795.80023        18.50023
E11  25645437.20523     -2258.16223        23.30023
> 2026 02 25 17 56 32.4240477  0 7                      
G23  22474026.62624      -184.80024        25.60024
J03  37381565.75224       334.05024        24.60024
R12  22589833.75523      2625.60023        21.70023
R11  22826015.94924       671.55024        23.60024
C26  23759461.43823      1127.85023        23.20023
C01  40217048.98824       -12.50024        26.30024
E36  23815298.98323      -429.40023        19.70023
> 2026 02 25 17 56 33.4240477  0 4                      
G23  22474070.39624      -163.50024        25.30024
J03  37381527.07924       349.05024        23.90024
R11  22825875.64624       691.45024        26.30024
C26  23759244.98824      1146.75024        26.40024
> 2026 02 25 17 56 34.4240477  0 7                      
G18  21934777.94123     -2580.50023        19.00023
G23  22474067.09824      -155.00024        26.50024
J03  37381435.34224       363.50024        24.90024
R12  22588824.35423      2644.10023        20.20023
R11  22825756.62923       695.70023        23.10023
C26  23759026.73924      1151.85024        25.60024
E11  25646734.10723     -2245.85023        20.40023
> 2026 02 25 17 56 35.4240477  0 7                      
G23  22474128.55624      -158.55024        25.60024
J03  37381366.39024       357.50024        23.90024
R12  22588259.24524      2647.10024        23.60024
R11  22825690.67424       692.25024        26.20024
C26  23758797.69824      1149.75024        25.30024
C01  40217032.49924        77.75024        25.20024
E25  27735415.14322       693.75022        16.20022
> 2026 02 25 17 56 36.4240477  0 5                      
G23  22474121.36124      -153.30024        23.90024
J03  37381295.93924       368.80024        24.00024
R12  22587847.63024      2655.95024        24.60024
R11  22825509.30024       701.15024        24.90024
C26  23758570.75524      1165.60024        25.30024
> 2026 02 25 17 56 37.4240477  0 9                      
G18  21936201.95523     -2559.20023        19.20023
G23  22474183.71824      -139.20024        23.70024
G25  24391288.43422      1199.10022        16.70022
G32  21432815.64222     -1155.30022        13.60022
J03  37381220.09124       385.95024        23.60024
R12  22587360.76724      2672.35024        24.50024
R11  22825385.48624       717.15024        25.40024
C26  23758352.50624      1175.60024        26.90024
C07  39465680.34923      -784.35023        19.50023
> 2026 02 25 17 56 38.4240477  0 7                      
G25  24391059.99225      1201.92725        30.50025
J03  37381151.73824       374.25024        23.70024
R12  22586832.83224      2657.85024        23.50024
R11  22825243.68425       705.92225        31.50025
C26  23758121.36624      1160.00024        29.20024
C01  40217028.30224        51.45024        24.10024
E11  25648418.64123     -2226.95023        19.70023
> 2026 02 25 17 56 39.4240477  0 7                      
G08  24464176.67422       265.75022        16.60022
G23  22474240.07923      -144.45023        20.90023
G25  24390818.35925      1206.68425        31.30025
R11  22825122.26825       710.11325        31.80025
C26  23757901.01925      1168.07025        29.60025
C03  36871330.08123       -31.65023        21.30023
E11  25648866.23124     -2218.84724        24.40024
