NMEA,$GPGSV,3,1,12,08,12,287,14,10,37,010,15,18,41,139,21,23,30,059,25,1*6B,1772042138554
NMEA,$GPGSV,3,2,12,25,11,115,26,27,27,259,15,32,53,330,18,02,05,324,,1*66,1772042138554
NMEA,$GPGSV,3,3,12,24,00,000,,26,05,197,,28,51,182,,31,21,200,,1*69,1772042138554
NMEA,$GLGSV,2,1,08,66,30,305,18,76,19,140,22,75,17,083,25,77,01,182,,1*71,1772042138554
NMEA,$GLGSV,2,2,08,65,26,003,,88,68,296,,87,35,166,,67,03,256,,1*7C,1772042138554
NMEA,$GAGSV,3,1,11,09,12,034,11,11,19,135,19,25,10,160,19,34,50,340,15,7*73,1772042138554
NMEA,$GAGSV,3,2,11,36,66,105,20,02,04,209,,03,47,261,,05,55,357,,7*7D,1772042138554
NMEA,$GAGSV,3,3,11,08,04,232,,15,02,325,,16,03,115,,7*4F,1772042138554
NMEA,$GQGSV,1,1,01,03,22,124,22,1*50,1772042138554
NMEA,$GBGSV,5,1,17,26,36,114,29,21,22,035,18,10,25,172,18,09,57,129,16,1*7B,1772042138554
NMEA,$GBGSV,5,2,17,03,49,106,23,01,14,094,27,02,76,144,,05,64,242,,1*72,1772042138554
NMEA,$GBGSV,5,3,17,06,58,104,,07,17,161,,08,30,043,,11,61,273,,1*72,1772042138554
NMEA,$GBGSV,5,4,17,12,43,174,,13,36,033,,14,30,306,,16,55,090,,1*7D,1772042138554
NMEA,$GBGSV,5,5,17,24,26,170,,1*44,1772042138554
NMEA,$GNGSA,A,3,08,18,23,25,27,,,,,,,,1.0,0.7,0.8,1*3D,1772042138591
NMEA,$GNGSA,A,3,66,75,76,,,,,,,,,,1.0,0.7,0.8,2*3F,1772042138591
NMEA,$GNGSA,A,3,09,25,34,36,,,,,,,,,1.0,0.7,0.8,3*31,1772042138591
NMEA,$GNGSA,A,3,03,09,,,,,,,,,,,1.0,0.7,0.8,4*30,1772042138591
NMEA,$GNGSA,A,3,03,,,,,,,,,,,,1.0,0.7,0.8,5*38,1772042138591
NMEA,$GNVTG,,T,,M,0.0,N,0.0,K,A*3D,1772042138591
NMEA,$GNDTM,P90,,0000.000011,S,00000.000001,W,0.999,W84*44,1772042138591
NMEA,$GNRMC,175538.00,A,1304.004606,N,07735.500621,E,0.0,,250226,1.1,W,A,V*65,1772042138591
NMEA,$GNGNS,175538.00,1304.004606,N,07735.500621,E,AAAAAN,15,0.7,921.7,-84.0,,,V*0B,1772042138591
NMEA,$GNGGA,175538.00,1304.004606,N,07735.500621,E,1,12,0.7,921.7,M,-84.0,M,,*53,1772042138591
NMEA,$GPGSV,3,1,12,08,12,287,19,18,41,139,21,23,30,059,23,25,11,115,24,1*64,1772042139569
NMEA,$GPGSV,3,2,12,27,27,259,15,32,53,330,18,02,05,324,,10,37,010,,1*64,1772042139569
NMEA,$GPGSV,3,3,12,24,00,000,,26,05,197,,28,51,182,,31,21,200,,1*69,1772042139569
NMEA,$GLGSV,2,1,08,66,30,305,18,76,19,140,22,75,17,083,24,77,01,182,,1*70,1772042139569
NMEA,$GLGSV,2,2,08,65,26,003,,88,68,296,,87,35,166,,67,03,256,,1*7C,1772042139569
NMEA,$GAGSV,3,1,11,09,12,034,11,11,19,135,19,25,10,160,19,34,50,340,15,7*73,1772042139569
NMEA,$GAGSV,3,2,11,36,66,105,20,02,04,209,,03,47,261,,05,55,357,,7*7D,1772042139569
NMEA,$GAGSV,3,3,11,08,04,232,,15,02,325,,16,03,115,,7*4F,1772042139569
NMEA,$GQGSV,1,1,01,03,22,124,22,1*50,1772042139569
NMEA,$GBGSV,5,1,17,26,36,114,27,21,22,035,18,10,25,172,18,09,57,129,16,1*75,1772042139569
NMEA,$GBGSV,5,2,17,03,49,106,23,01,14,094,23,02,76,144,,05,64,242,,1*76,1772042139569
NMEA,$GBGSV,5,3,17,06,58,104,,07,17,161,,08,30,043,,11,61,273,,1*72,1772042139569
NMEA,$GBGSV,5,4,17,12,43,174,,13,36,033,,14,30,306,,16,55,090,,1*7D,1772042139569
NMEA,$GBGSV,5,5,17,24,26,170,,1*44,1772042139569
NMEA,$GNGSA,A,3,08,18,23,25,27,,,,,,,,1.1,0.7,0.8,1*3C,1772042139609
NMEA,$GNGSA,A,3,66,75,76,,,,,,,,,,1.1,0.7,0.8,2*3E,1772042139609
NMEA,$GNGSA,A,3,09,25,36,,,,,,,,,,1.1,0.7,0.8,3*37,1772042139609
NMEA,$GNGSA,A,3,03,09,,,,,,,,,,,1.1,0.7,0.8,4*31,1772042139609
NMEA,$GNGSA,A,3,03,,,,,,,,,,,,1.1,0.7,0.8,5*39,1772042139609
NMEA,$GNVTG,,T,,M,0.0,N,0.0,K,A*3D,1772042139609
NMEA,$GNDTM,P90,,0000.000011,S,00000.000001,W,0.999,W84*44,1772042139609
NMEA,$GNRMC,175539.00,A,1304.004623,N,07735.500570,E,0.0,,250226,1.1,W,A,V*64,1772042139609
NMEA,$GNGNS,175539.00,1304.004623,N,07735.500570,E,AAAAAN,14,0.7,921.5,-84.0,,,V*09,1772042139609
NMEA,$GNGGA,175539.00,1304.004623,N,07735.500570,E,1,12,0.7,921.5,M,-84.0,M,,*50,1772042139609
NMEA,$GPGSV,3,1,12,08,12,287,19,18,41,139,17,23,30,059,24,25,11,115,25,1*67,1772042140554
NMEA,$GPGSV,3,2,12,27,27,259,15,32,53,330,18,02,05,324,,10,37,010,,1*64,1772042140554
NMEA,$GPGSV,3,3,12,24,00,000,,26,05,197,,28,51,182,,31,21,200,,1*69,1772042140554
NMEA,$GLGSV,2,1,08,66,30,305,18,76,19,140,23,75,17,083,25,77,01,182,,1*70,1772042140554
NMEA,$GLGSV,2,2,08,65,26,003,,88,68,296,,87,35,166,,67,03,256,,1*7C,1772042140554
NMEA,$GAGSV,3,1,11,09,12,034,11,11,19,135,19,25,10,160,19,34,50,340,15,7*73,1772042140554
NMEA,$GAGSV,3,2,11,36,66,105,20,02,04,209,,03,47,261,,05,55,357,,7*7D,1772042140554
NMEA,$GAGSV,3,3,11,08,04,232,,15,02,325,,16,03,115,,7*4F,1772042140554
NMEA,$GQGSV,1,1,01,03,22,124,22,1*50,1772042140554
NMEA,$GBGSV,5,1,17,26,36,114,28,21,22,035,18,10,25,172,18,09,57,129,16,1*7A,1772042140554
NMEA,$GBGSV,5,2,17,03,49,106,23,01,14,094,23,02,76,144,,05,64,242,,1*76,1772042140554
NMEA,$GBGSV,5,3,17,06,58,104,,07,17,161,,08,30,043,,11,61,273,,1*72,1772042140554
NMEA,$GBGSV,5,4,17,12,43,174,,13,36,033,,14,30,306,,16,55,090,,1*7D,1772042140554
NMEA,$GBGSV,5,5,17,24,26,170,,1*44,1772042140554
NMEA,$GNGSA,A,3,08,18,23,25,27,,,,,,,,1.1,0.7,0.8,1*3C,1772042140579
NMEA,$GNGSA,A,3,66,75,76,,,,,,,,,,1.1,0.7,0.8,2*3E,1772042140579
NMEA,$GNGSA,A,3,09,25,36,,,,,,,,,,1.1,0.7,0.8,3*37,1772042140579
NMEA,$GNGSA,A,3,03,,,,,,,,,,,,1.1,0.7,0.8,4*38,1772042140579
NMEA,$GNGSA,A,3,03,,,,,,,,,,,,1.1,0.7,0.8,5*39,1772042140579
NMEA,$GNVTG,,T,,M,0.0,N,0.0,K,A*3D,1772042140579
NMEA,$GNDTM,P90,,0000.000011,S,00000.000001,W,0.999,W84*44,1772042140579
NMEA,$GNRMC,175540.00,A,1304.004623,N,07735.500570,E,0.0,,250226,1.1,W,A,V*6A,1772042140579
NMEA,$GNGNS,175540.00,1304.004623,N,07735.500570,E,AAAAAN,13,0.7,921.5,-84.0,,,V*00,1772042140579
NMEA,$GNGGA,175540.00,1304.004623,N,07735.500570,E,1,12,0.7,921.5,M,-84.0,M,,*5E,1772042140579
NMEA,$GPGSV,3,1,12,08,12,287,19,18,41,139,17,23,30,059,23,25,11,115,24,1*61,1772042141557
NMEA,$GPGSV,3,2,12,27,27,259,15,32,53,330,18,02,05,324,,10,37,010,,1*64,1772042141557
NMEA,$GPGSV,3,3,12,24,00,000,,26,05,197,,28,51,182,,31,21,200,,1*69,1772042141557
NMEA,$GLGSV,2,1,08,66,30,305,18,76,19,140,23,75,17,083,24,77,01,182,,1*71,1772042141557
NMEA,$GLGSV,2,2,08,65,26,003,,88,68,296,,87,35,166,,67,03,256,,1*7C,1772042141557
NMEA,$GAGSV,3,1,11,09,12,034,11,11,19,135,20,25,10,160,19,34,50,340,15,7*79,1772042141557
NMEA,$GAGSV,3,2,11,36,66,105,20,02,04,209,,03,47,261,,05,55,357,,7*7D,1772042141557
NMEA,$GAGSV,3,3,11,08,04,232,,15,02,325,,16,03,115,,7*4F,1772042141557
NMEA,$GQGSV,1,1,01,03,22,124,23,1*51,1772042141557
NMEA,$GBGSV,5,1,17,26,36,114,28,21,22,035,18,10,25,172,18,09,57,129,16,1*7A,1772042141557
NMEA,$GBGSV,5,2,17,03,49,106,22,01,14,094,23,02,76,144,,05,64,242,,1*77,1772042141557
NMEA,$GBGSV,5,3,17,06,58,104,,07,17,161,,08,30,043,,11,61,273,,1*72,1772042141557
NMEA,$GBGSV,5,4,17,12,43,174,,13,36,033,,14,30,306,,16,55,090,,1*7D,1772042141557
NMEA,$GBGSV,5,5,17,24,26,170,,1*44,1772042141557
NMEA,$GNGSA,A,3,08,18,23,25,,,,,,,,,1.4,1.1,0.9,1*3A,1772042141593
NMEA,$GNGSA,A,3,66,75,76,,,,,,,,,,1.4,1.1,0.9,2*3D,1772042141593
NMEA,$GNGSA,A,3,36,,,,,,,,,,,,1.4,1.1,0.9,3*3A,1772042141593
NMEA,$GNGSA,A,3,03,,,,,,,,,,,,1.4,1.1,0.9,4*3B,1772042141593
NMEA,$GNGSA,A,3,03,,,,,,,,,,,,1.4,1.1,0.9,5*3A,1772042141593
NMEA,$GNVTG,,T,,M,0.0,N,0.0,K,A*3D,1772042141593
NMEA,$GNDTM,P90,,0000.000011,S,00000.000001,W,0.999,W84*44,1772042141593
NMEA,$GNRMC,175541.00,A,1304.004620,N,07735.500565,E,0.0,,250226,1.1,W,A,V*6C,1772042141593
NMEA,$GNGNS,175541.00,1304.004620,N,07735.500565,E,AAAAAN,10,1.1,921.6,-84.0,,,V*01,1772042141593
NMEA,$GNGGA,175541.00,1304.004620,N,07735.500565,E,1,10,1.1,921.6,M,-84.0,M,,*5E,1772042141593
NMEA,$GPGSV,3,1,12,08,12,287,20,18,41,139,17,23,30,059,23,25,11,115,25,1*6A,1772042142558
NMEA,$GPGSV,3,2,12,27,27,259,15,32,53,330,18,02,05,324,,10,37,010,,1*64,1772042142558
NMEA,$GPGSV,3,3,12,24,00,000,,26,05,197,,28,51,182,,31,21,200,,1*69,1772042142558
NMEA,$GLGSV,2,1,08,66,30,305,18,76,19,140,23,75,17,083,25,77,01,182,,1*70,1772042142558
NMEA,$GLGSV,2,2,08,65,26,003,,88,68,296,,87,35,166,,67,03,256,,1*7C,1772042142558
NMEA,$GAGSV,3,1,11,09,12,034,11,11,19,135,23,25,10,160,18,34,50,340,15,7*7B,1772042142558
NMEA,$GAGSV,3,2,11,36,66,105,20,02,04,209,,03,47,261,,05,55,357,,7*7D,1772042142558
NMEA,$GAGSV,3,3,11,08,04,232,,15,02,325,,16,03,115,,7*4F,1772042142558
NMEA,$GQGSV,1,1,01,03,22,124,23,1*51,1772042142558
NMEA,$GBGSV,5,1,17,26,36,114,27,21,22,035,18,10,25,172,18,09,57,129,16,1*75,1772042142558
NMEA,$GBGSV,5,2,17,03,49,106,22,01,14,094,24,02,76,144,,05,64,242,,1*70,1772042142558
NMEA,$GBGSV,5,3,17,06,58,104,,07,17,161,,08,30,043,,11,61,273,,1*72,1772042142558
NMEA,$GBGSV,5,4,17,12,43,174,,13,36,033,,14,30,306,,16,55,090,,1*7D,1772042142558
NMEA,$GBGSV,5,5,17,24,26,170,,1*44,1772042142558
NMEA,$GNGSA,A,3,08,18,23,25,,,,,,,,,1.3,1.1,0.8,1*3C,1772042142600
NMEA,$GNGSA,A,3,75,76,,,,,,,,,,,1.3,1.1,0.8,2*3B,1772042142600
NMEA,$GNGSA,A,3,25,36,,,,,,,,,,,1.3,1.1,0.8,3*3B,1772042142600
NMEA,$GNGSA,A,3,03,,,,,,,,,,,,1.3,1.1,0.8,4*3D,1772042142600
NMEA,$GNGSA,A,3,03,,,,,,,,,,,,1.3,1.1,0.8,5*3C,1772042142600
NMEA,$GNVTG,,T,,M,0.0,N,0.0,K,A*3D,1772042142600
NMEA,$GNDTM,P90,,0000.000011,S,00000.000001,W,0.999,W84*44,1772042142600
NMEA,$GNRMC,175542.00,A,1304.004646,N,07735.500462,E,0.0,,250226,1.1,W,A,V*69,1772042142600
NMEA,$GNGNS,175542.00,1304.004646,N,07735.500462,E,AAAAAN,10,1.1,921.2,-84.0,,,V*00,1772042142600
NMEA,$GNGGA,175542.00,1304.004646,N,07735.500462,E,1,10,1.1,921.2,M,-84.0,M,,*5F,1772042142600
NMEA,$GPGSV,3,1,12,08,12,287,22,18,41,139,17,23,30,059,22,25,11,115,26,1*6A,1772042143551
NMEA,$GPGSV,3,2,12,27,27,259,15,32,53,330,18,02,05,324,,10,37,010,,1*64,1772042143551
NMEA,$GPGSV,3,3,12,24,00,000,,26,05,197,,28,51,182,,31,21,200,,1*69,1772042143551
NMEA,$GLGSV,2,1,08,66,30,305,18,76,19,140,23,75,17,083,28,77,01,182,,1*7D,1772042143551
NMEA,$GLGSV,2,2,08,65,26,003,,88,68,296,,87,35,166,,67,03,256,,1*7C,1772042143551
NMEA,$GAGSV,3,1,11,09,12,034,11,11,19,135,23,25,10,160,18,34,50,340,15,7*7B,1772042143551
NMEA,$GAGSV,3,2,11,36,66,105,20,02,04,209,,03,47,261,,05,55,357,,7*7D,1772042143551
NMEA,$GAGSV,3,3,11,08,04,232,,15,02,325,,16,03,115,,7*4F,1772042143551
NMEA,$GQGSV,1,1,01,03,22,124,23,1*51,1772042143551
NMEA,$GBGSV,5,1,17,26,36,114,25,21,22,035,18,10,25,172,18,09,57,129,16,1*77,1772042143551
NMEA,$GBGSV,5,2,17,03,49,106,22,01,14,094,24,02,76,144,,05,64,242,,1*70,1772042143551
NMEA,$GBGSV,5,3,17,06,58,104,,07,17,161,,08,30,043,,11,61,273,,1*72,1772042143551
NMEA,$GBGSV,5,4,17,12,43,174,,13,36,033,,14,30,306,,16,55,090,,1*7D,1772042143551
NMEA,$GBGSV,5,5,17,24,26,170,,1*44,1772042143551
NMEA,$GNGSA,A,3,08,18,23,25,,,,,,,,,1.4,1.1,0.9,1*3A,1772042143590
NMEA,$GNGSA,A,3,75,76,,,,,,,,,,,1.4,1.1,0.9,2*3D,1772042143590
NMEA,$GNGSA,A,3,25,,,,,,,,,,,,1.4,1.1,0.9,3*38,1772042143590
NMEA,$GNGSA,A,3,03,,,,,,,,,,,,1.4,1.1,0.9,4*3B,1772042143590
NMEA,$GNGSA,A,3,03,,,,,,,,,,,,1.4,1.1,0.9,5*3A,1772042143590
NMEA,$GNVTG,,T,,M,0.0,N,0.0,K,A*3D,1772042143590
NMEA,$GNDTM,P90,,0000.000011,S,00000.000001,W,0.999,W84*44,1772042143590
NMEA,$GNRMC,175543.00,A,1304.004720,N,07735.500247,E,0.0,,250226,1.1,W,A,V*68,1772042143590
NMEA,$GNGNS,175543.00,1304.004720,N,07735.500247,E,AAAAAN,09,1.1,920.3,-84.0,,,V*09,1772042143590
NMEA,$GNGGA,175543.00,1304.004720,N,07735.500247,E,1,09,1.1,920.3,M,-84.0,M,,*56,1772042143590
NMEA,$GPGSV,3,1,12,08,12,287,22,18,41,139,17,23,30,059,24,25,11,115,27,1*6D,1772042144551
NMEA,$GPGSV,3,2,12,27,27,259,15,32,53,330,15,02,05,324,,10,37,010,,1*69,1772042144551
NMEA,$GPGSV,3,3,12,24,00,000,,26,05,197,,28,51,182,,31,21,200,,1*69,1772042144551
NMEA,$GLGSV,2,1,08,66,30,305,18,76,19,140,24,75,17,083,24,77,01,182,,1*76,1772042144551
NMEA,$GLGSV,2,2,08,65,26,003,,88,68,296,,87,35,166,,67,03,256,,1*7C,1772042144551
NMEA,$GAGSV,3,1,11,09,12,034,11,11,19,135,21,25,10,160,18,34,50,340,15,7*79,1772042144551
NMEA,$GAGSV,3,2,11,36,66,105,20,02,04,209,,03,47,261,,05,55,357,,7*7D,1772042144551
NMEA,$GAGSV,3,3,11,08,04,232,,15,02,325,,16,03,115,,7*4F,1772042144551
NMEA,$GQGSV,1,1,01,03,22,124,21,1*53,1772042144551
NMEA,$GBGSV,5,1,17,26,36,114,25,21,22,035,18,10,25,172,18,09,57,129,16,1*77,1772042144551
NMEA,$GBGSV,5,2,17,03,49,106,23,01,14,094,24,02,76,144,,05,64,242,,1*71,1772042144551
NMEA,$GBGSV,5,3,17,06,58,104,,07,17,161,,08,30,043,,11,61,273,,1*72,1772042144551
NMEA,$GBGSV,5,4,17,12,43,174,,13,36,033,,14,30,306,,16,55,090,,1*7D,1772042144551
NMEA,$GBGSV,5,5,17,24,26,170,,1*44,1772042144551
NMEA,$GNGSA,A,3,08,18,23,25,32,,,,,,,,1.3,1.0,0.9,1*3D,1772042144595
NMEA,$GNGSA,A,3,75,76,,,,,,,,,,,1.3,1.0,0.9,2*3B,1772042144595
NMEA,$GNGSA,A,3,25,,,,,,,,,,,,1.3,1.0,0.9,3*3E,1772042144595
NMEA,$GNGSA,A,3,03,,,,,,,,,,,,1.3,1.0,0.9,4*3D,1772042144595
NMEA,$GNGSA,A,3,03,,,,,,,,,,,,1.3,1.0,0.9,5*3C,1772042144595
NMEA,$GNVTG,,T,,M,0.0,N,0.0,K,A*3D,1772042144595
NMEA,$GNDTM,P90,,0000.000011,S,00000.000001,W,0.999,W84*44,1772042144595
NMEA,$GNRMC,175544.00,A,1304.004741,N,07735.500229,E,0.0,,250226,1.1,W,A,V*60,1772042144595
NMEA,$GNGNS,175544.00,1304.004741,N,07735.500229,E,AAAAAN,10,1.0,920.6,-84.0,,,V*0D,1772042144595
NMEA,$GNGGA,175544.00,1304.004741,N,07735.500229,E,1,10,1.0,920.6,M,-84.0,M,,*52,1772042144595
NMEA,$GPGSV,3,1,12,08,12,287,22,18,41,139,17,23,30,059,24,25,11,115,26,1*6C,1772042145550
NMEA,$GPGSV,3,2,12,27,27,259,15,32,53,330,15,02,05,324,,10,37,010,,1*69,1772042145550
NMEA,$GPGSV,3,3,12,24,00,000,,26,05,197,,28,51,182,,31,21,200,,1*69,1772042145550
NMEA,$GLGSV,2,1,08,66,30,305,18,76,19,140,28,75,17,083,25,77,01,182,,1*7B,1772042145550
NMEA,$GLGSV,2,2,08,65,26,003,,88,68,296,,87,35,166,,67,03,256,,1*7C,1772042145550
NMEA,$GAGSV,3,1,11,09,12,034,11,11,19,135,21,25,10,160,18,34,50,340,15,7*79,1772042145550
NMEA,$GAGSV,3,2,11,36,66,105,20,02,04,209,,03,47,261,,05,55,357,,7*7D,1772042145550
NMEA,$GAGSV,3,3,11,08,04,232,,15,02,325,,16,03,115,,7*4F,1772042145550
NMEA,$GQGSV,1,1,01,03,22,124,27,1*55,1772042145550
NMEA,$GBGSV,5,1,17,26,36,114,22,21,22,035,18,12,43,174,15,10,25,172,18,1*74,1772042145550
NMEA,$GBGSV,5,2,17,09,57,129,16,03,49,106,23,01,14,094,24,02,76,144,,1*74,1772042145550
NMEA,$GBGSV,5,3,17,05,64,242,,06,58,104,,07,17,161,,08,30,043,,1*70,1772042145550
NMEA,$GBGSV,5,4,17,11,61,273,,13,36,033,,14,30,306,,16,55,090,,1*7A,1772042145550
NMEA,$GBGSV,5,5,17,24,26,170,,1*44,1772042145550
NMEA,$GNGSA,A,3,08,18,23,25,32,,,,,,,,1.3,0.9,0.9,1*35,1772042145582
NMEA,$GNGSA,A,3,75,76,,,,,,,,,,,1.3,0.9,0.9,2*33,1772042145582
NMEA,$GNGSA,A,3,25,,,,,,,,,,,,1.3,0.9,0.9,3*36,1772042145582
NMEA,$GNGSA,A,3,03,12,,,,,,,,,,,1.3,0.9,0.9,4*36,1772042145582
NMEA,$GNGSA,A,3,03,,,,,,,,,,,,1.3,0.9,0.9,5*34,1772042145582
NMEA,$GNVTG,,T,,M,0.0,N,0.0,K,A*3D,1772042145582
NMEA,$GNDTM,P90,,0000.000011,S,00000.000001,W,0.999,W84*44,1772042145582
NMEA,$GNRMC,175545.00,A,1304.004750,N,07735.500223,E,0.0,,250226,1.1,W,A,V*6B,1772042145582
NMEA,$GNGNS,175545.00,1304.004750,N,07735.500223,E,AAAAAN,11,0.9,920.6,-84.0,,,V*0F,1772042145582
NMEA,$GNGGA,175545.00,1304.004750,N,07735.500223,E,1,11,0.9,920.6,M,-84.0,M,,*50,1772042145582
NMEA,$GPGSV,3,1,12,08,12,287,22,18,41,139,17,23,30,059,22,25,11,115,26,1*6A,1772042146560
NMEA,$GPGSV,3,2,12,27,27,259,15,32,53,330,15,02,05,324,,10,37,010,,1*69,1772042146560
NMEA,$GPGSV,3,3,12,24,00,000,,26,05,197,,28,51,182,,31,21,200,,1*69,1772042146560
NMEA,$GLGSV,2,1,08,66,30,305,18,76,19,140,26,75,17,083,29,77,01,182,,1*79,1772042146560
NMEA,$GLGSV,2,2,08,65,26,003,,88,68,296,,87,35,166,,67,03,256,,1*7C,1772042146560
NMEA,$GAGSV,3,1,11,09,12,034,11,11,19,135,22,25,10,160,18,34,50,340,15,7*7A,1772042146560
NMEA,$GAGSV,3,2,11,36,66,105,20,02,04,209,,03,47,261,,05,55,357,,7*7D,1772042146560
NMEA,$GAGSV,3,3,11,08,04,232,,15,02,325,,16,03,115,,7*4F,1772042146560
NMEA,$GQGSV,1,1,01,03,22,124,27,1*55,1772042146560
NMEA,$GBGSV,5,1,17,26,36,114,22,21,22,035,18,12,43,174,15,10,25,172,18,1*74,1772042146560
NMEA,$GBGSV,5,2,17,09,57,129,16,03,49,106,23,01,14,094,24,02,76,144,,1*74,1772042146560
NMEA,$GBGSV,5,3,17,05,64,242,,06,58,104,,07,17,161,,08,30,043,,1*70,1772042146560
NMEA,$GBGSV,5,4,17,11,61,273,,13,36,033,,14,30,306,,16,55,090,,1*7A,1772042146560
NMEA,$GBGSV,5,5,17,24,26,170,,1*44,1772042146560
NMEA,$GNGSA,A,3,08,23,25,32,,,,,,,,,1.3,1.0,0.9,1*34,1772042146601
NMEA,$GNGSA,A,3,75,76,,,,,,,,,,,1.3,1.0,0.9,2*3B,1772042146601
NMEA,$GNGSA,A,3,25,,,,,,,,,,,,1.3,1.0,0.9,3*3E,1772042146601
NMEA,$GNGSA,A,3,03,12,,,,,,,,,,,1.3,1.0,0.9,4*3E,1772042146601
NMEA,$GNGSA,A,3,03,,,,,,,,,,,,1.3,1.0,0.9,5*3C,1772042146601
NMEA,$GNVTG,,T,,M,0.0,N,0.0,K,A*3D,1772042146601
NMEA,$GNDTM,P90,,0000.000011,S,00000.000001,W,0.999,W84*44,1772042146601
NMEA,$GNRMC,175546.00,A,1304.005200,N,07735.500308,E,0.0,,250226,1.1,W,A,V*61,1772042146601
NMEA,$GNGNS,175546.00,1304.005200,N,07735.500308,E,AAAAAN,10,1.0,920.4,-84.0,,,V*0E,1772042146601
NMEA,$GNGGA,175546.00,1304.005200,N,07735.500308,E,1,10,1.0,920.4,M,-84.0,M,,*51,1772042146601
NMEA,$GPGSV,3,1,12,08,12,287,22,18,41,139,17,23,30,059,22,25,11,115,23,1*6F,1772042147550
NMEA,$GPGSV,3,2,12,27,27,259,15,32,53,330,15,02,05,324,,10,37,010,,1*69,1772042147550
NMEA,$GPGSV,3,3,12,24,00,000,,26,05,197,,28,51,182,,31,21,200,,1*69,1772042147550
NMEA,$GLGSV,2,1,08,66,30,305,16,76,19,140,25,75,17,083,29,77,01,182,,1*74,1772042147550
NMEA,$GLGSV,2,2,08,65,26,003,,88,68,296,,87,35,166,,67,03,256,,1*7C,1772042147550
NMEA,$GAGSV,3,1,11,09,12,034,11,11,19,135,22,25,10,160,18,34,50,340,15,7*7A,1772042147550
NMEA,$GAGSV,3,2,11,36,66,105,20,02,04,209,,03,47,261,,05,55,357,,7*7D,1772042147550
NMEA,$GAGSV,3,3,11,08,04,232,,15,02,325,,16,03,115,,7*4F,1772042147550
NMEA,$GQGSV,1,1,01,03,22,124,27,1*55,1772042147550
NMEA,$GBGSV,5,1,17,26,36,114,22,21,22,035,18,12,43,174,15,10,25,172,18,1*74,1772042147550
NMEA,$GBGSV,5,2,17,09,57,129,16,03,49,106,24,01,14,094,24,02,76,144,,1*73,1772042147550
NMEA,$GBGSV,5,3,17,05,64,242,,06,58,104,,07,17,161,,08,30,043,,1*70,1772042147550
NMEA,$GBGSV,5,4,17,11,61,273,,13,36,033,,14,30,306,,16,55,090,,1*7A,1772042147550
NMEA,$GBGSV,5,5,17,24,26,170,,1*44,1772042147550
NMEA,$GNGSA,A,3,08,23,25,32,,,,,,,,,1.3,0.9,0.9,1*3C,1772042147563
NMEA,$GNGSA,A,3,66,75,76,,,,,,,,,,1.3,0.9,0.9,2*33,1772042147563
NMEA,$GNGSA,A,3,25,,,,,,,,,,,,1.3,0.9,0.9,3*36,1772042147563
NMEA,$GNGSA,A,3,03,12,,,,,,,,,,,1.3,0.9,0.9,4*36,1772042147563
NMEA,$GNGSA,A,3,03,,,,,,,,,,,,1.3,0.9,0.9,5*34,1772042147563
NMEA,$GNVTG,,T,,M,0.0,N,0.0,K,A*3D,1772042147563
NMEA,$GNDTM,P90,,0000.000011,S,00000.000001,W,0.999,W84*44,1772042147563
NMEA,$GNRMC,175547.00,A,1304.005221,N,07735.500270,E,0.0,,250226,1.1,W,A,V*6D,1772042147563
NMEA,$GNGNS,175547.00,1304.005221,N,07735.500270,E,AAAAAN,11,0.9,920.4,-84.0,,,V*0B,1772042147563
NMEA,$GNGGA,175547.00,1304.005221,N,07735.500270,E,1,11,0.9,920.4,M,-84.0,M,,*54,1772042147563
NMEA,$GPGSV,3,1,12,08,12,287,22,18,41,139,17,23,30,059,22,25,11,115,27,1*6B,1772042148551
NMEA,$GPGSV,3,2,12,27,27,259,15,32,53,330,15,02,05,324,,10,37,010,,1*69,1772042148551
NMEA,$GPGSV,3,3,12,24,00,000,,26,05,197,,28,51,182,,31,21,200,,1*69,1772042148551
NMEA,$GLGSV,2,1,08,66,30,305,16,76,19,140,23,75,17,083,28,77,01,182,,1*73,1772042148551
NMEA,$GLGSV,2,2,08,65,26,003,,88,68,296,,87,35,166,,67,03,256,,1*7C,1772042148551
NMEA,$GAGSV,3,1,11,09,12,034,11,11,19,135,22,25,10,160,18,34,50,340,15,7*7A,1772042148551
NMEA,$GAGSV,3,2,11,36,66,105,20,02,04,209,,03,47,261,,05,55,357,,7*7D,1772042148551
NMEA,$GAGSV,3,3,11,08,04,232,,15,02,325,,16,03,115,,7*4F,1772042148551
NMEA,$GQGSV,1,1,01,03,22,124,27,1*55,1772042148551
NMEA,$GBGSV,5,1,17,26,36,114,24,21,22,035,18,12,43,174,15,10,25,172,18,1*72,1772042148551
NMEA,$GBGSV,5,2,17,09,57,129,16,03,49,106,24,01,14,094,24,02,76,144,,1*73,1772042148551
NMEA,$GBGSV,5,3,17,05,64,242,,06,58,104,,07,17,161,,08,30,043,,1*70,1772042148551
NMEA,$GBGSV,5,4,17,11,61,273,,13,36,033,,14,30,306,,16,55,090,,1*7A,1772042148551
NMEA,$GBGSV,5,5,17,24,26,170,,1*44,1772042148551
NMEA,$GNGSA,A,3,08,23,25,32,,,,,,,,,1.3,1.0,0.9,1*34,1772042148572
NMEA,$GNGSA,A,3,66,75,76,,,,,,,,,,1.3,1.0,0.9,2*3B,1772042148572
NMEA,$GNGSA,A,3,03,12,,,,,,,,,,,1.3,1.0,0.9,4*3E,1772042148572
NMEA,$GNGSA,A,3,03,,,,,,,,,,,,1.3,1.0,0.9,5*3C,1772042148572
NMEA,$GNVTG,,T,,M,0.0,N,0.0,K,A*3D,1772042148572
NMEA,$GNDTM,P90,,0000.000011,S,00000.000001,W,0.999,W84*44,1772042148572
NMEA,$GNRMC,175548.00,A,1304.005223,N,07735.500266,E,0.0,,250226,1.1,W,A,V*67,1772042148572
NMEA,$GNGNS,175548.00,1304.005223,N,07735.500266,E,AANAAN,10,1.0,920.4,-84.0,,,V*07,1772042148572
NMEA,$GNGGA,175548.00,1304.005223,N,07735.500266,E,1,10,1.0,920.4,M,-84.0,M,,*57,1772042148572
NMEA,$GPGSV,3,1,12,08,12,287,17,18,41,139,17,23,30,059,19,25,11,115,28,1*6A,1772042149548
NMEA,$GPGSV,3,2,12,27,27,259,15,32,53,330,15,02,05,324,,10,37,010,,1*69,1772042149548
NMEA,$GPGSV,3,3,12,24,00,000,,26,05,197,,28,51,182,,31,21,200,,1*69,1772042149548
NMEA,$GLGSV,2,1,08,66,30,305,16,76,19,140,23,75,17,083,29,77,01,182,,1*72,1772042149548
NMEA,$GLGSV,2,2,08,65,26,003,,88,68,296,,87,35,166,,67,03,256,,1*7C,1772042149548
NMEA,$GAGSV,3,1,11,09,12,034,11,11,19,135,20,25,10,160,18,34,50,340,15,7*78,1772042149548
NMEA,$GAGSV,3,2,11,36,66,105,15,02,04,209,,03,47,261,,05,55,357,,7*7B,1772042149548
NMEA,$GAGSV,3,3,11,08,04,232,,15,02,325,,16,03,115,,7*4F,1772042149548
NMEA,$GQGSV,1,1,01,03,22,124,27,1*55,1772042149548
NMEA,$GBGSV,5,1,17,26,36,114,22,21,22,035,18,12,43,174,15,10,25,172,18,1*74,1772042149548
NMEA,$GBGSV,5,2,17,09,57,129,16,07,17,161,19,03,49,106,24,01,14,094,24,1*7E,1772042149548
NMEA,$GBGSV,5,3,17,02,76,144,,05,64,242,,06,58,104,,08,30,043,,1*75,1772042149548
NMEA,$GBGSV,5,4,17,11,61,273,,13,36,033,,14,30,306,,16,55,090,,1*7A,1772042149548
NMEA,$GBGSV,5,5,17,24,26,170,,1*44,1772042149548
NMEA,$GNGSA,A,3,08,23,25,32,,,,,,,,,1.3,0.9,0.8,1*3D,1772042149563
NMEA,$GNGSA,A,3,66,75,76,,,,,,,,,,1.3,0.9,0.8,2*32,1772042149563
NMEA,$GNGSA,A,3,36,,,,,,,,,,,,1.3,0.9,0.8,3*35,1772042149563
NMEA,$GNGSA,A,3,03,07,12,,,,,,,,,,1.3,0.9,0.8,4*30,1772042149563
NMEA,$GNGSA,A,3,03,,,,,,,,,,,,1.3,0.9,0.8,5*35,1772042149563
NMEA,$GNVTG,,T,,M,0.0,N,0.0,K,A*3D,1772042149563
NMEA,$GNDTM,P90,,0000.000011,S,00000.000001,W,0.999,W84*44,1772042149563
NMEA,$GNRMC,175549.00,A,1304.005236,N,07735.500255,E,0.0,,250226,1.1,W,A,V*62,1772042149563
NMEA,$GNGNS,175549.00,1304.005236,N,07735.500255,E,AAAAAN,12,0.9,920.5,-84.0,,,V*06,1772042149563
NMEA,$GNGGA,175549.00,1304.005236,N,07735.500255,E,1,12,0.9,920.5,M,-84.0,M,,*59,1772042149563
NMEA,$GPGSV,3,1,12,08,12,287,17,18,41,139,17,23,30,059,19,25,11,115,27,1*65,1772042150558
NMEA,$GPGSV,3,2,12,27,27,259,15,32,53,330,15,02,05,324,,10,37,010,,1*69,1772042150558
NMEA,$GPGSV,3,3,12,24,00,000,,26,05,197,,28,51,182,,31,21,200,,1*69,1772042150558
NMEA,$GLGSV,2,1,08,66,30,305,16,76,19,140,23,75,17,083,27,77,01,182,,1*7C,1772042150558
NMEA,$GLGSV,2,2,08,65,26,003,,88,68,296,,87,35,166,,67,03,256,,1*7C,1772042150558
NMEA,$GAGSV,3,1,11,09,12,034,11,11,19,135,20,25,10,160,18,34,50,340,15,7*78,1772042150558
NMEA,$GAGSV,3,2,11,36,66,105,15,02,04,209,,03,47,261,,05,55,357,,7*7B,1772042150558
NMEA,$GAGSV,3,3,11,08,04,232,,15,02,325,,16,03,115,,7*4F,1772042150558
NMEA,$GQGSV,1,1,01,03,22,124,27,1*55,1772042150558
NMEA,$GBGSV,5,1,17,26,36,114,23,21,22,035,18,12,43,174,15,09,57,129,16,1*78,1772042150558
NMEA,$GBGSV,5,2,17,07,17,161,19,03,49,106,24,01,14,094,24,02,76,144,,1*7A,1772042150558
NMEA,$GBGSV,5,3,17,05,64,242,,06,58,104,,08,30,043,,10,25,172,,1*75,1772042150558
NMEA,$GBGSV,5,4,17,11,61,273,,13,36,033,,14,30,306,,16,55,090,,1*7A,1772042150558
NMEA,$GBGSV,5,5,17,24,26,170,,1*44,1772042150558
NMEA,$GNGSA,A,3,08,23,25,,,,,,,,,,1.3,1.0,0.9,1*35,1772042150583
NMEA,$GNGSA,A,3,66,75,76,,,,,,,,,,1.3,1.0,0.9,2*3B,1772042150583
NMEA,$GNGSA,A,3,36,,,,,,,,,,,,1.3,1.0,0.9,3*3C,1772042150583
NMEA,$GNGSA,A,3,03,07,12,,,,,,,,,,1.3,1.0,0.9,4*39,1772042150583
NMEA,$GNGSA,A,3,03,,,,,,,,,,,,1.3,1.0,0.9,5*3C,1772042150583
NMEA,$GNVTG,,T,,M,0.0,N,0.0,K,A*3D,1772042150583
NMEA,$GNDTM,P90,,0000.000011,S,00000.000001,W,0.999,W84*44,1772042150583
NMEA,$GNRMC,175550.00,A,1304.005235,N,07735.500256,E,0.0,,250226,1.1,W,A,V*6A,1772042150583
NMEA,$GNGNS,175550.00,1304.005235,N,07735.500256,E,AAAAAN,11,1.0,920.5,-84.0,,,V*05,1772042150583
NMEA,$GNGGA,175550.00,1304.005235,N,07735.500256,E,1,11,1.0,920.5,M,-84.0,M,,*5A,1772042150583
NMEA,$GPGSV,3,1,12,08,12,287,17,18,41,139,17,23,30,059,21,25,11,115,25,1*6C,1772042151550
NMEA,$GPGSV,3,2,12,27,27,259,15,32,53,330,15,02,05,324,,10,37,010,,1*69,1772042151550
NMEA,$GPGSV,3,3,12,24,00,000,,26,05,197,,28,51,182,,31,21,200,,1*69,1772042151550
NMEA,$GLGSV,2,1,08,66,30,305,16,76,19,140,27,75,17,083,29,77,01,182,,1*76,1772042151550
NMEA,$GLGSV,2,2,08,65,26,003,,88,68,296,,87,35,166,,67,03,256,,1*7C,1772042151550
NMEA,$GAGSV,3,1,11,09,12,034,11,11,19,135,21,25,10,160,18,34,50,340,15,7*79,1772042151550
NMEA,$GAGSV,3,2,11,36,66,105,15,02,04,209,,03,47,261,,05,55,357,,7*7B,1772042151550
NMEA,$GAGSV,3,3,11,08,04,232,,15,02,325,,16,03,115,,7*4F,1772042151550
NMEA,$GQGSV,1,1,01,03,22,124,27,1*55,1772042151550
NMEA,$GBGSV,5,1,17,26,36,114,23,21,22,035,18,12,43,174,15,09,57,129,16,1*78,1772042151550
NMEA,$GBGSV,5,2,17,07,17,161,19,03,49,106,24,01,14,094,27,02,76,144,,1*79,1772042151550
NMEA,$GBGSV,5,3,17,05,64,242,,06,58,104,,08,30,043,,10,25,172,,1*75,1772042151550
NMEA,$GBGSV,5,4,17,11,61,273,,13,36,033,,14,30,306,,16,55,090,,1*7A,1772042151550
NMEA,$GBGSV,5,5,17,24,26,170,,1*44,1772042151550
NMEA,$GNGSA,A,3,08,23,25,,,,,,,,,,1.3,1.0,0.9,1*35,1772042151597
NMEA,$GNGSA,A,3,66,75,76,,,,,,,,,,1.3,1.0,0.9,2*3B,1772042151597
NMEA,$GNGSA,A,3,36,,,,,,,,,,,,1.3,1.0,0.9,3*3C,1772042151597
NMEA,$GNGSA,A,3,03,07,,,,,,,,,,,1.3,1.0,0.9,4*3A,1772042151597
NMEA,$GNGSA,A,3,03,,,,,,,,,,,,1.3,1.0,0.9,5*3C,1772042151597
NMEA,$GNVTG,,T,,M,0.0,N,0.0,K,A*3D,1772042151597
NMEA,$GNDTM,P90,,0000.000011,S,00000.000001,W,0.999,W84*44,1772042151597
NMEA,$GNRMC,175551.00,A,1304.005232,N,07735.500252,E,0.0,,250226,1.1,W,A,V*68,1772042151597
NMEA,$GNGNS,175551.00,1304.005232,N,07735.500252,E,AAAAAN,10,1.0,920.5,-84.0,,,V*06,1772042151597
NMEA,$GNGGA,175551.00,1304.005232,N,07735.500252,E,1,10,1.0,920.5,M,-84.0,M,,*59,1772042151597
NMEA,$GPGSV,3,1,12,08,12,287,17,18,41,139,14,23,30,059,21,25,11,115,24,1*6E,1772042152554
NMEA,$GPGSV,3,2,12,27,27,259,15,32,53,330,15,02,05,324,,10,37,010,,1*69,1772042152554
NMEA,$GPGSV,3,3,12,24,00,000,,26,05,197,,28,51,182,,31,21,200,,1*69,1772042152554
NMEA,$GLGSV,2,1,08,66,30,305,16,76,19,140,25,75,17,083,28,77,01,182,,1*75,1772042152554
NMEA,$GLGSV,2,2,08,65,26,003,,88,68,296,,87,35,166,,67,03,256,,1*7C,1772042152554
NMEA,$GAGSV,3,1,11,09,12,034,11,11,19,135,21,25,10,160,18,34,50,340,15,7*79,1772042152554
NMEA,$GAGSV,3,2,11,36,66,105,15,02,04,209,,03,47,261,,05,55,357,,7*7B,1772042152554
NMEA,$GAGSV,3,3,11,08,04,232,,15,02,325,,16,03,115,,7*4F,1772042152554
NMEA,$GQGSV,1,1,01,03,22,124,27,1*55,1772042152554
NMEA,$GBGSV,5,1,17,26,36,114,22,21,22,035,18,12,43,174,15,09,57,129,16,1*79,1772042152554
NMEA,$GBGSV,5,2,17,07,17,161,20,03,49,106,24,01,14,094,27,02,76,144,,1*73,1772042152554
NMEA,$GBGSV,5,3,17,05,64,242,,06,58,104,,08,30,043,,10,25,172,,1*75,1772042152554
NMEA,$GBGSV,5,4,17,11,61,273,,13,36,033,,14,30,306,,16,55,090,,1*7A,1772042152554
NMEA,$GBGSV,5,5,17,24,26,170,,1*44,1772042152554
NMEA,$GNGSA,A,3,08,18,23,25,,,,,,,,,1.3,1.0,0.9,1*3C,1772042152596
NMEA,$GNGSA,A,3,66,75,76,,,,,,,,,,1.3,1.0,0.9,2*3B,1772042152596
NMEA,$GNGSA,A,3,36,,,,,,,,,,,,1.3,1.0,0.9,3*3C,1772042152596
NMEA,$GNGSA,A,3,03,07,,,,,,,,,,,1.3,1.0,0.9,4*3A,1772042152596
NMEA,$GNVTG,,T,,M,0.0,N,0.0,K,A*3D,1772042152596
NMEA,$GNDTM,P90,,0000.000011,S,00000.000001,W,0.999,W84*44,1772042152596
NMEA,$GNRMC,175552.00,A,1304.005242,N,07735.500251,E,0.0,,250226,1.1,W,A,V*6F,1772042152596
NMEA,$GNGNS,175552.00,1304.005242,N,07735.500251,E,AAAANN,10,1.0,920.5,-84.0,,,V*0E,1772042152596
NMEA,$GNGGA,175552.00,1304.005242,N,07735.500251,E,1,10,1.0,920.5,M,-84.0,M,,*5E,1772042152596
NMEA,$GPGSV,3,1,12,08,12,287,17,18,41,139,21,23,30,059,24,25,11,115,24,1*6D,1772042153548
NMEA,$GPGSV,3,2,12,27,27,259,15,32,53,330,15,02,05,324,,10,37,010,,1*69,1772042153548
NMEA,$GPGSV,3,3,12,24,00,000,,26,05,197,,28,51,182,,31,21,200,,1*69,1772042153548
NMEA,$GLGSV,2,1,08,66,30,305,17,76,19,140,25,75,17,083,24,77,01,182,,1*78,1772042153548
NMEA,$GLGSV,2,2,08,65,26,003,,88,68,296,,87,35,166,,67,03,256,,1*7C,1772042153548
NMEA,$GAGSV,3,1,11,09,12,034,11,11,19,135,20,25,10,160,18,36,66,105,15,7*7C,1772042153548
NMEA,$GAGSV,3,2,11,02,04,209,,03,47,261,,05,55,357,,08,04,232,,7*71,1772042153548
NMEA,$GAGSV,3,3,11,15,02,325,,16,03,115,,34,50,340,,7*45,1772042153548
NMEA,$GQGSV,1,1,01,03,22,124,27,1*55,1772042153548
NMEA,$GBGSV,5,1,17,26,36,114,27,12,43,174,15,09,57,129,16,07,17,161,20,1*75,1772042153548
NMEA,$GBGSV,5,2,17,03,49,106,24,01,14,094,27,02,76,144,,05,64,242,,1*75,1772042153548
NMEA,$GBGSV,5,3,17,06,58,104,,08,30,043,,10,25,172,,11,61,273,,1*77,1772042153548
NMEA,$GBGSV,5,4,17,13,36,033,,14,30,306,,16,55,090,,21,22,035,,1*7E,1772042153548
NMEA,$GBGSV,5,5,17,24,26,170,,1*44,1772042153548
NMEA,$GNGSA,A,3,08,18,23,25,,,,,,,,,1.3,1.0,0.9,1*3C,1772042153588
NMEA,$GNGSA,A,3,66,75,76,,,,,,,,,,1.3,1.0,0.9,2*3B,1772042153588
NMEA,$GNGSA,A,3,36,,,,,,,,,,,,1.3,1.0,0.9,3*3C,1772042153588
NMEA,$GNGSA,A,3,07,,,,,,,,,,,,1.3,1.0,0.9,4*39,1772042153588
NMEA,$GNVTG,,T,,M,0.0,N,0.0,K,A*3D,1772042153588
NMEA,$GNDTM,P90,,0000.000011,S,00000.000001,W,0.999,W84*44,1772042153588
NMEA,$GNRMC,175553.00,A,1304.005287,N,07735.500178,E,0.0,,250226,1.1,W,A,V*6F,1772042153588
NMEA,$GNGNS,175553.00,1304.005287,N,07735.500178,E,AAAANN,09,1.0,920.6,-84.0,,,V*05,1772042153588
NMEA,$GNGGA,175553.00,1304.005287,N,07735.500178,E,1,09,1.0,920.6,M,-84.0,M,,*55,1772042153588
NMEA,$GPGSV,3,1,12,08,12,287,17,18,41,139,21,23,30,059,24,25,11,115,24,1*6D,1772042154547
NMEA,$GPGSV,3,2,12,27,27,259,15,32,53,330,15,02,05,324,,10,37,010,,1*69,1772042154547
NMEA,$GPGSV,3,3,12,24,00,000,,26,05,197,,28,51,182,,31,21,200,,1*69,1772042154547
NMEA,$GLGSV,2,1,08,66,30,305,17,76,19,140,21,75,17,083,27,77,01,182,,1*7F,1772042154547
NMEA,$GLGSV,2,2,08,65,26,003,,88,68,296,,87,35,166,,67,03,256,,1*7C,1772042154547
NMEA,$GAGSV,3,1,11,09,12,034,11,11,19,135,20,25,10,160,15,36,66,105,15,7*71,1772042154547
NMEA,$GAGSV,3,2,11,02,04,209,,03,47,261,,05,55,357,,08,04,232,,7*71,1772042154547
NMEA,$GAGSV,3,3,11,15,02,325,,16,03,115,,34,50,340,,7*45,1772042154547
NMEA,$GQGSV,1,1,01,03,22,124,15,1*54,1772042154547
NMEA,$GBGSV,5,1,17,26,36,114,29,12,43,174,15,07,17,161,20,03,49,106,24,1*72,1772042154547
NMEA,$GBGSV,5,2,17,01,14,094,23,02,76,144,,05,64,242,,06,58,104,,1*70,1772042154547
NMEA,$GBGSV,5,3,17,08,30,043,,09,57,129,,10,25,172,,11,61,273,,1*78,1772042154547
NMEA,$GBGSV,5,4,17,13,36,033,,14,30,306,,16,55,090,,21,22,035,,1*7E,1772042154547
NMEA,$GBGSV,5,5,17,24,26,170,,1*44,1772042154547
NMEA,$GNGSA,A,3,08,18,23,25,,,,,,,,,1.3,0.9,0.8,1*35,1772042154560
NMEA,$GNGSA,A,3,66,75,76,,,,,,,,,,1.3,0.9,0.8,2*32,1772042154560
NMEA,$GNGSA,A,3,25,36,,,,,,,,,,,1.3,0.9,0.8,3*32,1772042154560
NMEA,$GNGSA,A,3,07,,,,,,,,,,,,1.3,0.9,0.8,4*30,1772042154560
NMEA,$GNGSA,A,3,03,,,,,,,,,,,,1.3,0.9,0.8,5*35,1772042154560
NMEA,$GNVTG,,T,,M,0.0,N,0.0,K,A*3D,1772042154560
NMEA,$GNDTM,P90,,0000.000011,S,00000.000001,W,0.999,W84*44,1772042154560
NMEA,$GNRMC,175554.00,A,1304.005286,N,07735.500177,E,0.0,,250226,1.1,W,A,V*66,1772042154560
NMEA,$GNGNS,175554.00,1304.005286,N,07735.500177,E,AAAAAN,11,0.9,920.6,-84.0,,,V*02,1772042154560
NMEA,$GNGGA,175554.00,1304.005286,N,07735.500177,E,1,11,0.9,920.6,M,-84.0,M,,*5D,1772042154560
NMEA,$GPGSV,3,1,12,08,12,287,17,18,41,139,20,23,30,059,25,25,11,115,20,1*69,1772042155553
NMEA,$GPGSV,3,2,12,32,53,330,15,02,05,324,,10,37,010,,24,00,000,,1*65,1772042155553
NMEA,$GPGSV,3,3,12,26,05,197,,27,27,259,,28,51,182,,31,21,200,,1*61,1772042155553
NMEA,$GLGSV,2,1,08,66,30,305,17,76,19,140,22,75,17,083,26,77,01,182,,1*7D,1772042155553
NMEA,$GLGSV,2,2,08,65,26,003,,88,68,296,,87,35,166,,67,03,256,,1*7C,1772042155553
NMEA,$GAGSV,3,1,11,11,19,135,20,25,10,160,15,36,66,105,15,02,04,209,,7*71,1772042155553
NMEA,$GAGSV,3,2,11,03,47,261,,05,55,357,,08,04,232,,09,12,034,,7*71,1772042155553
NMEA,$GAGSV,3,3,11,15,02,325,,16,03,115,,34,50,340,,7*45,1772042155553
NMEA,$GQGSV,1,1,01,03,22,124,15,1*54,1772042155553
NMEA,$GBGSV,5,1,17,26,36,114,28,12,43,174,15,07,17,161,19,03,49,106,24,1*79,1772042155553
NMEA,$GBGSV,5,2,17,01,14,094,23,02,76,144,,05,64,242,,06,58,104,,1*70,1772042155553
NMEA,$GBGSV,5,3,17,08,30,043,,09,57,129,,10,25,172,,11,61,273,,1*78,1772042155553
NMEA,$GBGSV,5,4,17,13,36,033,,14,30,306,,16,55,090,,21,22,035,,1*7E,1772042155553
NMEA,$GBGSV,5,5,17,24,26,170,,1*44,1772042155553
NMEA,$GNGSA,A,3,18,23,25,,,,,,,,,,1.4,1.1,0.9,1*32,1772042155576
NMEA,$GNGSA,A,3,66,75,76,,,,,,,,,,1.4,1.1,0.9,2*3D,1772042155576
NMEA,$GNGSA,A,3,25,,,,,,,,,,,,1.4,1.1,0.9,3*38,1772042155576
NMEA,$GNGSA,A,3,07,,,,,,,,,,,,1.4,1.1,0.9,4*3F,1772042155576
NMEA,$GNGSA,A,3,03,,,,,,,,,,,,1.4,1.1,0.9,5*3A,1772042155576
NMEA,$GNVTG,,T,,M,0.0,N,0.0,K,A*3D,1772042155576
NMEA,$GNDTM,P90,,0000.000011,S,00000.000001,W,0.999,W84*44,1772042155576
NMEA,$GNRMC,175555.00,A,1304.005595,N,07735.500289,E,0.0,,250226,1.1,W,A,V*60,1772042155576
NMEA,$GNGNS,175555.00,1304.005595,N,07735.500289,E,AAAAAN,09,1.1,920.6,-84.0,,,V*04,1772042155576
NMEA,$GNGGA,175555.00,1304.005595,N,07735.500289,E,1,09,1.1,920.6,M,-84.0,M,,*5B,1772042155576
NMEA,$GPGSV,3,1,12,08,12,287,17,18,41,139,20,23,30,059,26,25,11,115,24,1*6E,1772042156555
NMEA,$GPGSV,3,2,12,32,53,330,14,02,05,324,,10,37,010,,24,00,000,,1*64,1772042156555
NMEA,$GPGSV,3,3,12,26,05,197,,27,27,259,,28,51,182,,31,21,200,,1*61,1772042156555
NMEA,$GLGSV,2,1,08,66,30,305,17,76,19,140,22,75,17,083,26,77,01,182,,1*7D,1772042156555
NMEA,$GLGSV,2,2,08,65,26,003,,88,68,296,,87,35,166,,67,03,256,,1*7C,1772042156555
NMEA,$GAGSV,3,1,11,11,19,135,20,25,10,160,15,36,66,105,15,02,04,209,,7*71,1772042156555
NMEA,$GAGSV,3,2,11,03,47,261,,05,55,357,,08,04,232,,09,12,034,,7*71,1772042156555
NMEA,$GAGSV,3,3,11,15,02,325,,16,03,115,,34,50,340,,7*45,1772042156555
NMEA,$GQGSV,1,1,01,03,22,124,15,1*54,1772042156555
NMEA,$GBGSV,5,1,17,26,36,114,27,12,43,174,15,07,17,161,19,03,49,106,24,1*76,1772042156555
NMEA,$GBGSV,5,2,17,01,14,094,23,02,76,144,,05,64,242,,06,58,104,,1*70,1772042156555
NMEA,$GBGSV,5,3,17,08,30,043,,09,57,129,,10,25,172,,11,61,273,,1*78,1772042156555
NMEA,$GBGSV,5,4,17,13,36,033,,14,30,306,,16,55,090,,21,22,035,,1*7E,1772042156555
NMEA,$GBGSV,5,5,17,24,26,170,,1*44,1772042156555
NMEA,$GNGSA,A,3,18,23,25,32,,,,,,,,,1.4,1.0,0.9,1*32,1772042156585
NMEA,$GNGSA,A,3,66,75,76,,,,,,,,,,1.4,1.0,0.9,2*3C,1772042156585
NMEA,$GNGSA,A,3,25,,,,,,,,,,,,1.4,1.0,0.9,3*39,1772042156585
NMEA,$GNGSA,A,3,07,,,,,,,,,,,,1.4,1.0,0.9,4*3E,1772042156585
NMEA,$GNGSA,A,3,03,,,,,,,,,,,,1.4,1.0,0.9,5*3B,1772042156585
NMEA,$GNVTG,,T,,M,0.0,N,0.0,K,A*3D,1772042156585
NMEA,$GNDTM,P90,,0000.000011,S,00000.000001,W,0.999,W84*44,1772042156585
NMEA,$GNRMC,175556.00,A,1304.005583,N,07735.500297,E,0.0,,250226,1.1,W,A,V*6B,1772042156585
NMEA,$GNGNS,175556.00,1304.005583,N,07735.500297,E,AAAAAN,10,1.0,920.4,-84.0,,,V*04,1772042156585
NMEA,$GNGGA,175556.00,1304.005583,N,07735.500297,E,1,10,1.0,920.4,M,-84.0,M,,*5B,1772042156585
NMEA,$GPGSV,3,1,12,08,12,287,17,18,41,139,20,23,30,059,25,25,11,115,25,1*6C,1772042157556
NMEA,$GPGSV,3,2,12,32,53,330,14,02,05,324,,10,37,010,,24,00,000,,1*64,1772042157556
NMEA,$GPGSV,3,3,12,26,05,197,,27,27,259,,28,51,182,,31,21,200,,1*61,1772042157556
NMEA,$GLGSV,2,1,08,66,30,305,17,76,19,140,22,75,17,083,26,77,01,182,,1*7D,1772042157556
NMEA,$GLGSV,2,2,08,65,26,003,,88,68,296,,87,35,166,,67,03,256,,1*7C,1772042157556
NMEA,$GAGSV,3,1,11,11,19,135,20,25,10,160,15,36,66,105,15,02,04,209,,7*71,1772042157556
NMEA,$GAGSV,3,2,11,03,47,261,,05,55,357,,08,04,232,,09,12,034,,7*71,1772042157556
NMEA,$GAGSV,3,3,11,15,02,325,,16,03,115,,34,50,340,,7*45,1772042157556
NMEA,$GQGSV,1,1,01,03,22,124,15,1*54,1772042157556
NMEA,$GBGSV,5,1,17,26,36,114,25,12,43,174,15,07,17,161,19,03,49,106,24,1*74,1772042157556
NMEA,$GBGSV,5,2,17,01,14,094,23,02,76,144,,05,64,242,,06,58,104,,1*70,1772042157556
NMEA,$GBGSV,5,3,17,08,30,043,,09,57,129,,10,25,172,,11,61,273,,1*78,1772042157556
NMEA,$GBGSV,5,4,17,13,36,033,,14,30,306,,16,55,090,,21,22,035,,1*7E,1772042157556
NMEA,$GBGSV,5,5,17,24,26,170,,1*44,1772042157556
NMEA,$GNGSA,A,3,18,23,25,32,,,,,,,,,1.4,1.0,0.9,1*32,1772042157603
NMEA,$GNGSA,A,3,66,75,76,,,,,,,,,,1.4,1.0,0.9,2*3C,1772042157603
NMEA,$GNGSA,A,3,25,,,,,,,,,,,,1.4,1.0,0.9,3*39,1772042157603
NMEA,$GNGSA,A,3,07,,,,,,,,,,,,1.4,1.0,0.9,4*3E,1772042157603
NMEA,$GNGSA,A,3,03,,,,,,,,,,,,1.4,1.0,0.9,5*3B,1772042157603
NMEA,$GNVTG,,T,,M,0.0,N,0.0,K,A*3D,1772042157603
NMEA,$GNDTM,P90,,0000.000011,S,00000.000001,W,0.999,W84*44,1772042157603
NMEA,$GNRMC,175557.00,A,1304.005579,N,07735.500292,E,0.0,,250226,1.1,W,A,V*6A,1772042157603
NMEA,$GNGNS,175557.00,1304.005579,N,07735.500292,E,AAAAAN,10,1.0,920.4,-84.0,,,V*05,1772042157603
NMEA,$GNGGA,175557.00,1304.005579,N,07735.500292,E,1,10,1.0,920.4,M,-84.0,M,,*5A,1772042157603
NMEA,$GPGSV,3,1,12,08,12,287,17,18,41,139,20,23,30,059,26,25,11,115,25,1*6F,1772042158554
NMEA,$GPGSV,3,2,12,32,53,330,14,02,05,324,,10,37,010,,24,00,000,,1*64,1772042158554
NMEA,$GPGSV,3,3,12,26,05,197,,27,27,259,,28,51,182,,31,21,200,,1*61,1772042158554
NMEA,$GLGSV,2,1,08,66,30,305,17,76,19,140,25,75,17,083,23,77,01,182,,1*7F,1772042158554
NMEA,$GLGSV,2,2,08,65,26,003,,88,68,296,,87,35,166,,67,03,256,,1*7C,1772042158554
NMEA,$GAGSV,3,1,11,11,19,135,19,25,10,160,15,36,66,105,15,02,04,209,,7*7B,1772042158554
NMEA,$GAGSV,3,2,11,03,47,261,,05,55,357,,08,04,232,,09,12,034,,7*71,1772042158554
NMEA,$GAGSV,3,3,11,15,02,325,,16,03,115,,34,50,340,,7*45,1772042158554
NMEA,$GQGSV,1,1,01,03,22,124,21,1*53,1772042158554
NMEA,$GBGSV,5,1,17,26,36,114,23,12,43,174,15,07,17,161,19,03,49,106,24,1*72,1772042158554
NMEA,$GBGSV,5,2,17,01,14,094,23,02,76,144,,05,64,242,,06,58,104,,1*70,1772042158554
NMEA,$GBGSV,5,3,17,08,30,043,,09,57,129,,10,25,172,,11,61,273,,1*78,1772042158554
NMEA,$GBGSV,5,4,17,13,36,033,,14,30,306,,16,55,090,,21,22,035,,1*7E,1772042158554
NMEA,$GBGSV,5,5,17,24,26,170,,1*44,1772042158554
NMEA,$GNGSA,A,3,18,23,25,32,,,,,,,,,1.4,1.0,0.9,1*32,1772042158600
NMEA,$GNGSA,A,3,66,75,76,,,,,,,,,,1.4,1.0,0.9,2*3C,1772042158600
NMEA,$GNGSA,A,3,25,,,,,,,,,,,,1.4,1.0,0.9,3*39,1772042158600
NMEA,$GNGSA,A,3,07,,,,,,,,,,,,1.4,1.0,0.9,4*3E,1772042158600
NMEA,$GNGSA,A,3,03,,,,,,,,,,,,1.4,1.0,0.9,5*3B,1772042158600
NMEA,$GNVTG,,T,,M,0.0,N,0.0,K,A*3D,1772042158600
NMEA,$GNDTM,P90,,0000.000011,S,00000.000001,W,0.999,W84*44,1772042158600
NMEA,$GNRMC,175558.00,A,1304.005575,N,07735.500286,E,0.0,,250226,1.1,W,A,V*6C,1772042158600
NMEA,$GNGNS,175558.00,1304.005575,N,07735.500286,E,AAAAAN,10,1.0,920.4,-84.0,,,V*03,1772042158600
NMEA,$GNGGA,175558.00,1304.005575,N,07735.500286,E,1,10,1.0,920.4,M,-84.0,M,,*5C,1772042158600
NMEA,$GPGSV,3,1,12,08,12,287,15,18,41,139,18,23,30,059,26,25,11,115,25,1*66,1772042159552
NMEA,$GPGSV,3,2,12,32,53,330,14,02,05,324,,10,37,010,,24,00,000,,1*64,1772042159552
NMEA,$GPGSV,3,3,12,26,05,197,,27,27,259,,28,51,182,,31,21,200,,1*61,1772042159552
NMEA,$GLGSV,2,1,08,66,30,305,17,76,19,140,23,75,17,083,23,77,01,182,,1*79,1772042159552
NMEA,$GLGSV,2,2,08,65,26,003,,88,68,296,,87,35,166,,67,03,256,,1*7C,1772042159552
NMEA,$GAGSV,3,1,11,11,19,135,22,25,10,160,15,36,66,105,15,02,04,209,,7*73,1772042159552
NMEA,$GAGSV,3,2,11,03,47,261,,05,55,357,,08,04,232,,09,12,034,,7*71,1772042159552
NMEA,$GAGSV,3,3,11,15,02,325,,16,03,115,,34,50,340,,7*45,1772042159552
NMEA,$GQGSV,1,1,01,03,22,124,26,1*54,1772042159552
NMEA,$GBGSV,5,1,17,26,36,114,25,12,43,174,15,07,17,161,19,03,49,106,24,1*74,1772042159552
NMEA,$GBGSV,5,2,17,01,14,094,23,02,76,144,,05,64,242,,06,58,104,,1*70,1772042159552
NMEA,$GBGSV,5,3,17,08,30,043,,09,57,129,,10,25,172,,11,61,273,,1*78,1772042159552
NMEA,$GBGSV,5,4,17,13,36,033,,14,30,306,,16,55,090,,21,22,035,,1*7E,1772042159552
NMEA,$GBGSV,5,5,17,24,26,170,,1*44,1772042159552
NMEA,$GNGSA,A,3,08,18,23,25,32,,,,,,,,1.3,1.0,0.9,1*3D,1772042159603
NMEA,$GNGSA,A,3,75,76,,,,,,,,,,,1.3,1.0,0.9,2*3B,1772042159603
NMEA,$GNGSA,A,3,25,,,,,,,,,,,,1.3,1.0,0.9,3*3E,1772042159603
NMEA,$GNGSA,A,3,07,,,,,,,,,,,,1.3,1.0,0.9,4*39,1772042159603
NMEA,$GNGSA,A,3,03,,,,,,,,,,,,1.3,1.0,0.9,5*3C,1772042159603
NMEA,$GNVTG,,T,,M,0.0,N,0.0,K,A*3D,1772042159603
NMEA,$GNDTM,P90,,0000.000011,S,00000.000001,W,0.999,W84*44,1772042159603
NMEA,$GNRMC,175559.00,A,1304.005574,N,07735.500286,E,0.0,,250226,1.1,W,A,V*6C,1772042159603
NMEA,$GNGNS,175559.00,1304.005574,N,07735.500286,E,AAAAAN,10,1.0,920.4,-84.0,,,V*03,1772042159603
NMEA,$GNGGA,175559.00,1304.005574,N,07735.500286,E,1,10,1.0,920.4,M,-84.0,M,,*5C,1772042159603
NMEA,$GPGSV,3,1,12,08,12,287,15,18,41,139,18,23,30,059,25,25,11,115,25,1*65,1772042160549
NMEA,$GPGSV,3,2,12,32,53,330,14,02,05,324,,10,37,010,,24,00,000,,1*64,1772042160549
NMEA,$GPGSV,3,3,12,26,05,197,,27,27,259,,28,51,182,,31,21,200,,1*61,1772042160549
NMEA,$GLGSV,2,1,08,66,30,305,17,76,19,140,23,75,17,083,26,77,01,182,,1*7C,1772042160549
NMEA,$GLGSV,2,2,08,65,26,003,,88,68,296,,87,35,166,,67,03,256,,1*7C,1772042160549
NMEA,$GAGSV,3,1,11,11,19,135,22,25,10,160,15,36,66,105,15,02,04,209,,7*73,1772042160549
NMEA,$GAGSV,3,2,11,03,47,261,,05,55,357,,08,04,232,,09,12,034,,7*71,1772042160549
NMEA,$GAGSV,3,3,11,15,02,325,,16,03,115,,34,50,340,,7*45,1772042160549
NMEA,$GQGSV,1,1,01,03,22,124,25,1*57,1772042160549
NMEA,$GBGSV,5,1,17,26,36,114,26,12,43,174,15,07,17,161,19,03,49,106,24,1*77,1772042160549
NMEA,$GBGSV,5,2,17,01,14,094,24,02,76,144,,05,64,242,,06,58,104,,1*77,1772042160549
NMEA,$GBGSV,5,3,17,08,30,043,,09,57,129,,10,25,172,,11,61,273,,1*78,1772042160549
NMEA,$GBGSV,5,4,17,13,36,033,,14,30,306,,16,55,090,,21,22,035,,1*7E,1772042160549
NMEA,$GBGSV,5,5,17,24,26,170,,1*44,1772042160549
NMEA,$GNGSA,A,3,08,18,23,25,32,,,,,,,,1.3,1.0,0.9,1*3D,1772042160577
NMEA,$GNGSA,A,3,75,76,,,,,,,,,,,1.3,1.0,0.9,2*3B,1772042160577
NMEA,$GNGSA,A,3,07,,,,,,,,,,,,1.3,1.0,0.9,4*39,1772042160577
NMEA,$GNGSA,A,3,03,,,,,,,,,,,,1.3,1.0,0.9,5*3C,1772042160577
NMEA,$GNVTG,,T,,M,0.0,N,0.0,K,A*3D,1772042160577
NMEA,$GNDTM,P90,,0000.000011,S,00000.000001,W,0.999,W84*44,1772042160577
NMEA,$GNRMC,175600.00,A,1304.005574,N,07735.500285,E,0.0,,250226,1.1,W,A,V*60,1772042160577
NMEA,$GNGNS,175600.00,1304.005574,N,07735.500285,E,AANAAN,09,1.0,920.4,-84.0,,,V*08,1772042160577
NMEA,$GNGGA,175600.00,1304.005574,N,07735.500285,E,1,09,1.0,920.4,M,-84.0,M,,*58,1772042160577
NMEA,$GPGSV,3,1,12,08,12,287,15,18,41,139,18,23,30,059,22,25,11,115,25,1*62,1772042161549
NMEA,$GPGSV,3,2,12,27,27,259,17,32,53,330,14,02,05,324,,10,37,010,,1*6A,1772042161549
NMEA,$GPGSV,3,3,12,24,00,000,,26,05,197,,28,51,182,,31,21,200,,1*69,1772042161549
NMEA,$GLGSV,2,1,08,66,30,305,17,76,19,140,24,75,17,083,27,77,01,182,,1*7A,1772042161549
NMEA,$GLGSV,2,2,08,65,26,003,,88,68,296,,87,35,166,,67,03,256,,1*7C,1772042161549
NMEA,$GAGSV,3,1,11,11,19,135,22,25,10,160,15,36,66,105,17,02,04,209,,7*71,1772042161549
NMEA,$GAGSV,3,2,11,03,47,261,,05,55,357,,08,04,232,,09,12,034,,7*71,1772042161549
NMEA,$GAGSV,3,3,11,15,02,325,,16,03,115,,34,50,340,,7*45,1772042161549
NMEA,$GQGSV,1,1,01,03,22,124,24,1*56,1772042161549
NMEA,$GBGSV,5,1,17,26,36,114,26,12,43,174,15,07,17,161,18,03,49,106,24,1*76,1772042161549
NMEA,$GBGSV,5,2,17,01,14,094,24,02,76,144,,05,64,242,,06,58,104,,1*77,1772042161549
NMEA,$GBGSV,5,3,17,08,30,043,,09,57,129,,10,25,172,,11,61,273,,1*78,1772042161549
NMEA,$GBGSV,5,4,17,13,36,033,,14,30,306,,16,55,090,,21,22,035,,1*7E,1772042161549
NMEA,$GBGSV,5,5,17,24,26,170,,1*44,1772042161549
NMEA,$GNGSA,A,3,08,18,23,25,27,32,,,,,,,1.2,0.9,0.8,1*30,1772042161584
NMEA,$GNGSA,A,3,75,76,,,,,,,,,,,1.2,0.9,0.8,2*33,1772042161584
NMEA,$GNGSA,A,3,36,,,,,,,,,,,,1.2,0.9,0.8,3*34,1772042161584
NMEA,$GNGSA,A,3,07,,,,,,,,,,,,1.2,0.9,0.8,4*31,1772042161584
NMEA,$GNGSA,A,3,03,,,,,,,,,,,,1.2,0.9,0.8,5*34,1772042161584
NMEA,$GNVTG,,T,,M,0.0,N,0.0,K,A*3D,1772042161584
NMEA,$GNDTM,P90,,0000.000011,S,00000.000001,W,0.999,W84*44,1772042161584
NMEA,$GNRMC,175601.00,A,1304.005594,N,07735.500195,E,0.0,,250226,1.1,W,A,V*6D,1772042161584
NMEA,$GNGNS,175601.00,1304.005594,N,07735.500195,E,AAAAAN,11,0.9,920.5,-84.0,,,V*0A,1772042161584
NMEA,$GNGGA,175601.00,1304.005594,N,07735.500195,E,1,11,0.9,920.5,M,-84.0,M,,*55,1772042161584
NMEA,$GPGSV,3,1,12,08,12,287,15,18,41,139,20,23,30,059,22,25,11,115,25,1*69,1772042162554
NMEA,$GPGSV,3,2,12,27,27,259,17,32,53,330,14,02,05,324,,10,37,010,,1*6A,1772042162554
NMEA,$GPGSV,3,3,12,24,00,000,,26,05,197,,28,51,182,,31,21,200,,1*69,1772042162554
NMEA,$GLGSV,2,1,08,66,30,305,17,76,19,140,24,75,17,083,26,77,01,182,,1*7B,1772042162554
NMEA,$GLGSV,2,2,08,65,26,003,,88,68,296,,87,35,166,,67,03,256,,1*7C,1772042162554
NMEA,$GAGSV,3,1,11,11,19,135,23,25,10,160,15,36,66,105,17,02,04,209,,7*70,1772042162554
NMEA,$GAGSV,3,2,11,03,47,261,,05,55,357,,08,04,232,,09,12,034,,7*71,1772042162554
NMEA,$GAGSV,3,3,11,15,02,325,,16,03,115,,34,50,340,,7*45,1772042162554
NMEA,$GQGSV,1,1,01,03,22,124,24,1*56,1772042162554
NMEA,$GBGSV,5,1,17,26,36,114,28,12,43,174,15,07,17,161,18,03,49,106,24,1*78,1772042162554
NMEA,$GBGSV,5,2,17,01,14,094,24,02,76,144,,05,64,242,,06,58,104,,1*77,1772042162554
NMEA,$GBGSV,5,3,17,08,30,043,,09,57,129,,10,25,172,,11,61,273,,1*78,1772042162554
NMEA,$GBGSV,5,4,17,13,36,033,,14,30,306,,16,55,090,,21,22,035,,1*7E,1772042162554
NMEA,$GBGSV,5,5,17,24,26,170,,1*44,1772042162554
NMEA,$GNGSA,A,3,08,18,23,25,27,,,,,,,,1.3,1.0,0.9,1*39,1772042162594
NMEA,$GNGSA,A,3,75,76,,,,,,,,,,,1.3,1.0,0.9,2*3B,1772042162594
NMEA,$GNGSA,A,3,36,,,,,,,,,,,,1.3,1.0,0.9,3*3C,1772042162594
NMEA,$GNGSA,A,3,07,,,,,,,,,,,,1.3,1.0,0.9,4*39,1772042162594
NMEA,$GNGSA,A,3,03,,,,,,,,,,,,1.3,1.0,0.9,5*3C,1772042162594
NMEA,$GNVTG,,T,,M,0.0,N,0.0,K,A*3D,1772042162594
NMEA,$GNDTM,P90,,0000.000011,S,00000.000001,W,0.999,W84*44,1772042162594
NMEA,$GNRMC,175602.00,A,1304.005592,N,07735.500196,E,0.0,,250226,1.1,W,A,V*6B,1772042162594
NMEA,$GNGNS,175602.00,1304.005592,N,07735.500196,E,AAAAAN,10,1.0,920.5,-84.0,,,V*05,1772042162594
NMEA,$GNGGA,175602.00,1304.005592,N,07735.500196,E,1,10,1.0,920.5,M,-84.0,M,,*5A,1772042162594
NMEA,$GPGSV,3,1,12,08,12,287,15,18,41,139,20,23,30,059,22,25,11,115,25,1*69,1772042163555
NMEA,$GPGSV,3,2,12,27,27,259,17,32,53,330,14,02,05,324,,10,37,010,,1*6A,1772042163555
NMEA,$GPGSV,3,3,12,24,00,000,,26,05,197,,28,51,182,,31,21,200,,1*69,1772042163555
NMEA,$GLGSV,2,1,08,66,30,305,17,76,19,140,24,75,17,083,24,77,01,182,,1*79,1772042163555
NMEA,$GLGSV,2,2,08,65,26,003,,88,68,296,,87,35,166,,67,03,256,,1*7C,1772042163555
NMEA,$GAGSV,3,1,11,11,19,135,22,25,10,160,15,36,66,105,17,02,04,209,,7*71,1772042163555
NMEA,$GAGSV,3,2,11,03,47,261,,05,55,357,,08,04,232,,09,12,034,,7*71,1772042163555
NMEA,$GAGSV,3,3,11,15,02,325,,16,03,115,,34,50,340,,7*45,1772042163555
NMEA,$GQGSV,1,1,01,03,22,124,25,1*57,1772042163555
NMEA,$GBGSV,5,1,17,26,36,114,26,12,43,174,15,07,17,161,18,03,49,106,24,1*76,1772042163555
NMEA,$GBGSV,5,2,17,01,14,094,24,02,76,144,,05,64,242,,06,58,104,,1*77,1772042163555
NMEA,$GBGSV,5,3,17,08,30,043,,09,57,129,,10,25,172,,11,61,273,,1*78,1772042163555
NMEA,$GBGSV,5,4,17,13,36,033,,14,30,306,,16,55,090,,21,22,035,,1*7E,1772042163555
NMEA,$GBGSV,5,5,17,24,26,170,,1*44,1772042163555
NMEA,$GNGSA,A,3,08,18,23,27,,,,,,,,,1.4,1.0,0.9,1*39,1772042163598
NMEA,$GNGSA,A,3,75,76,,,,,,,,,,,1.4,1.0,0.9,2*3C,1772042163598
NMEA,$GNGSA,A,3,36,,,,,,,,,,,,1.4,1.0,0.9,3*3B,1772042163598
NMEA,$GNGSA,A,3,07,,,,,,,,,,,,1.4,1.0,0.9,4*3E,1772042163598
NMEA,$GNGSA,A,3,03,,,,,,,,,,,,1.4,1.0,0.9,5*3B,1772042163598
NMEA,$GNVTG,,T,,M,0.0,N,0.0,K,A*3D,1772042163598
NMEA,$GNDTM,P90,,0000.000011,S,00000.000001,W,0.999,W84*44,1772042163598
NMEA,$GNRMC,175603.00,A,1304.005589,N,07735.500194,E,0.0,,250226,1.1,W,A,V*62,1772042163598
NMEA,$GNGNS,175603.00,1304.005589,N,07735.500194,E,AAAAAN,09,1.0,920.5,-84.0,,,V*04,1772042163598
NMEA,$GNGGA,175603.00,1304.005589,N,07735.500194,E,1,09,1.0,920.5,M,-84.0,M,,*5B,1772042163598
NMEA,$GPGSV,3,1,12,08,12,287,15,18,41,139,20,23,30,059,22,25,11,115,25,1*69,1772042164550
NMEA,$GPGSV,3,2,12,27,27,259,17,32,53,330,14,02,05,324,,10,37,010,,1*6A,1772042164550
NMEA,$GPGSV,3,3,12,24,00,000,,26,05,197,,28,51,182,,31,21,200,,1*69,1772042164550
NMEA,$GLGSV,2,1,08,66,30,305,17,76,19,140,25,75,17,083,28,77,01,182,,1*74,1772042164550
NMEA,$GLGSV,2,2,08,65,26,003,,88,68,296,,87,35,166,,67,03,256,,1*7C,1772042164550
NMEA,$GAGSV,3,1,11,11,19,135,23,25,10,160,15,36,66,105,17,02,04,209,,7*70,1772042164550
NMEA,$GAGSV,3,2,11,03,47,261,,05,55,357,,08,04,232,,09,12,034,,7*71,1772042164550
NMEA,$GAGSV,3,3,11,15,02,325,,16,03,115,,34,50,340,,7*45,1772042164550
NMEA,$GQGSV,1,1,01,03,22,124,23,1*51,1772042164550
NMEA,$GBGSV,5,1,17,26,36,114,27,12,43,174,15,07,17,161,18,03,49,106,24,1*77,1772042164550
NMEA,$GBGSV,5,2,17,01,14,094,24,02,76,144,,05,64,242,,06,58,104,,1*77,1772042164550
NMEA,$GBGSV,5,3,17,08,30,043,,09,57,129,,10,25,172,,11,61,273,,1*78,1772042164550
NMEA,$GBGSV,5,4,17,13,36,033,,14,30,306,,16,55,090,,21,22,035,,1*7E,1772042164550
NMEA,$GBGSV,5,5,17,24,26,170,,1*44,1772042164550
NMEA,$GNGSA,A,3,08,18,23,27,,,,,,,,,1.3,0.9,0.9,1*36,1772042164591
NMEA,$GNGSA,A,3,66,75,76,,,,,,,,,,1.3,0.9,0.9,2*33,1772042164591
NMEA,$GNGSA,A,3,36,,,,,,,,,,,,1.3,0.9,0.9,3*34,1772042164591
NMEA,$GNGSA,A,3,07,,,,,,,,,,,,1.3,0.9,0.9,4*31,1772042164591
NMEA,$GNGSA,A,3,03,,,,,,,,,,,,1.3,0.9,0.9,5*34,1772042164591
NMEA,$GNVTG,,T,,M,0.0,N,0.0,K,A*3D,1772042164591
NMEA,$GNDTM,P90,,0000.000011,S,00000.000001,W,0.999,W84*44,1772042164591
NMEA,$GNRMC,175604.00,A,1304.005585,N,07735.500199,E,0.0,,250226,1.1,W,A,V*64,1772042164591
NMEA,$GNGNS,175604.00,1304.005585,N,07735.500199,E,AAAAAN,10,0.9,920.5,-84.0,,,V*02,1772042164591
NMEA,$GNGGA,175604.00,1304.005585,N,07735.500199,E,1,10,0.9,920.5,M,-84.0,M,,*5D,1772042164591
NMEA,$GPGSV,3,1,12,08,12,287,15,18,41,139,20,23,30,059,21,25,11,115,20,1*6F,1772042165557
NMEA,$GPGSV,3,2,12,27,27,259,17,32,53,330,14,02,05,324,,10,37,010,,1*6A,1772042165557
NMEA,$GPGSV,3,3,12,24,00,000,,26,05,197,,28,51,182,,31,21,200,,1*69,1772042165557
NMEA,$GLGSV,2,1,08,66,30,305,17,76,19,140,26,75,17,083,32,77,01,182,,1*7C,1772042165557
NMEA,$GLGSV,2,2,08,65,26,003,,88,68,296,,87,35,166,,67,03,256,,1*7C,1772042165557
NMEA,$GAGSV,3,1,11,11,19,135,24,25,10,160,15,36,66,105,17,02,04,209,,7*77,1772042165557
NMEA,$GAGSV,3,2,11,03,47,261,,05,55,357,,08,04,232,,09,12,034,,7*71,1772042165557
NMEA,$GAGSV,3,3,11,15,02,325,,16,03,115,,34,50,340,,7*45,1772042165557
NMEA,$GQGSV,1,1,01,03,22,124,22,1*50,1772042165557
NMEA,$GBGSV,5,1,17,26,36,114,28,07,17,161,18,03,49,106,24,01,14,094,24,1*75,1772042165557
NMEA,$GBGSV,5,2,17,02,76,144,,05,64,242,,06,58,104,,08,30,043,,1*74,1772042165557
NMEA,$GBGSV,5,3,17,09,57,129,,10,25,172,,11,61,273,,12,43,174,,1*72,1772042165557
NMEA,$GBGSV,5,4,17,13,36,033,,14,30,306,,16,55,090,,21,22,035,,1*7E,1772042165557
NMEA,$GBGSV,5,5,17,24,26,170,,1*44,1772042165557
NMEA,$GNGSA,A,3,18,23,25,27,,,,,,,,,1.3,1.0,0.9,1*31,1772042165592
NMEA,$GNGSA,A,3,66,75,76,,,,,,,,,,1.3,1.0,0.9,2*3B,1772042165592
NMEA,$GNGSA,A,3,36,,,,,,,,,,,,1.3,1.0,0.9,3*3C,1772042165592
NMEA,$GNGSA,A,3,07,,,,,,,,,,,,1.3,1.0,0.9,4*39,1772042165592
NMEA,$GNGSA,A,3,03,,,,,,,,,,,,1.3,1.0,0.9,5*3C,1772042165592
NMEA,$GNVTG,,T,,M,0.0,N,0.0,K,A*3D,1772042165592
NMEA,$GNDTM,P90,,0000.000011,S,00000.000001,W,0.999,W84*44,1772042165592
NMEA,$GNRMC,175605.00,A,1304.005764,N,07735.500260,E,0.0,,250226,1.1,W,A,V*6D,1772042165592
NMEA,$GNGNS,175605.00,1304.005764,N,07735.500260,E,AAAAAN,10,1.0,920.5,-84.0,,,V*03,1772042165592
NMEA,$GNGGA,175605.00,1304.005764,N,07735.500260,E,1,10,1.0,920.5,M,-84.0,M,,*5C,1772042165592
NMEA,$GPGSV,3,1,12,08,12,287,15,18,41,139,21,23,30,059,21,25,11,115,23,1*6D,1772042166554
NMEA,$GPGSV,3,2,12,27,27,259,17,32,53,330,14,02,05,324,,10,37,010,,1*6A,1772042166554
NMEA,$GPGSV,3,3,12,24,00,000,,26,05,197,,28,51,182,,31,21,200,,1*69,1772042166554
NMEA,$GLGSV,2,1,08,66,30,305,17,76,19,140,22,75,17,083,27,77,01,182,,1*7C,1772042166554
NMEA,$GLGSV,2,2,08,65,26,003,,88,68,296,,87,35,166,,67,03,256,,1*7C,1772042166554
NMEA,$GAGSV,3,1,11,11,19,135,23,25,10,160,15,36,66,105,17,02,04,209,,7*70,1772042166554
NMEA,$GAGSV,3,2,11,03,47,261,,05,55,357,,08,04,232,,09,12,034,,7*71,1772042166554
NMEA,$GAGSV,3,3,11,15,02,325,,16,03,115,,34,50,340,,7*45,1772042166554
NMEA,$GQGSV,1,1,01,03,22,124,25,1*57,1772042166554
NMEA,$GBGSV,5,1,17,26,36,114,26,07,17,161,18,03,49,106,24,01,14,094,27,1*78,1772042166554
NMEA,$GBGSV,5,2,17,02,76,144,,05,64,242,,06,58,104,,08,30,043,,1*74,1772042166554
NMEA,$GBGSV,5,3,17,09,57,129,,10,25,172,,11,61,273,,12,43,174,,1*72,1772042166554
NMEA,$GBGSV,5,4,17,13,36,033,,14,30,306,,16,55,090,,21,22,035,,1*7E,1772042166554
NMEA,$GBGSV,5,5,17,24,26,170,,1*44,1772042166554
NMEA,$GNGSA,A,3,18,23,25,27,,,,,,,,,1.3,0.9,0.9,1*39,1772042166594
NMEA,$GNGSA,A,3,66,75,76,,,,,,,,,,1.3,0.9,0.9,2*33,1772042166594
NMEA,$GNGSA,A,3,25,36,,,,,,,,,,,1.3,0.9,0.9,3*33,1772042166594
NMEA,$GNGSA,A,3,07,,,,,,,,,,,,1.3,0.9,0.9,4*31,1772042166594
NMEA,$GNGSA,A,3,03,,,,,,,,,,,,1.3,0.9,0.9,5*34,1772042166594
NMEA,$GNVTG,,T,,M,0.0,N,0.0,K,A*3D,1772042166594
NMEA,$GNDTM,P90,,0000.000011,S,00000.000001,W,0.999,W84*44,1772042166594
NMEA,$GNRMC,175606.00,A,1304.005763,N,07735.500258,E,0.0,,250226,1.1,W,A,V*62,1772042166594
NMEA,$GNGNS,175606.00,1304.005763,N,07735.500258,E,AAAAAN,11,0.9,920.5,-84.0,,,V*05,1772042166594
NMEA,$GNGGA,175606.00,1304.005763,N,07735.500258,E,1,11,0.9,920.5,M,-84.0,M,,*5A,1772042166594
NMEA,$GPGSV,3,1,12,08,12,287,15,18,41,139,21,23,30,059,21,25,11,115,25,1*6B,1772042167565
NMEA,$GPGSV,3,2,12,27,27,259,17,32,53,330,14,02,05,324,,10,37,010,,1*6A,1772042167565
NMEA,$GPGSV,3,3,12,24,00,000,,26,05,197,,28,51,182,,31,21,200,,1*69,1772042167565
NMEA,$GLGSV,2,1,08,66,30,305,17,76,19,140,23,75,17,083,29,77,01,182,,1*73,1772042167565
NMEA,$GLGSV,2,2,08,65,26,003,,88,68,296,,87,35,166,,67,03,256,,1*7C,1772042167565
NMEA,$GAGSV,3,1,11,11,19,135,23,25,10,160,15,36,66,105,17,02,04,209,,7*70,1772042167565
NMEA,$GAGSV,3,2,11,03,47,261,,05,55,357,,08,04,232,,09,12,034,,7*71,1772042167565
NMEA,$GAGSV,3,3,11,15,02,325,,16,03,115,,34,50,340,,7*45,1772042167565
NMEA,$GQGSV,1,1,01,03,22,124,23,1*51,1772042167565
NMEA,$GBGSV,5,1,17,26,36,114,28,07,17,161,18,03,49,106,24,01,14,094,27,1*76,1772042167565
NMEA,$GBGSV,5,2,17,02,76,144,,05,64,242,,06,58,104,,08,30,043,,1*74,1772042167565
NMEA,$GBGSV,5,3,17,09,57,129,,10,25,172,,11,61,273,,12,43,174,,1*72,1772042167565
NMEA,$GBGSV,5,4,17,13,36,033,,14,30,306,,16,55,090,,21,22,035,,1*7E,1772042167565
NMEA,$GBGSV,5,5,17,24,26,170,,1*44,1772042167565
NMEA,$GNGSA,A,3,18,23,25,,,,,,,,,,1.5,1.1,0.9,1*33,1772042167599
NMEA,$GNGSA,A,3,66,75,76,,,,,,,,,,1.5,1.1,0.9,2*3C,1772042167599
NMEA,$GNGSA,A,3,25,,,,,,,,,,,,1.5,1.1,0.9,3*39,1772042167599
NMEA,$GNGSA,A,3,03,,,,,,,,,,,,1.5,1.1,0.9,5*3B,1772042167599
NMEA,$GNVTG,,T,,M,0.0,N,0.0,K,A*3D,1772042167599
NMEA,$GNDTM,P90,,0000.000011,S,00000.000001,W,0.999,W84*44,1772042167599
NMEA,$GNRMC,175607.00,A,1304.005761,N,07735.500259,E,0.0,,250226,1.1,W,A,V*60,1772042167599
NMEA,$GNGNS,175607.00,1304.005761,N,07735.500259,E,AAANAN,08,1.1,920.5,-84.0,,,V*09,1772042167599
NMEA,$GNGGA,175607.00,1304.005761,N,07735.500259,E,1,08,1.1,920.5,M,-84.0,M,,*59,1772042167599
NMEA,$GPGSV,3,1,12,08,12,287,15,18,41,139,21,23,30,059,21,25,11,115,25,1*6B,1772042168561
NMEA,$GPGSV,3,2,12,27,27,259,17,32,53,330,14,02,05,324,,10,37,010,,1*6A,1772042168561
NMEA,$GPGSV,3,3,12,24,00,000,,26,05,197,,28,51,182,,31,21,200,,1*69,1772042168561
NMEA,$GLGSV,2,1,08,66,30,305,17,76,19,140,23,75,17,083,26,77,01,182,,1*7C,1772042168561
NMEA,$GLGSV,2,2,08,65,26,003,,88,68,296,,87,35,166,,67,03,256,,1*7C,1772042168561
NMEA,$GAGSV,3,1,11,11,19,135,23,25,10,160,15,36,66,105,17,02,04,209,,7*70,1772042168561
NMEA,$GAGSV,3,2,11,03,47,261,,05,55,357,,08,04,232,,09,12,034,,7*71,1772042168561
NMEA,$GAGSV,3,3,11,15,02,325,,16,03,115,,34,50,340,,7*45,1772042168561
NMEA,$GQGSV,1,1,01,03,22,124,26,1*54,1772042168561
NMEA,$GBGSV,5,1,17,26,36,114,28,07,17,161,18,03,49,106,24,01,14,094,27,1*76,1772042168561
NMEA,$GBGSV,5,2,17,02,76,144,,05,64,242,,06,58,104,,08,30,043,,1*74,1772042168561
NMEA,$GBGSV,5,3,17,09,57,129,,10,25,172,,11,61,273,,12,43,174,,1*72,1772042168561
NMEA,$GBGSV,5,4,17,13,36,033,,14,30,306,,16,55,090,,21,22,035,,1*7E,1772042168561
NMEA,$GBGSV,5,5,17,24,26,170,,1*44,1772042168561
NMEA,$GNGSA,A,3,18,23,25,32,,,,,,,,,1.4,1.1,0.9,1*33,1772042168603
NMEA,$GNGSA,A,3,66,75,76,,,,,,,,,,1.4,1.1,0.9,2*3D,1772042168603
NMEA,$GNGSA,A,3,25,,,,,,,,,,,,1.4,1.1,0.9,3*38,1772042168603
NMEA,$GNGSA,A,3,03,,,,,,,,,,,,1.4,1.1,0.9,5*3A,1772042168603
NMEA,$GNVTG,,T,,M,0.0,N,0.0,K,A*3D,1772042168603
NMEA,$GNDTM,P90,,0000.000011,S,00000.000001,W,0.999,W84*44,1772042168603
NMEA,$GNRMC,175608.00,A,1304.005748,N,07735.500267,E,0.0,,250226,1.1,W,A,V*69,1772042168603
NMEA,$GNGNS,175608.00,1304.005748,N,07735.500267,E,AAANAN,09,1.1,920.3,-84.0,,,V*07,1772042168603
NMEA,$GNGGA,175608.00,1304.005748,N,07735.500267,E,1,09,1.1,920.3,M,-84.0,M,,*57,1772042168603
NMEA,$GPGSV,3,1,12,08,12,287,15,18,41,139,22,23,30,059,20,25,11,115,22,1*6E,1772042169551
NMEA,$GPGSV,3,2,12,27,27,259,17,32,53,330,14,02,05,324,,10,37,010,,1*6A,1772042169551
NMEA,$GPGSV,3,3,12,24,00,000,,26,05,197,,28,51,182,,31,21,200,,1*69,1772042169551
NMEA,$GLGSV,2,1,08,66,30,305,17,76,19,140,22,75,17,083,28,77,01,182,,1*73,1772042169551
NMEA,$GLGSV,2,2,08,65,26,003,,88,68,296,,87,35,166,,67,03,256,,1*7C,1772042169551
NMEA,$GAGSV,3,1,11,11,19,135,22,25,10,160,15,36,66,105,17,02,04,209,,7*71,1772042169551
NMEA,$GAGSV,3,2,11,03,47,261,,05,55,357,,08,04,232,,09,12,034,,7*71,1772042169551
NMEA,$GAGSV,3,3,11,15,02,325,,16,03,115,,34,50,340,,7*45,1772042169551
NMEA,$GQGSV,1,1,01,03,22,124,25,1*57,1772042169551
NMEA,$GBGSV,5,1,17,26,36,114,29,07,17,161,18,03,49,106,24,01,14,094,26,1*76,1772042169551
NMEA,$GBGSV,5,2,17,02,76,144,,05,64,242,,06,58,104,,08,30,043,,1*74,1772042169551
NMEA,$GBGSV,5,3,17,09,57,129,,10,25,172,,11,61,273,,12,43,174,,1*72,1772042169551
NMEA,$GBGSV,5,4,17,13,36,033,,14,30,306,,16,55,090,,21,22,035,,1*7E,1772042169551
NMEA,$GBGSV,5,5,17,24,26,170,,1*44,1772042169551
NMEA,$GNGSA,A,3,18,23,25,32,,,,,,,,,1.4,1.1,0.9,1*33,1772042169584
NMEA,$GNGSA,A,3,66,75,76,,,,,,,,,,1.4,1.1,0.9,2*3D,1772042169584
NMEA,$GNGSA,A,3,25,,,,,,,,,,,,1.4,1.1,0.9,3*38,1772042169584
NMEA,$GNGSA,A,3,03,,,,,,,,,,,,1.4,1.1,0.9,5*3A,1772042169584
NMEA,$GNVTG,,T,,M,0.0,N,0.0,K,A*3D,1772042169584
NMEA,$GNDTM,P90,,0000.000011,S,00000.000001,W,0.999,W84*44,1772042169584
NMEA,$GNRMC,175609.00,A,1304.005749,N,07735.500267,E,0.0,,250226,1.1,W,A,V*69,1772042169584
NMEA,$GNGNS,175609.00,1304.005749,N,07735.500267,E,AAANAN,09,1.1,920.3,-84.0,,,V*07,1772042169584
NMEA,$GNGGA,175609.00,1304.005749,N,07735.500267,E,1,09,1.1,920.3,M,-84.0,M,,*57,1772042169584
NMEA,$GPGSV,3,1,12,08,12,287,15,18,41,139,22,23,30,059,20,25,11,115,22,1*6E,1772042170551
NMEA,$GPGSV,3,2,12,27,27,259,17,32,53,330,14,02,05,324,,10,37,010,,1*6A,1772042170551
NMEA,$GPGSV,3,3,12,24,00,000,,26,05,197,,28,51,182,,31,21,200,,1*69,1772042170551
NMEA,$GLGSV,2,1,08,66,30,305,17,76,19,140,25,75,17,083,27,77,01,182,,1*7B,1772042170551
NMEA,$GLGSV,2,2,08,65,26,003,,88,68,296,,87,35,166,,67,03,256,,1*7C,1772042170551
NMEA,$GAGSV,3,1,11,11,19,135,22,25,10,160,15,36,66,105,17,02,04,209,,7*71,1772042170551
NMEA,$GAGSV,3,2,11,03,47,261,,05,55,357,,08,04,232,,09,12,034,,7*71,1772042170551
NMEA,$GAGSV,3,3,11,15,02,325,,16,03,115,,34,50,340,,7*45,1772042170551
NMEA,$GQGSV,1,1,01,03,22,124,24,1*56,1772042170551
NMEA,$GBGSV,5,1,17,26,36,114,28,24,26,170,16,07,17,161,17,03,49,106,24,1*76,1772042170551
NMEA,$GBGSV,5,2,17,01,14,094,26,02,76,144,,05,64,242,,06,58,104,,1*75,1772042170551
NMEA,$GBGSV,5,3,17,08,30,043,,09,57,129,,10,25,172,,11,61,273,,1*78,1772042170551
NMEA,$GBGSV,5,4,17,12,43,174,,13,36,033,,14,30,306,,16,55,090,,1*7D,1772042170551
NMEA,$GBGSV,5,5,17,21,22,035,,1*45,1772042170551
NMEA,$GNGSA,A,3,08,18,23,25,32,,,,,,,,1.3,1.0,0.9,1*3D,1772042170575
NMEA,$GNGSA,A,3,75,76,,,,,,,,,,,1.3,1.0,0.9,2*3B,1772042170575
NMEA,$GNGSA,A,3,25,,,,,,,,,,,,1.3,1.0,0.9,3*3E,1772042170575
NMEA,$GNGSA,A,3,07,,,,,,,,,,,,1.3,1.0,0.9,4*39,1772042170575
NMEA,$GNGSA,A,3,03,,,,,,,,,,,,1.3,1.0,0.9,5*3C,1772042170575
NMEA,$GNVTG,,T,,M,0.0,N,0.0,K,A*3D,1772042170575
NMEA,$GNDTM,P90,,0000.000011,S,00000.000001,W,0.999,W84*44,1772042170575
NMEA,$GNRMC,175610.00,A,1304.005760,N,07735.500265,E,0.0,,250226,1.1,W,A,V*68,1772042170575
NMEA,$GNGNS,175610.00,1304.005760,N,07735.500265,E,AAAAAN,10,1.0,920.3,-84.0,,,V*00,1772042170575
