NMEA,$GPGSV,6,1,22,03,03,064,34,06,82,151,49,07,10,150,42,11,40,206,52,1*61,1773295168232
NMEA,$GPGSV,6,2,22,13,25,240,44,14,43,063,43,17,33,019,46,19,47,344,50,1*62,1773295168232
NMEA,$GPGSV,6,3,22,20,16,245,37,22,45,038,47,24,15,317,44,30,41,159,47,1*65,1773295168232
NMEA,$GPGSV,6,4,22,15,04,262,,21,07,191,,36,00,000,39,40,00,000,46,1*64,1773295168232
NMEA,$GPGSV,6,5,22,41,00,000,51,43,00,000,40,49,00,000,35,50,00,000,32,1*6A,1773295168232
NMEA,$GPGSV,6,6,22,56,00,000,45,57,00,000,46,1*66,1773295168232
NMEA,$GLGSV,2,1,08,78,19,124,45,82,63,353,52,80,33,353,49,79,53,071,41,1*74,1773295168232
NMEA,$GLGSV,2,2,08,69,00,215,32,84,01,212,33,83,50,229,52,,00,000,46,1*76,1773295168232
NMEA,$GAGSV,3,1,10,02,34,066,34,03,04,161,46,07,23,263,40,08,25,207,40,7*7A,1773295168232
NMEA,$GAGSV,3,2,10,13,06,207,30,15,55,186,49,27,11,313,37,30,40,357,50,7*74,1773295168232
NMEA,$GAGSV,3,3,10,34,61,063,43,36,13,037,43,7*74,1773295168232
NMEA,$GQGSV,1,1,02,02,22,075,43,03,24,058,41,1*6D,1773295168232
NMEA,$GBGSV,7,1,26,60,72,171,50,59,18,099,42,40,28,031,44,39,33,150,45,1*75,1773295168232
NMEA,$GBGSV,7,2,26,38,24,119,44,37,53,111,47,36,10,324,44,32,06,155,39,1*7E,1773295168232
NMEA,$GBGSV,7,3,26,30,57,266,53,29,13,234,40,28,11,036,44,27,48,017,43,1*7C,1773295168232
NMEA,$GBGSV,7,4,26,23,06,132,39,16,41,147,47,13,22,146,44,10,49,015,41,1*73,1773295168232
NMEA,$GBGSV,7,5,26,09,64,144,44,08,20,135,43,07,41,030,39,06,50,147,46,1*78,1773295168232
NMEA,$GBGSV,7,6,26,05,61,231,48,03,49,111,42,02,69,160,46,01,14,096,42,1*71,1773295168232
NMEA,$GBGSV,7,7,26,20,05,206,,46,58,351,,1*79,1773295168232
NMEA,$GBGSV,3,1,11,23,06,132,39,27,48,017,48,28,11,036,44,29,13,234,41,3*7E,1773295168232
NMEA,$GBGSV,3,2,11,30,57,266,53,32,06,155,35,36,10,324,45,37,53,111,48,3*7F,1773295168232
NMEA,$GBGSV,3,3,11,38,24,119,43,39,33,150,46,40,28,031,45,3*46,1773295168232
NMEA,$GNGSA,A,3,06,07,11,13,14,17,19,20,22,24,30,,0.5,0.3,0.4,1*3C,1773295168237
NMEA,$GNGSA,A,3,78,79,80,82,83,,,,,,,,0.5,0.3,0.4,2*38,1773295168237
NMEA,$GNGSA,A,3,02,07,08,13,15,27,30,34,36,,,,0.5,0.3,0.4,3*3E,1773295168237
NMEA,$GNGSA,A,3,01,02,03,05,06,07,08,09,10,13,16,23,0.5,0.3,0.4,4*36,1773295168237
NMEA,$GNGSA,A,3,02,03,,,,,,,,,,,0.5,0.3,0.4,5*36,1773295168237
NMEA,$GNVTG,,T,,M,0.0,N,0.0,K,A*3D,1773295168237
NMEA,$GNDTM,W84,,0000.000000,N,00000.000000,E,0.000,W84*41,1773295168237
NMEA,$GNRMC,055927.00,A,1304.090654,N,07735.506458,E,0.0,,120326,1.1,W,A,V*61,1773295168237
NMEA,$GNGNS,055927.00,1304.090654,N,07735.506458,E,AAAAAN,51,0.3,954.8,-85.8,,,V*0A,1773295168237
NMEA,$GNGGA,055927.00,1304.090654,N,07735.506458,E,1,12,0.3,954.8,M,-85.8,M,,*52,1773295168237
NMEA,$GPGSV,6,1,22,03,03,064,33,06,82,151,49,07,10,150,42,11,40,206,52,1*66,1773295169234
NMEA,$GPGSV,6,2,22,13,25,240,43,14,43,063,43,17,33,019,46,19,47,344,50,1*65,1773295169234
NMEA,$GPGSV,6,3,22,20,16,245,37,22,45,038,47,24,15,317,45,30,41,159,47,1*64,1773295169234
NMEA,$GPGSV,6,4,22,15,04,262,,21,07,191,,36,00,000,39,40,00,000,46,1*64,1773295169234
NMEA,$GPGSV,6,5,22,41,00,000,50,43,00,000,40,49,00,000,35,50,00,000,32,1*6B,1773295169234
NMEA,$GPGSV,6,6,22,56,00,000,45,57,00,000,46,1*66,1773295169234
NMEA,$GLGSV,2,1,08,78,19,124,45,82,63,353,52,80,33,353,49,79,53,071,42,1*77,1773295169234
NMEA,$GLGSV,2,2,08,69,00,215,32,84,01,212,33,83,50,229,52,,00,000,46,1*76,1773295169234
NMEA,$GAGSV,3,1,10,02,34,066,34,03,04,161,45,07,23,263,41,08,25,207,41,7*79,1773295169234
NMEA,$GAGSV,3,2,10,13,06,207,29,15,55,186,49,27,11,313,38,30,40,357,50,7*73,1773295169234
NMEA,$GAGSV,3,3,10,34,61,063,43,36,13,037,43,7*74,1773295169234
NMEA,$GQGSV,1,1,02,02,22,075,43,03,24,058,40,1*6C,1773295169234
NMEA,$GBGSV,7,1,26,60,72,171,50,59,18,099,42,40,28,031,44,39,33,150,45,1*75,1773295169234
NMEA,$GBGSV,7,2,26,38,24,119,44,37,53,111,46,36,10,324,44,32,06,155,39,1*7F,1773295169234
NMEA,$GBGSV,7,3,26,30,57,266,53,29,13,234,40,28,11,036,44,27,48,017,43,1*7C,1773295169234
NMEA,$GBGSV,7,4,26,23,06,132,40,16,41,147,47,13,22,146,44,10,49,015,41,1*7D,1773295169234
NMEA,$GBGSV,7,5,26,09,64,144,44,08,20,135,43,07,41,030,40,06,50,147,46,1*76,1773295169234
NMEA,$GBGSV,7,6,26,05,61,231,48,03,49,111,42,02,69,160,46,01,14,096,42,1*71,1773295169234
NMEA,$GBGSV,7,7,26,20,05,206,,46,58,351,,1*79,1773295169234
NMEA,$GBGSV,3,1,11,23,06,132,39,27,48,017,48,28,11,036,44,29,13,234,41,3*7E,1773295169234
NMEA,$GBGSV,3,2,11,30,57,266,53,32,06,155,35,36,10,324,45,37,53,111,48,3*7F,1773295169234
NMEA,$GBGSV,3,3,11,38,24,119,43,39,33,150,47,40,28,031,45,3*47,1773295169234
NMEA,$GNGSA,A,3,06,07,11,13,14,17,19,20,22,24,30,,0.5,0.3,0.4,1*3C,1773295169240
NMEA,$GNGSA,A,3,78,79,80,82,83,,,,,,,,0.5,0.3,0.4,2*38,1773295169240
NMEA,$GNGSA,A,3,02,07,08,13,15,27,30,34,36,,,,0.5,0.3,0.4,3*3E,1773295169240
NMEA,$GNGSA,A,3,01,02,03,05,06,07,08,09,10,13,16,23,0.5,0.3,0.4,4*36,1773295169240
NMEA,$GNGSA,A,3,02,03,,,,,,,,,,,0.5,0.3,0.4,5*36,1773295169240
NMEA,$GNVTG,,T,,M,0.0,N,0.0,K,A*3D,1773295169240
NMEA,$GNDTM,W84,,0000.000000,N,00000.000000,E,0.000,W84*41,1773295169240
NMEA,$GNRMC,055928.00,A,1304.090654,N,07735.506460,E,0.0,,120326,1.1,W,A,V*65,1773295169240
NMEA,$GNGNS,055928.00,1304.090654,N,07735.506460,E,AAAAAN,51,0.3,954.8,-85.8,,,V*0E,1773295169240
NMEA,$GNGGA,055928.00,1304.090654,N,07735.506460,E,1,12,0.3,954.8,M,-85.8,M,,*56,1773295169240
NMEA,$GPGSV,6,1,22,03,03,064,33,06,82,151,49,07,10,150,43,11,40,206,53,1*66,1773295170235
NMEA,$GPGSV,6,2,22,13,25,240,44,14,43,063,43,17,33,019,45,19,47,344,50,1*61,1773295170235
NMEA,$GPGSV,6,3,22,20,16,245,37,22,45,038,47,24,15,317,44,30,41,159,47,1*65,1773295170235
NMEA,$GPGSV,6,4,22,15,04,262,,21,07,191,,36,00,000,39,40,00,000,46,1*64,1773295170235
NMEA,$GPGSV,6,5,22,41,00,000,50,43,00,000,40,49,00,000,35,50,00,000,32,1*6B,1773295170235
NMEA,$GPGSV,6,6,22,56,00,000,45,57,00,000,46,1*66,1773295170235
NMEA,$GLGSV,2,1,08,78,19,124,45,82,63,353,52,80,33,353,49,79,53,071,42,1*77,1773295170235
NMEA,$GLGSV,2,2,08,69,00,215,33,84,01,212,34,83,50,229,53,,00,000,47,1*70,1773295170235
NMEA,$GAGSV,3,1,10,02,34,066,34,03,04,161,45,07,23,263,41,08,25,207,41,7*79,1773295170235
NMEA,$GAGSV,3,2,10,13,06,207,30,15,55,186,49,27,11,313,37,30,40,357,49,7*7C,1773295170235
NMEA,$GAGSV,3,3,10,34,61,063,43,36,13,037,43,7*74,1773295170235
NMEA,$GQGSV,1,1,02,02,22,075,44,03,24,058,40,1*6B,1773295170235
NMEA,$GBGSV,7,1,26,60,72,171,50,59,18,099,42,40,28,031,44,39,33,150,45,1*75,1773295170235
NMEA,$GBGSV,7,2,26,38,24,119,44,37,53,111,47,36,10,324,44,32,06,155,39,1*7E,1773295170235
NMEA,$GBGSV,7,3,26,30,57,266,53,29,13,234,40,28,11,036,44,27,48,017,43,1*7C,1773295170235
NMEA,$GBGSV,7,4,26,23,06,132,40,16,41,147,48,13,22,146,44,10,49,015,41,1*72,1773295170235
NMEA,$GBGSV,7,5,26,09,64,144,44,08,20,135,43,07,41,030,39,06,50,147,46,1*78,1773295170235
NMEA,$GBGSV,7,6,26,05,61,231,48,03,49,111,42,02,69,160,46,01,14,096,42,1*71,1773295170235
NMEA,$GBGSV,7,7,26,20,05,206,,46,58,351,,1*79,1773295170235
NMEA,$GBGSV,3,1,11,23,06,132,39,27,48,017,48,28,11,036,44,29,13,234,40,3*7F,1773295170235
NMEA,$GBGSV,3,2,11,30,57,266,53,32,06,155,35,36,10,324,45,37,53,111,49,3*7E,1773295170235
NMEA,$GBGSV,3,3,11,38,24,119,43,39,33,150,47,40,28,031,45,3*47,1773295170235
NMEA,$GNGSA,A,3,06,07,11,13,14,17,19,20,22,24,30,,0.5,0.3,0.4,1*3C,1773295170242
NMEA,$GNGSA,A,3,78,79,80,82,83,,,,,,,,0.5,0.3,0.4,2*38,1773295170242
NMEA,$GNGSA,A,3,02,07,08,13,15,27,30,34,36,,,,0.5,0.3,0.4,3*3E,1773295170242
NMEA,$GNGSA,A,3,01,02,03,05,06,07,08,09,10,13,16,23,0.5,0.3,0.4,4*36,1773295170242
NMEA,$GNGSA,A,3,02,03,,,,,,,,,,,0.5,0.3,0.4,5*36,1773295170242
NMEA,$GNVTG,,T,,M,0.0,N,0.0,K,A*3D,1773295170242
NMEA,$GNDTM,W84,,0000.000000,N,00000.000000,E,0.000,W84*41,1773295170242
NMEA,$GNRMC,055929.00,A,1304.090657,N,07735.506455,E,0.0,,120326,1.1,W,A,V*61,1773295170242
NMEA,$GNGNS,055929.00,1304.090657,N,07735.506455,E,AAAAAN,51,0.3,954.8,-85.8,,,V*0A,1773295170242
NMEA,$GNGGA,055929.00,1304.090657,N,07735.506455,E,1,12,0.3,954.8,M,-85.8,M,,*52,1773295170242
NMEA,$GPGSV,6,1,22,03,03,064,33,06,82,151,49,07,10,150,43,11,40,206,53,1*66,1773295171235
NMEA,$GPGSV,6,2,22,13,25,240,44,14,43,063,43,17,33,019,46,19,47,344,50,1*62,1773295171235
NMEA,$GPGSV,6,3,22,20,16,245,37,22,45,038,47,24,15,317,44,30,41,159,47,1*65,1773295171235
NMEA,$GPGSV,6,4,22,15,04,262,,21,07,191,,36,00,000,39,40,00,000,46,1*64,1773295171235
NMEA,$GPGSV,6,5,22,41,00,000,50,43,00,000,40,49,00,000,35,50,00,000,32,1*6B,1773295171235
NMEA,$GPGSV,6,6,22,56,00,000,45,57,00,000,46,1*66,1773295171235
NMEA,$GLGSV,2,1,08,78,19,124,45,82,63,353,52,80,33,353,49,79,53,071,42,1*77,1773295171235
NMEA,$GLGSV,2,2,08,69,00,215,32,84,01,212,34,83,50,229,52,,00,000,47,1*70,1773295171235
NMEA,$GAGSV,3,1,10,02,34,066,33,03,04,161,45,07,23,263,40,08,25,207,40,7*7E,1773295171235
NMEA,$GAGSV,3,2,10,13,06,207,30,15,55,186,49,27,11,313,37,30,40,357,50,7*74,1773295171235
NMEA,$GAGSV,3,3,10,34,61,063,42,36,13,037,43,7*75,1773295171235
NMEA,$GQGSV,1,1,02,02,22,075,43,03,24,058,40,1*6C,1773295171235
NMEA,$GBGSV,7,1,26,60,72,171,50,59,18,099,41,40,28,031,44,39,33,150,45,1*76,1773295171235
NMEA,$GBGSV,7,2,26,38,24,119,44,37,53,111,47,36,10,324,45,32,06,155,39,1*7F,1773295171235
NMEA,$GBGSV,7,3,26,30,57,266,53,29,13,234,40,28,11,036,44,27,48,017,43,1*7C,1773295171235
NMEA,$GBGSV,7,4,26,23,06,132,40,16,41,147,47,13,22,146,45,10,49,015,40,1*7D,1773295171235
NMEA,$GBGSV,7,5,26,09,64,144,44,08,20,135,43,07,41,030,40,06,50,147,46,1*76,1773295171235
NMEA,$GBGSV,7,6,26,05,61,231,48,03,49,111,42,02,69,160,46,01,14,096,42,1*71,1773295171235
NMEA,$GBGSV,7,7,26,20,05,206,,46,58,351,,1*79,1773295171235
NMEA,$GBGSV,3,1,11,23,06,132,39,27,48,017,48,28,11,036,44,29,13,234,40,3*7F,1773295171235
NMEA,$GBGSV,3,2,11,30,57,266,53,32,06,155,35,36,10,324,45,37,53,111,49,3*7E,1773295171235
NMEA,$GBGSV,3,3,11,38,24,119,43,39,33,150,47,40,28,031,45,3*47,1773295171235
NMEA,$GNGSA,A,3,06,07,11,13,14,17,19,20,22,24,30,,0.5,0.3,0.4,1*3C,1773295171243
NMEA,$GNGSA,A,3,78,79,80,82,83,,,,,,,,0.5,0.3,0.4,2*38,1773295171243
NMEA,$GNGSA,A,3,02,07,08,13,15,27,30,34,36,,,,0.5,0.3,0.4,3*3E,1773295171243
NMEA,$GNGSA,A,3,01,02,03,05,06,07,08,09,10,13,16,23,0.5,0.3,0.4,4*36,1773295171243
NMEA,$GNGSA,A,3,02,03,,,,,,,,,,,0.5,0.3,0.4,5*36,1773295171243
NMEA,$GNVTG,,T,,M,0.0,N,0.0,K,A*3D,1773295171243
NMEA,$GNDTM,W84,,0000.000000,N,00000.000000,E,0.000,W84*41,1773295171243
NMEA,$GNRMC,055930.00,A,1304.090658,N,07735.506452,E,0.0,,120326,1.1,W,A,V*61,1773295171243
NMEA,$GNGNS,055930.00,1304.090658,N,07735.506452,E,AAAAAN,51,0.3,954.8,-85.8,,,V*0A,1773295171243
NMEA,$GNGGA,055930.00,1304.090658,N,07735.506452,E,1,12,0.3,954.8,M,-85.8,M,,*52,1773295171243
NMEA,$GPGSV,6,1,22,03,03,064,33,06,82,151,49,07,10,150,42,11,40,206,53,1*67,1773295172236
NMEA,$GPGSV,6,2,22,13,25,240,44,14,43,063,43,17,33,019,46,19,47,344,50,1*62,1773295172236
NMEA,$GPGSV,6,3,22,20,16,245,37,22,45,038,47,24,15,317,44,30,41,159,46,1*64,1773295172236
NMEA,$GPGSV,6,4,22,15,04,262,,21,07,191,,36,00,000,39,40,00,000,46,1*64,1773295172236
NMEA,$GPGSV,6,5,22,41,00,000,50,43,00,000,40,49,00,000,35,50,00,000,32,1*6B,1773295172236
NMEA,$GPGSV,6,6,22,56,00,000,45,57,00,000,46,1*66,1773295172236
NMEA,$GLGSV,2,1,08,78,19,124,45,82,63,353,52,80,33,353,49,79,53,071,42,1*77,1773295172236
NMEA,$GLGSV,2,2,08,69,00,215,32,84,01,212,34,83,50,229,53,,00,000,47,1*71,1773295172236
NMEA,$GAGSV,3,1,10,02,34,066,33,03,04,161,45,07,23,263,41,08,25,207,41,7*7E,1773295172236
NMEA,$GAGSV,3,2,10,13,06,207,30,15,55,186,50,27,11,313,38,30,40,357,49,7*7B,1773295172236
NMEA,$GAGSV,3,3,10,34,61,063,43,36,13,037,43,7*74,1773295172236
NMEA,$GQGSV,1,1,02,02,22,075,44,03,24,058,40,1*6B,1773295172236
NMEA,$GBGSV,7,1,26,60,72,171,50,59,18,099,41,40,28,031,45,39,33,150,45,1*77,1773295172236
NMEA,$GBGSV,7,2,26,38,24,119,44,37,53,111,47,36,10,324,45,32,06,155,40,1*71,1773295172236
NMEA,$GBGSV,7,3,26,30,57,266,53,29,13,234,40,28,11,036,44,27,48,017,43,1*7C,1773295172236
NMEA,$GBGSV,7,4,26,23,06,132,40,16,41,147,48,13,22,146,44,10,49,015,41,1*72,1773295172236
NMEA,$GBGSV,7,5,26,09,64,144,44,08,20,135,43,07,41,030,39,06,50,147,46,1*78,1773295172236
NMEA,$GBGSV,7,6,26,05,61,231,48,03,49,111,42,02,69,160,46,01,14,096,42,1*71,1773295172236
NMEA,$GBGSV,7,7,26,20,05,206,,46,58,351,,1*79,1773295172236
NMEA,$GBGSV,3,1,11,23,06,132,39,27,48,017,48,28,11,036,45,29,13,234,40,3*7E,1773295172236
NMEA,$GBGSV,3,2,11,30,57,266,53,32,06,155,35,36,10,324,45,37,53,111,48,3*7F,1773295172236
NMEA,$GBGSV,3,3,11,38,24,119,43,39,33,150,47,40,28,031,45,3*47,1773295172236
NMEA,$GNGSA,A,3,06,07,11,13,14,17,19,20,22,24,30,,0.5,0.3,0.4,1*3C,1773295172242
NMEA,$GNGSA,A,3,78,79,80,82,83,,,,,,,,0.5,0.3,0.4,2*38,1773295172242
NMEA,$GNGSA,A,3,02,07,08,13,15,27,30,34,36,,,,0.5,0.3,0.4,3*3E,1773295172242
NMEA,$GNGSA,A,3,01,02,03,05,06,07,08,09,10,13,16,23,0.5,0.3,0.4,4*36,1773295172242
NMEA,$GNGSA,A,3,02,03,,,,,,,,,,,0.5,0.3,0.4,5*36,1773295172242
NMEA,$GNVTG,,T,,M,0.0,N,0.0,K,A*3D,1773295172242
NMEA,$GNDTM,W84,,0000.000000,N,00000.000000,E,0.000,W84*41,1773295172242
NMEA,$GNRMC,055931.00,A,1304.090658,N,07735.506454,E,0.0,,120326,1.1,W,A,V*66,1773295172242
NMEA,$GNGNS,055931.00,1304.090658,N,07735.506454,E,AAAAAN,51,0.3,954.8,-85.8,,,V*0D,1773295172242
NMEA,$GNGGA,055931.00,1304.090658,N,07735.506454,E,1,12,0.3,954.8,M,-85.8,M,,*55,1773295172242
NMEA,$GPGSV,6,1,22,03,03,064,33,06,82,151,49,07,10,150,43,11,40,206,53,1*66,1773295173236
NMEA,$GPGSV,6,2,22,13,25,240,43,14,43,063,43,17,33,019,45,19,47,344,50,1*66,1773295173236
NMEA,$GPGSV,6,3,22,20,16,245,37,22,45,038,47,24,15,317,44,30,41,159,46,1*64,1773295173236
NMEA,$GPGSV,6,4,22,15,04,262,,21,07,191,,36,00,000,39,40,00,000,46,1*64,1773295173236
NMEA,$GPGSV,6,5,22,41,00,000,50,43,00,000,40,49,00,000,35,50,00,000,32,1*6B,1773295173236
NMEA,$GPGSV,6,6,22,56,00,000,45,57,00,000,46,1*66,1773295173236
NMEA,$GLGSV,2,1,08,78,19,124,46,82,63,353,52,80,33,353,49,79,53,071,42,1*74,1773295173236
NMEA,$GLGSV,2,2,08,69,00,215,34,84,01,212,34,83,50,229,53,,00,000,47,1*77,1773295173236
NMEA,$GAGSV,3,1,10,02,34,066,34,03,04,161,45,07,23,263,41,08,25,207,41,7*79,1773295173236
NMEA,$GAGSV,3,2,10,13,06,207,30,15,55,186,49,27,11,313,38,30,40,357,49,7*73,1773295173236
NMEA,$GAGSV,3,3,10,34,61,063,43,36,13,037,43,7*74,1773295173236
NMEA,$GQGSV,1,1,02,02,22,075,43,03,24,058,41,1*6D,1773295173236
NMEA,$GBGSV,7,1,26,60,72,171,50,59,18,099,42,40,28,031,45,39,33,150,45,1*74,1773295173236
NMEA,$GBGSV,7,2,26,38,24,119,44,37,53,111,47,36,10,324,45,32,06,155,40,1*71,1773295173236
NMEA,$GBGSV,7,3,26,30,57,266,53,29,13,234,40,28,11,036,44,27,48,017,43,1*7C,1773295173236
NMEA,$GBGSV,7,4,26,23,06,132,39,16,41,147,47,13,22,146,44,10,49,015,41,1*73,1773295173236
NMEA,$GBGSV,7,5,26,09,64,144,44,08,20,135,43,07,41,030,40,06,50,147,46,1*76,1773295173236
NMEA,$GBGSV,7,6,26,05,61,231,48,03,49,111,42,02,69,160,47,01,14,096,42,1*70,1773295173236
NMEA,$GBGSV,7,7,26,20,05,206,,46,58,351,,1*79,1773295173236
NMEA,$GBGSV,3,1,11,23,06,132,39,27,48,017,48,28,11,036,44,29,13,234,40,3*7F,1773295173236
NMEA,$GBGSV,3,2,11,30,57,266,53,32,06,155,36,36,10,324,45,37,53,111,48,3*7C,1773295173236
NMEA,$GBGSV,3,3,11,38,24,119,43,39,33,150,47,40,28,031,45,3*47,1773295173236
NMEA,$GNGSA,A,3,06,07,11,13,14,17,19,20,22,24,30,,0.5,0.3,0.4,1*3C,1773295173242
NMEA,$GNGSA,A,3,78,79,80,82,83,,,,,,,,0.5,0.3,0.4,2*38,1773295173242
NMEA,$GNGSA,A,3,02,07,08,13,15,27,30,34,36,,,,0.5,0.3,0.4,3*3E,1773295173242
NMEA,$GNGSA,A,3,01,02,03,05,06,07,08,09,10,13,16,23,0.5,0.3,0.4,4*36,1773295173242
NMEA,$GNGSA,A,3,02,03,,,,,,,,,,,0.5,0.3,0.4,5*36,1773295173242
NMEA,$GNVTG,,T,,M,0.0,N,0.0,K,A*3D,1773295173242
NMEA,$GNDTM,W84,,0000.000000,N,00000.000000,E,0.000,W84*41,1773295173242
NMEA,$GNRMC,055932.00,A,1304.090658,N,07735.506454,E,0.0,,120326,1.1,W,A,V*65,1773295173242
NMEA,$GNGNS,055932.00,1304.090658,N,07735.506454,E,AAAAAN,51,0.3,954.8,-85.8,,,V*0E,1773295173242
NMEA,$GNGGA,055932.00,1304.090658,N,07735.506454,E,1,12,0.3,954.8,M,-85.8,M,,*56,1773295173242
NMEA,$GPGSV,6,1,22,03,03,064,34,06,82,151,49,07,10,150,43,11,40,206,52,1*60,1773295174237
NMEA,$GPGSV,6,2,22,13,25,240,44,14,43,063,43,17,33,019,45,19,47,344,50,1*61,1773295174237
NMEA,$GPGSV,6,3,22,20,16,245,37,22,45,038,47,24,15,317,44,30,41,159,47,1*65,1773295174237
NMEA,$GPGSV,6,4,22,15,04,262,,21,07,191,,36,00,000,39,40,00,000,46,1*64,1773295174237
NMEA,$GPGSV,6,5,22,41,00,000,50,43,00,000,40,49,00,000,35,50,00,000,32,1*6B,1773295174237
NMEA,$GPGSV,6,6,22,56,00,000,45,57,00,000,46,1*66,1773295174237
NMEA,$GLGSV,2,1,08,78,19,124,46,82,63,353,52,80,33,353,49,79,53,071,42,1*74,1773295174237
NMEA,$GLGSV,2,2,08,69,00,215,34,84,01,212,33,83,50,229,53,,00,000,47,1*70,1773295174237
NMEA,$GAGSV,3,1,10,02,34,066,34,03,04,161,45,07,23,263,41,08,25,207,41,7*79,1773295174237
NMEA,$GAGSV,3,2,10,13,06,207,30,15,55,186,49,27,11,313,38,30,40,357,49,7*73,1773295174237
NMEA,$GAGSV,3,3,10,34,61,063,43,36,13,037,43,7*74,1773295174237
NMEA,$GQGSV,1,1,02,02,22,075,44,03,24,058,41,1*6A,1773295174237
NMEA,$GBGSV,7,1,26,60,72,171,50,59,18,099,42,40,28,031,45,39,33,150,45,1*74,1773295174237
NMEA,$GBGSV,7,2,26,38,24,119,44,37,53,111,47,36,10,324,45,32,06,155,40,1*71,1773295174237
NMEA,$GBGSV,7,3,26,30,57,266,53,29,13,234,40,28,11,036,44,27,48,017,43,1*7C,1773295174237
NMEA,$GBGSV,7,4,26,23,06,132,39,16,41,147,48,13,22,146,44,10,49,015,41,1*7C,1773295174237
NMEA,$GBGSV,7,5,26,09,64,144,44,08,20,135,43,07,41,030,40,06,50,147,46,1*76,1773295174237
NMEA,$GBGSV,7,6,26,05,61,231,48,03,49,111,42,02,69,160,46,01,14,096,42,1*71,1773295174237
NMEA,$GBGSV,7,7,26,20,05,206,,46,58,351,,1*79,1773295174237
NMEA,$GBGSV,3,1,11,23,06,132,39,27,48,017,48,28,11,036,44,29,13,234,40,3*7F,1773295174237
NMEA,$GBGSV,3,2,11,30,57,266,53,32,06,155,36,36,10,324,46,37,53,111,48,3*7F,1773295174237
NMEA,$GBGSV,3,3,11,38,24,119,43,39,33,150,46,40,28,031,45,3*46,1773295174237
NMEA,$GNGSA,A,3,06,07,11,13,14,17,19,20,22,24,30,,0.5,0.3,0.4,1*3C,1773295174244
NMEA,$GNGSA,A,3,78,79,80,82,83,,,,,,,,0.5,0.3,0.4,2*38,1773295174244
NMEA,$GNGSA,A,3,02,07,08,13,15,27,30,34,36,,,,0.5,0.3,0.4,3*3E,1773295174244
NMEA,$GNGSA,A,3,01,02,03,05,06,07,08,09,10,13,16,23,0.5,0.3,0.4,4*36,1773295174244
NMEA,$GNGSA,A,3,02,03,,,,,,,,,,,0.5,0.3,0.4,5*36,1773295174244
NMEA,$GNVTG,,T,,M,0.0,N,0.0,K,A*3D,1773295174244
NMEA,$GNDTM,W84,,0000.000000,N,00000.000000,E,0.000,W84*41,1773295174244
NMEA,$GNRMC,055933.00,A,1304.090658,N,07735.506455,E,0.0,,120326,1.1,W,A,V*65,1773295174244
NMEA,$GNGNS,055933.00,1304.090658,N,07735.506455,E,AAAAAN,51,0.3,954.8,-85.8,,,V*0E,1773295174244
NMEA,$GNGGA,055933.00,1304.090658,N,07735.506455,E,1,12,0.3,954.8,M,-85.8,M,,*56,1773295174244
NMEA,$GPGSV,6,1,22,03,03,064,33,06,82,151,49,07,10,150,42,11,40,206,53,1*67,1773295175235
NMEA,$GPGSV,6,2,22,13,25,240,44,14,43,063,43,17,33,019,46,19,47,344,50,1*62,1773295175235
NMEA,$GPGSV,6,3,22,20,16,245,37,22,45,038,47,24,15,317,44,30,41,159,47,1*65,1773295175235
NMEA,$GPGSV,6,4,22,15,04,262,,21,07,191,,36,00,000,39,40,00,000,46,1*64,1773295175235
NMEA,$GPGSV,6,5,22,41,00,000,50,43,00,000,40,49,00,000,35,50,00,000,32,1*6B,1773295175235
NMEA,$GPGSV,6,6,22,56,00,000,45,57,00,000,46,1*66,1773295175235
NMEA,$GLGSV,2,1,08,78,19,124,45,82,63,353,52,80,33,353,49,79,53,071,42,1*77,1773295175235
NMEA,$GLGSV,2,2,08,69,00,215,32,84,01,212,34,83,50,229,53,,00,000,47,1*71,1773295175235
NMEA,$GAGSV,3,1,10,02,34,066,34,03,04,161,44,07,23,263,41,08,25,207,41,7*78,1773295175235
NMEA,$GAGSV,3,2,10,13,06,207,31,15,55,186,49,27,11,313,37,30,40,357,49,7*7D,1773295175235
NMEA,$GAGSV,3,3,10,34,61,063,42,36,13,037,43,7*75,1773295175235
NMEA,$GQGSV,1,1,02,02,22,075,44,03,24,058,41,1*6A,1773295175235
NMEA,$GBGSV,7,1,26,60,72,171,50,59,18,099,42,40,28,031,45,39,33,150,45,1*74,1773295175235
NMEA,$GBGSV,7,2,26,38,24,119,44,37,53,111,47,36,10,324,45,32,06,155,40,1*71,1773295175235
NMEA,$GBGSV,7,3,26,30,57,266,53,29,13,234,39,28,11,036,44,27,48,017,43,1*72,1773295175235
NMEA,$GBGSV,7,4,26,23,06,132,39,16,41,147,48,13,22,146,44,10,49,015,41,1*7C,1773295175235
NMEA,$GBGSV,7,5,26,09,64,144,44,08,20,135,43,07,41,030,40,06,50,147,46,1*76,1773295175235
NMEA,$GBGSV,7,6,26,05,61,231,48,03,49,111,42,02,69,160,46,01,14,096,42,1*71,1773295175235
NMEA,$GBGSV,7,7,26,20,05,206,,46,58,351,,1*79,1773295175235
NMEA,$GBGSV,3,1,11,23,06,132,39,27,48,017,48,28,11,036,44,29,13,234,40,3*7F,1773295175235
NMEA,$GBGSV,3,2,11,30,57,266,53,32,06,155,36,36,10,324,45,37,53,111,48,3*7C,1773295175235
NMEA,$GBGSV,3,3,11,38,24,119,43,39,33,150,47,40,28,031,45,3*47,1773295175235
NMEA,$GNGSA,A,3,06,07,11,13,14,17,19,20,22,24,30,,0.5,0.3,0.4,1*3C,1773295175242
NMEA,$GNGSA,A,3,78,79,80,82,83,,,,,,,,0.5,0.3,0.4,2*38,1773295175242
NMEA,$GNGSA,A,3,02,07,08,13,15,27,30,34,36,,,,0.5,0.3,0.4,3*3E,1773295175242
NMEA,$GNGSA,A,3,01,02,03,05,06,07,08,09,10,13,16,23,0.5,0.3,0.4,4*36,1773295175242
NMEA,$GNGSA,A,3,02,03,,,,,,,,,,,0.5,0.3,0.4,5*36,1773295175242
NMEA,$GNVTG,,T,,M,0.0,N,0.0,K,A*3D,1773295175242
NMEA,$GNDTM,W84,,0000.000000,N,00000.000000,E,0.000,W84*41,1773295175242
NMEA,$GNRMC,055934.00,A,1304.090658,N,07735.506455,E,0.0,,120326,1.1,W,A,V*62,1773295175242
NMEA,$GNGNS,055934.00,1304.090658,N,07735.506455,E,AAAAAN,51,0.3,954.8,-85.8,,,V*09,1773295175242
NMEA,$GNGGA,055934.00,1304.090658,N,07735.506455,E,1,12,0.3,954.8,M,-85.8,M,,*51,1773295175242
NMEA,$GPGSV,6,1,22,03,03,064,32,06,82,151,49,07,10,150,43,11,40,206,52,1*66,1773295176238
NMEA,$GPGSV,6,2,22,13,25,240,44,14,43,063,43,17,33,019,45,19,47,344,51,1*60,1773295176238
NMEA,$GPGSV,6,3,22,20,16,245,38,22,45,038,47,24,15,317,44,30,41,159,47,1*6A,1773295176238
NMEA,$GPGSV,6,4,22,15,04,262,,21,07,191,,36,00,000,39,40,00,000,46,1*64,1773295176238
NMEA,$GPGSV,6,5,22,41,00,000,50,43,00,000,40,49,00,000,35,50,00,000,32,1*6B,1773295176238
NMEA,$GPGSV,6,6,22,56,00,000,45,57,00,000,46,1*66,1773295176238
NMEA,$GLGSV,2,1,08,78,19,124,46,82,63,353,52,80,33,353,49,79,53,071,42,1*74,1773295176238
NMEA,$GLGSV,2,2,08,69,00,215,32,84,01,212,32,83,50,229,53,,00,000,47,1*77,1773295176238
NMEA,$GAGSV,3,1,10,02,34,066,34,03,04,161,45,07,23,263,41,08,25,207,41,7*79,1773295176238
NMEA,$GAGSV,3,2,10,13,06,207,31,15,55,186,49,27,11,313,38,30,40,357,49,7*72,1773295176238
NMEA,$GAGSV,3,3,10,34,61,063,42,36,13,037,43,7*75,1773295176238
NMEA,$GQGSV,1,1,02,02,22,075,43,03,24,058,41,1*6D,1773295176238
NMEA,$GBGSV,7,1,26,60,72,171,50,59,18,099,42,40,28,031,45,39,33,150,46,1*77,1773295176238
NMEA,$GBGSV,7,2,26,38,24,119,44,37,53,111,47,36,10,324,45,32,06,155,40,1*71,1773295176238
NMEA,$GBGSV,7,3,26,30,57,266,53,29,13,234,40,28,11,036,44,27,48,017,43,1*7C,1773295176238
NMEA,$GBGSV,7,4,26,23,06,132,39,16,41,147,48,13,22,146,45,10,49,015,41,1*7D,1773295176238
NMEA,$GBGSV,7,5,26,09,64,144,44,08,20,135,43,07,41,030,40,06,50,147,46,1*76,1773295176238
NMEA,$GBGSV,7,6,26,05,61,231,48,03,49,111,42,02,69,160,47,01,14,096,42,1*70,1773295176238
NMEA,$GBGSV,7,7,26,20,05,206,,46,58,351,,1*79,1773295176238
NMEA,$GBGSV,3,1,11,23,06,132,39,27,48,017,48,28,11,036,44,29,13,234,40,3*7F,1773295176238
NMEA,$GBGSV,3,2,11,30,57,266,53,32,06,155,36,36,10,324,45,37,53,111,48,3*7C,1773295176238
NMEA,$GBGSV,3,3,11,38,24,119,43,39,33,150,47,40,28,031,45,3*47,1773295176238
NMEA,$GNGSA,A,3,06,07,11,13,14,17,19,20,22,24,30,,0.5,0.3,0.4,1*3C,1773295176244
NMEA,$GNGSA,A,3,78,79,80,82,83,,,,,,,,0.5,0.3,0.4,2*38,1773295176244
NMEA,$GNGSA,A,3,02,07,08,13,15,27,30,34,36,,,,0.5,0.3,0.4,3*3E,1773295176244
NMEA,$GNGSA,A,3,01,02,03,05,06,07,08,09,10,13,16,23,0.5,0.3,0.4,4*36,1773295176244
NMEA,$GNGSA,A,3,02,03,,,,,,,,,,,0.5,0.3,0.4,5*36,1773295176244
NMEA,$GNVTG,,T,,M,0.0,N,0.0,K,A*3D,1773295176244
NMEA,$GNDTM,W84,,0000.000000,N,00000.000000,E,0.000,W84*41,1773295176244
NMEA,$GNRMC,055935.00,A,1304.090660,N,07735.506452,E,0.0,,120326,1.1,W,A,V*6F,1773295176244
NMEA,$GNGNS,055935.00,1304.090660,N,07735.506452,E,AAAAAN,51,0.3,954.8,-85.8,,,V*04,1773295176244
NMEA,$GNGGA,055935.00,1304.090660,N,07735.506452,E,1,12,0.3,954.8,M,-85.8,M,,*5C,1773295176244
NMEA,$GPGSV,6,1,22,03,03,064,33,06,82,151,49,07,10,150,43,11,40,206,53,1*66,1773295177234
NMEA,$GPGSV,6,2,22,13,25,240,44,14,43,063,43,17,33,019,46,19,47,344,51,1*63,1773295177234
NMEA,$GPGSV,6,3,22,20,16,245,38,22,45,038,47,24,15,317,44,30,41,159,47,1*6A,1773295177234
NMEA,$GPGSV,6,4,22,15,04,262,,21,07,191,,36,00,000,39,40,00,000,46,1*64,1773295177234
NMEA,$GPGSV,6,5,22,41,00,000,50,43,00,000,40,49,00,000,35,50,00,000,32,1*6B,1773295177234
NMEA,$GPGSV,6,6,22,56,00,000,45,57,00,000,46,1*66,1773295177234
NMEA,$GLGSV,2,1,08,78,19,124,46,82,63,353,52,80,33,353,49,79,53,071,42,1*74,1773295177234
NMEA,$GLGSV,2,2,08,69,00,215,32,84,01,212,32,83,50,229,53,,00,000,47,1*77,1773295177234
NMEA,$GAGSV,3,1,10,02,34,066,33,03,04,161,45,07,23,263,41,08,25,207,41,7*7E,1773295177234
NMEA,$GAGSV,3,2,10,13,06,207,31,15,55,186,49,27,11,313,38,30,40,357,50,7*7A,1773295177234
NMEA,$GAGSV,3,3,10,34,61,063,42,36,13,037,43,7*75,1773295177234
NMEA,$GQGSV,1,1,02,02,22,075,44,03,24,058,41,1*6A,1773295177234
NMEA,$GBGSV,7,1,26,60,72,171,50,59,18,099,42,40,28,031,45,39,33,150,45,1*74,1773295177234
NMEA,$GBGSV,7,2,26,38,24,119,44,37,53,111,47,36,10,324,45,32,06,155,40,1*71,1773295177234
NMEA,$GBGSV,7,3,26,30,57,266,53,29,13,234,40,28,11,036,44,27,48,017,44,1*7B,1773295177234
NMEA,$GBGSV,7,4,26,23,06,132,39,16,41,147,48,13,22,146,45,10,49,015,41,1*7D,1773295177234
NMEA,$GBGSV,7,5,26,09,64,144,44,08,20,135,43,07,41,030,40,06,50,147,46,1*76,1773295177234
NMEA,$GBGSV,7,6,26,05,61,231,48,03,49,111,42,02,69,160,47,01,14,096,42,1*70,1773295177234
NMEA,$GBGSV,7,7,26,20,05,206,,46,58,351,,1*79,1773295177234
NMEA,$GBGSV,3,1,11,23,06,132,39,27,48,017,48,28,11,036,44,29,13,234,41,3*7E,1773295177234
NMEA,$GBGSV,3,2,11,30,57,266,54,32,06,155,36,36,10,324,45,37,53,111,48,3*7B,1773295177234
NMEA,$GBGSV,3,3,11,38,24,119,43,39,33,150,47,40,28,031,45,3*47,1773295177234
NMEA,$GNGSA,A,3,06,07,11,13,14,17,19,20,22,24,30,,0.5,0.3,0.4,1*3C,1773295177240
NMEA,$GNGSA,A,3,78,79,80,82,83,,,,,,,,0.5,0.3,0.4,2*38,1773295177240
NMEA,$GNGSA,A,3,02,07,08,13,15,27,30,34,36,,,,0.5,0.3,0.4,3*3E,1773295177240
NMEA,$GNGSA,A,3,01,02,03,05,06,07,08,09,10,13,16,23,0.5,0.3,0.4,4*36,1773295177240
NMEA,$GNGSA,A,3,02,03,,,,,,,,,,,0.5,0.3,0.4,5*36,1773295177240
NMEA,$GNVTG,,T,,M,0.0,N,0.0,K,A*3D,1773295177240
NMEA,$GNDTM,W84,,0000.000000,N,00000.000000,E,0.000,W84*41,1773295177240
NMEA,$GNRMC,055936.00,A,1304.090660,N,07735.506452,E,0.0,,120326,1.1,W,A,V*6C,1773295177240
NMEA,$GNGNS,055936.00,1304.090660,N,07735.506452,E,AAAAAN,51,0.3,954.8,-85.8,,,V*07,1773295177240
NMEA,$GNGGA,055936.00,1304.090660,N,07735.506452,E,1,12,0.3,954.8,M,-85.8,M,,*5F,1773295177240
NMEA,$GPGSV,6,1,22,03,03,064,33,06,82,151,49,07,10,150,43,11,40,206,52,1*67,1773295178236
NMEA,$GPGSV,6,2,22,13,25,240,44,14,43,063,43,17,33,019,46,19,47,344,50,1*62,1773295178236
NMEA,$GPGSV,6,3,22,20,16,245,38,22,45,038,47,24,15,317,44,30,41,159,47,1*6A,1773295178236
NMEA,$GPGSV,6,4,22,15,04,262,,21,07,191,,36,00,000,39,40,00,000,46,1*64,1773295178236
NMEA,$GPGSV,6,5,22,41,00,000,50,43,00,000,40,49,00,000,35,50,00,000,32,1*6B,1773295178236
NMEA,$GPGSV,6,6,22,56,00,000,45,57,00,000,46,1*66,1773295178236
NMEA,$GLGSV,2,1,08,78,19,124,46,82,63,353,52,80,33,353,49,79,53,071,42,1*74,1773295178236
NMEA,$GLGSV,2,2,08,69,00,215,32,84,01,212,31,83,50,229,53,,00,000,47,1*74,1773295178236
NMEA,$GAGSV,3,1,10,02,34,066,33,03,04,161,45,07,23,263,41,08,25,207,41,7*7E,1773295178236
NMEA,$GAGSV,3,2,10,13,06,207,31,15,55,186,49,27,11,313,38,30,40,357,50,7*7A,1773295178236
NMEA,$GAGSV,3,3,10,34,61,063,43,36,13,037,43,7*74,1773295178236
NMEA,$GQGSV,1,1,02,02,22,075,44,03,24,058,41,1*6A,1773295178236
NMEA,$GBGSV,7,1,26,60,72,171,50,59,18,099,42,40,28,031,44,39,33,150,45,1*75,1773295178236
NMEA,$GBGSV,7,2,26,38,24,119,43,37,53,111,47,36,10,324,45,32,06,155,39,1*78,1773295178236
NMEA,$GBGSV,7,3,26,30,57,266,53,29,13,234,40,28,11,036,44,27,48,017,43,1*7C,1773295178236
NMEA,$GBGSV,7,4,26,23,06,132,39,16,41,147,48,13,22,146,44,10,49,015,41,1*7C,1773295178236
NMEA,$GBGSV,7,5,26,09,64,144,44,08,20,135,43,07,41,030,40,06,50,147,46,1*76,1773295178236
NMEA,$GBGSV,7,6,26,05,61,231,48,03,49,111,42,02,69,160,46,01,14,096,42,1*71,1773295178236
NMEA,$GBGSV,7,7,26,20,05,206,,46,58,351,,1*79,1773295178236
NMEA,$GBGSV,3,1,11,23,06,132,39,27,48,017,48,28,11,036,45,29,13,234,40,3*7E,1773295178236
NMEA,$GBGSV,3,2,11,30,57,266,53,32,06,155,35,36,10,324,45,37,53,111,48,3*7F,1773295178236
NMEA,$GBGSV,3,3,11,38,24,119,43,39,33,150,47,40,28,031,45,3*47,1773295178236
NMEA,$GNGSA,A,3,06,07,11,13,14,17,19,20,22,24,30,,0.5,0.3,0.4,1*3C,1773295178244
NMEA,$GNGSA,A,3,78,79,80,82,83,,,,,,,,0.5,0.3,0.4,2*38,1773295178244
NMEA,$GNGSA,A,3,02,07,08,13,15,27,30,34,36,,,,0.5,0.3,0.4,3*3E,1773295178244
NMEA,$GNGSA,A,3,01,02,03,05,06,07,08,09,10,13,16,23,0.5,0.3,0.4,4*36,1773295178244
NMEA,$GNGSA,A,3,02,03,,,,,,,,,,,0.5,0.3,0.4,5*36,1773295178244
NMEA,$GNVTG,,T,,M,0.0,N,0.0,K,A*3D,1773295178244
NMEA,$GNDTM,W84,,0000.000000,N,00000.000000,E,0.000,W84*41,1773295178244
NMEA,$GNRMC,055937.00,A,1304.090660,N,07735.506452,E,0.0,,120326,1.1,W,A,V*6D,1773295178244
NMEA,$GNGNS,055937.00,1304.090660,N,07735.506452,E,AAAAAN,51,0.3,954.8,-85.8,,,V*06,1773295178244
NMEA,$GNGGA,055937.00,1304.090660,N,07735.506452,E,1,12,0.3,954.8,M,-85.8,M,,*5E,1773295178244
NMEA,$GPGSV,6,1,22,03,03,064,33,06,82,151,49,07,10,150,43,11,40,206,52,1*67,1773295179234
NMEA,$GPGSV,6,2,22,13,25,240,44,14,43,063,43,17,33,019,46,19,47,344,50,1*62,1773295179234
NMEA,$GPGSV,6,3,22,20,16,245,38,22,45,038,47,24,15,317,44,30,41,159,47,1*6A,1773295179234
NMEA,$GPGSV,6,4,22,15,04,262,,21,07,191,,36,00,000,39,40,00,000,46,1*64,1773295179234
NMEA,$GPGSV,6,5,22,41,00,000,50,43,00,000,40,49,00,000,35,50,00,000,32,1*6B,1773295179234
NMEA,$GPGSV,6,6,22,56,00,000,45,57,00,000,46,1*66,1773295179234
NMEA,$GLGSV,2,1,08,78,19,124,46,82,63,353,52,80,33,353,49,79,53,071,42,1*74,1773295179234
NMEA,$GLGSV,2,2,08,69,00,215,33,84,01,212,30,83,50,229,53,,00,000,47,1*74,1773295179234
NMEA,$GAGSV,3,1,10,02,34,066,32,03,04,161,45,07,23,263,41,08,25,207,41,7*7F,1773295179234
NMEA,$GAGSV,3,2,10,13,06,207,30,15,55,186,49,27,11,313,38,30,40,357,50,7*7B,1773295179234
NMEA,$GAGSV,3,3,10,34,61,063,43,36,13,037,43,7*74,1773295179234
NMEA,$GQGSV,1,1,02,02,22,075,43,03,24,058,41,1*6D,1773295179234
NMEA,$GBGSV,7,1,26,60,72,171,50,59,18,099,42,40,28,031,45,39,33,150,45,1*74,1773295179234
NMEA,$GBGSV,7,2,26,38,24,119,44,37,53,111,47,36,10,324,45,32,06,155,40,1*71,1773295179234
NMEA,$GBGSV,7,3,26,30,57,266,53,29,13,234,40,28,11,036,44,27,48,017,43,1*7C,1773295179234
NMEA,$GBGSV,7,4,26,23,06,132,39,16,41,147,48,13,22,146,45,10,49,015,41,1*7D,1773295179234
NMEA,$GBGSV,7,5,26,09,64,144,44,08,20,135,43,07,41,030,40,06,50,147,46,1*76,1773295179234
NMEA,$GBGSV,7,6,26,05,61,231,48,03,49,111,42,02,69,160,46,01,14,096,42,1*71,1773295179234
NMEA,$GBGSV,7,7,26,20,05,206,,46,58,351,,1*79,1773295179234
NMEA,$GBGSV,3,1,11,23,06,132,40,27,48,017,47,28,11,036,44,29,13,234,41,3*7F,1773295179234
NMEA,$GBGSV,3,2,11,30,57,266,53,32,06,155,36,36,10,324,45,37,53,111,48,3*7C,1773295179234
NMEA,$GBGSV,3,3,11,38,24,119,43,39,33,150,47,40,28,031,45,3*47,1773295179234
NMEA,$GNGSA,A,3,06,07,11,13,14,17,19,20,22,24,30,,0.5,0.3,0.4,1*3C,1773295179242
NMEA,$GNGSA,A,3,78,79,80,82,83,,,,,,,,0.5,0.3,0.4,2*38,1773295179242
NMEA,$GNGSA,A,3,02,07,08,13,15,27,30,34,36,,,,0.5,0.3,0.4,3*3E,1773295179242
NMEA,$GNGSA,A,3,01,02,03,05,06,07,08,09,10,13,16,23,0.5,0.3,0.4,4*36,1773295179242
NMEA,$GNGSA,A,3,02,03,,,,,,,,,,,0.5,0.3,0.4,5*36,1773295179242
NMEA,$GNVTG,,T,,M,0.0,N,0.0,K,A*3D,1773295179242
NMEA,$GNDTM,W84,,0000.000000,N,00000.000000,E,0.000,W84*41,1773295179242
NMEA,$GNRMC,055938.00,A,1304.090660,N,07735.506452,E,0.0,,120326,1.1,W,A,V*62,1773295179242
NMEA,$GNGNS,055938.00,1304.090660,N,07735.506452,E,AAAAAN,51,0.3,954.8,-85.8,,,V*09,1773295179242
NMEA,$GNGGA,055938.00,1304.090660,N,07735.506452,E,1,12,0.3,954.8,M,-85.8,M,,*51,1773295179242
NMEA,$GPGSV,6,1,22,03,03,064,33,06,82,151,49,07,10,150,43,11,40,206,53,1*66,1773295180237
NMEA,$GPGSV,6,2,22,13,25,240,44,14,43,063,43,17,33,019,46,19,47,344,50,1*62,1773295180237
NMEA,$GPGSV,6,3,22,20,16,245,38,22,45,038,47,24,15,317,44,30,41,159,47,1*6A,1773295180237
NMEA,$GPGSV,6,4,22,15,04,262,,21,07,191,,36,00,000,39,40,00,000,46,1*64,1773295180237
NMEA,$GPGSV,6,5,22,41,00,000,50,43,00,000,40,49,00,000,35,50,00,000,32,1*6B,1773295180237
NMEA,$GPGSV,6,6,22,56,00,000,45,57,00,000,46,1*66,1773295180237
NMEA,$GLGSV,2,1,08,78,19,124,46,82,63,353,52,80,33,353,49,79,53,071,42,1*74,1773295180237
NMEA,$GLGSV,2,2,08,69,00,215,31,84,01,212,31,83,50,229,53,,00,000,47,1*77,1773295180237
NMEA,$GAGSV,3,1,10,02,34,066,33,03,04,161,45,07,23,263,41,08,25,207,41,7*7E,1773295180237
NMEA,$GAGSV,3,2,10,13,06,207,30,15,55,186,50,27,11,313,38,30,40,357,50,7*73,1773295180237
NMEA,$GAGSV,3,3,10,34,61,063,42,36,13,037,43,7*75,1773295180237
NMEA,$GQGSV,1,1,02,02,22,075,44,03,24,058,41,1*6A,1773295180237
NMEA,$GBGSV,7,1,26,60,72,171,50,59,18,099,42,40,28,031,44,39,33,150,45,1*75,1773295180237
NMEA,$GBGSV,7,2,26,38,24,119,43,37,53,111,47,36,10,324,45,32,06,155,39,1*78,1773295180237
NMEA,$GBGSV,7,3,26,30,57,266,53,29,13,234,40,28,11,036,44,27,48,017,43,1*7C,1773295180237
NMEA,$GBGSV,7,4,26,23,06,132,39,16,41,147,48,13,22,146,44,10,49,015,41,1*7C,1773295180237
NMEA,$GBGSV,7,5,26,09,64,144,44,08,20,135,43,07,41,030,40,06,50,147,46,1*76,1773295180237
NMEA,$GBGSV,7,6,26,05,61,231,48,03,49,111,42,02,69,160,46,01,14,096,42,1*71,1773295180237
NMEA,$GBGSV,7,7,26,20,05,206,,46,58,351,,1*79,1773295180237
NMEA,$GBGSV,3,1,11,23,06,132,39,27,48,017,48,28,11,036,44,29,13,234,41,3*7E,1773295180237
NMEA,$GBGSV,3,2,11,30,57,266,54,32,06,155,36,36,10,324,45,37,53,111,48,3*7B,1773295180237
NMEA,$GBGSV,3,3,11,38,24,119,43,39,33,150,47,40,28,031,45,3*47,1773295180237
NMEA,$GNGSA,A,3,06,07,11,13,14,17,19,20,22,24,30,,0.5,0.3,0.4,1*3C,1773295180244
NMEA,$GNGSA,A,3,78,79,80,82,83,,,,,,,,0.5,0.3,0.4,2*38,1773295180244
NMEA,$GNGSA,A,3,02,07,08,13,15,27,30,34,36,,,,0.5,0.3,0.4,3*3E,1773295180244
NMEA,$GNGSA,A,3,01,02,03,05,06,07,08,09,10,13,16,23,0.5,0.3,0.4,4*36,1773295180244
NMEA,$GNGSA,A,3,02,03,,,,,,,,,,,0.5,0.3,0.4,5*36,1773295180244
NMEA,$GNVTG,,T,,M,0.0,N,0.0,K,A*3D,1773295180244
NMEA,$GNDTM,W84,,0000.000000,N,00000.000000,E,0.000,W84*41,1773295180244
NMEA,$GNRMC,055939.00,A,1304.090660,N,07735.506453,E,0.0,,120326,1.1,W,A,V*62,1773295180244
NMEA,$GNGNS,055939.00,1304.090660,N,07735.506453,E,AAAAAN,51,0.3,954.8,-85.8,,,V*09,1773295180244
NMEA,$GNGGA,055939.00,1304.090660,N,07735.506453,E,1,12,0.3,954.8,M,-85.8,M,,*51,1773295180244
NMEA,$GPGSV,6,1,22,03,03,064,33,06,82,151,49,07,10,150,43,11,40,206,53,1*66,1773295181237
NMEA,$GPGSV,6,2,22,13,25,240,43,14,43,063,43,17,33,019,46,19,47,344,50,1*65,1773295181237
NMEA,$GPGSV,6,3,22,20,16,245,38,22,45,038,47,24,15,317,44,30,41,159,47,1*6A,1773295181237
NMEA,$GPGSV,6,4,22,15,04,262,,21,07,191,,36,00,000,39,40,00,000,46,1*64,1773295181237
NMEA,$GPGSV,6,5,22,41,00,000,50,43,00,000,40,49,00,000,35,50,00,000,32,1*6B,1773295181237
NMEA,$GPGSV,6,6,22,56,00,000,45,57,00,000,46,1*66,1773295181237
NMEA,$GLGSV,2,1,08,78,19,124,46,82,63,353,52,80,33,353,49,79,53,071,42,1*74,1773295181237
NMEA,$GLGSV,2,2,08,69,00,215,31,84,01,212,30,83,50,229,53,,00,000,47,1*76,1773295181237
NMEA,$GAGSV,3,1,10,02,34,066,32,03,04,161,45,07,23,263,42,08,25,207,41,7*7C,1773295181237
NMEA,$GAGSV,3,2,10,13,06,207,30,15,55,186,50,27,11,313,38,30,40,357,50,7*73,1773295181237
NMEA,$GAGSV,3,3,10,34,61,063,42,36,13,037,43,7*75,1773295181237
NMEA,$GQGSV,1,1,02,02,22,075,43,03,24,058,41,1*6D,1773295181237
NMEA,$GBGSV,7,1,26,60,72,171,50,59,18,099,42,40,28,031,44,39,33,150,45,1*75,1773295181237
NMEA,$GBGSV,7,2,26,38,24,119,43,37,53,111,47,36,10,324,45,32,06,155,39,1*78,1773295181237
NMEA,$GBGSV,7,3,26,30,57,266,53,29,13,234,40,28,11,036,44,27,48,017,43,1*7C,1773295181237
NMEA,$GBGSV,7,4,26,23,06,132,39,16,41,147,48,13,22,146,45,10,49,015,41,1*7D,1773295181237
NMEA,$GBGSV,7,5,26,09,64,144,44,08,20,135,43,07,41,030,40,06,50,147,46,1*76,1773295181237
NMEA,$GBGSV,7,6,26,05,61,231,48,03,49,111,42,02,69,160,46,01,14,096,42,1*71,1773295181237
NMEA,$GBGSV,7,7,26,20,05,206,,46,58,351,,1*79,1773295181237
NMEA,$GBGSV,3,1,11,23,06,132,39,27,48,017,47,28,11,036,45,29,13,234,41,3*70,1773295181237
NMEA,$GBGSV,3,2,11,30,57,266,53,32,06,155,35,36,10,324,45,37,53,111,48,3*7F,1773295181237
NMEA,$GBGSV,3,3,11,38,24,119,43,39,33,150,47,40,28,031,45,3*47,1773295181237
NMEA,$GNGSA,A,3,06,07,11,13,14,17,19,20,22,24,30,,0.5,0.3,0.4,1*3C,1773295181244
NMEA,$GNGSA,A,3,78,79,80,82,83,,,,,,,,0.5,0.3,0.4,2*38,1773295181244
NMEA,$GNGSA,A,3,02,07,08,13,15,27,30,34,36,,,,0.5,0.3,0.4,3*3E,1773295181244
NMEA,$GNGSA,A,3,01,02,03,05,06,07,08,09,10,13,16,23,0.5,0.3,0.4,4*36,1773295181244
NMEA,$GNGSA,A,3,02,03,,,,,,,,,,,0.5,0.3,0.4,5*36,1773295181244
NMEA,$GNVTG,,T,,M,0.0,N,0.0,K,A*3D,1773295181244
NMEA,$GNDTM,W84,,0000.000000,N,00000.000000,E,0.000,W84*41,1773295181244
NMEA,$GNRMC,055940.00,A,1304.090664,N,07735.506448,E,0.0,,120326,1.1,W,A,V*62,1773295181244
NMEA,$GNGNS,055940.00,1304.090664,N,07735.506448,E,AAAAAN,51,0.3,954.8,-85.8,,,V*09,1773295181244
NMEA,$GNGGA,055940.00,1304.090664,N,07735.506448,E,1,12,0.3,954.8,M,-85.8,M,,*51,1773295181244
NMEA,$GPGSV,6,1,22,03,03,064,33,06,82,151,49,07,10,150,43,11,40,206,53,1*66,1773295182236
NMEA,$GPGSV,6,2,22,13,25,240,43,14,43,063,43,17,33,019,45,19,47,344,50,1*66,1773295182236
NMEA,$GPGSV,6,3,22,20,16,245,38,22,45,038,47,24,15,317,44,30,41,159,47,1*6A,1773295182236
NMEA,$GPGSV,6,4,22,15,04,262,,21,07,191,,36,00,000,39,40,00,000,46,1*64,1773295182236
NMEA,$GPGSV,6,5,22,41,00,000,50,43,00,000,40,49,00,000,35,50,00,000,32,1*6B,1773295182236
NMEA,$GPGSV,6,6,22,56,00,000,45,57,00,000,46,1*66,1773295182236
NMEA,$GLGSV,2,1,08,78,19,124,46,82,63,353,52,80,33,353,49,79,53,071,42,1*74,1773295182236
NMEA,$GLGSV,2,2,08,69,00,215,30,84,01,212,30,83,50,229,53,,00,000,47,1*77,1773295182236
NMEA,$GAGSV,3,1,10,02,34,066,32,03,04,161,45,07,23,263,42,08,25,207,41,7*7C,1773295182236
NMEA,$GAGSV,3,2,10,13,06,207,30,15,55,186,49,27,11,313,38,30,40,357,49,7*73,1773295182236
NMEA,$GAGSV,3,3,10,34,61,063,42,36,13,037,43,7*75,1773295182236
NMEA,$GQGSV,1,1,02,02,22,075,43,03,24,058,41,1*6D,1773295182236
NMEA,$GBGSV,7,1,26,60,72,171,50,59,18,099,42,40,28,031,44,39,33,150,45,1*75,1773295182236
NMEA,$GBGSV,7,2,26,38,24,119,44,37,53,111,47,36,10,324,45,32,06,155,39,1*7F,1773295182236
NMEA,$GBGSV,7,3,26,30,57,266,53,29,13,234,40,28,11,036,44,27,48,017,43,1*7C,1773295182236
NMEA,$GBGSV,7,4,26,23,06,132,39,16,41,147,48,13,22,146,45,10,49,015,41,1*7D,1773295182236
NMEA,$GBGSV,7,5,26,09,64,144,44,08,20,135,43,07,41,030,40,06,50,147,46,1*76,1773295182236
NMEA,$GBGSV,7,6,26,05,61,231,48,03,49,111,42,02,69,160,46,01,14,096,42,1*71,1773295182236
NMEA,$GBGSV,7,7,26,20,05,206,,46,58,351,,1*79,1773295182236
NMEA,$GBGSV,3,1,11,23,06,132,39,27,48,017,47,28,11,036,45,29,13,234,40,3*71,1773295182236
NMEA,$GBGSV,3,2,11,30,57,266,53,32,06,155,36,36,10,324,45,37,53,111,48,3*7C,1773295182236
NMEA,$GBGSV,3,3,11,38,24,119,43,39,33,150,47,40,28,031,45,3*47,1773295182236
NMEA,$GNGSA,A,3,06,07,11,13,14,17,19,20,22,24,30,,0.5,0.3,0.4,1*3C,1773295182242
NMEA,$GNGSA,A,3,78,79,80,82,83,,,,,,,,0.5,0.3,0.4,2*38,1773295182242
NMEA,$GNGSA,A,3,02,07,08,13,15,27,30,34,36,,,,0.5,0.3,0.4,3*3E,1773295182242
NMEA,$GNGSA,A,3,01,02,03,05,06,07,08,09,10,13,16,23,0.5,0.3,0.4,4*36,1773295182242
NMEA,$GNGSA,A,3,02,03,,,,,,,,,,,0.5,0.3,0.4,5*36,1773295182242
NMEA,$GNVTG,,T,,M,0.0,N,0.0,K,A*3D,1773295182242
NMEA,$GNDTM,W84,,0000.000000,N,00000.000000,E,0.000,W84*41,1773295182242
NMEA,$GNRMC,055941.00,A,1304.090664,N,07735.506448,E,0.0,,120326,1.1,W,A,V*63,1773295182242
NMEA,$GNGNS,055941.00,1304.090664,N,07735.506448,E,AAAAAN,51,0.3,954.8,-85.8,,,V*08,1773295182242
NMEA,$GNGGA,055941.00,1304.090664,N,07735.506448,E,1,12,0.3,954.8,M,-85.8,M,,*50,1773295182242
NMEA,$GPGSV,6,1,22,03,03,064,34,06,82,151,49,07,10,150,43,11,40,206,53,1*61,1773295183236
NMEA,$GPGSV,6,2,22,13,25,240,44,14,43,063,43,17,33,019,46,19,47,344,49,1*6A,1773295183236
NMEA,$GPGSV,6,3,22,20,16,245,38,22,45,038,47,24,15,317,44,30,41,159,47,1*6A,1773295183236
NMEA,$GPGSV,6,4,22,15,04,262,,21,07,191,,36,00,000,39,40,00,000,46,1*64,1773295183236
NMEA,$GPGSV,6,5,22,41,00,000,51,43,00,000,40,49,00,000,35,50,00,000,32,1*6A,1773295183236
NMEA,$GPGSV,6,6,22,56,00,000,45,57,00,000,46,1*66,1773295183236
NMEA,$GLGSV,2,1,08,78,19,124,46,82,63,353,52,80,33,353,49,79,53,071,43,1*75,1773295183236
NMEA,$GLGSV,2,2,08,69,00,215,28,84,01,212,31,83,50,229,53,,00,000,47,1*7F,1773295183236
NMEA,$GAGSV,3,1,10,02,34,066,33,03,04,161,45,07,23,263,42,08,25,207,41,7*7D,1773295183236
NMEA,$GAGSV,3,2,10,13,06,207,29,15,55,186,50,27,11,313,38,30,40,357,49,7*73,1773295183236
NMEA,$GAGSV,3,3,10,34,61,063,43,36,13,037,43,7*74,1773295183236
NMEA,$GQGSV,1,1,02,02,22,075,44,03,24,058,41,1*6A,1773295183236
NMEA,$GBGSV,7,1,26,60,72,171,50,59,18,099,42,40,28,031,44,39,33,150,45,1*75,1773295183236
NMEA,$GBGSV,7,2,26,38,24,119,44,37,53,111,47,36,10,324,45,32,06,155,39,1*7F,1773295183236
NMEA,$GBGSV,7,3,26,30,57,266,53,29,13,234,40,28,11,036,44,27,48,017,44,1*7B,1773295183236
NMEA,$GBGSV,7,4,26,23,06,132,39,16,41,147,48,13,22,146,45,10,49,015,41,1*7D,1773295183236
NMEA,$GBGSV,7,5,26,09,64,144,44,08,20,135,43,07,41,030,40,06,50,147,46,1*76,1773295183236
NMEA,$GBGSV,7,6,26,05,61,231,48,03,49,111,42,02,69,160,46,01,14,096,42,1*71,1773295183236
NMEA,$GBGSV,7,7,26,20,05,206,,46,58,351,,1*79,1773295183236
NMEA,$GBGSV,3,1,11,23,06,132,39,27,48,017,48,28,11,036,45,29,13,234,41,3*7F,1773295183236
NMEA,$GBGSV,3,2,11,30,57,266,53,32,06,155,36,36,10,324,45,37,53,111,48,3*7C,1773295183236
NMEA,$GBGSV,3,3,11,38,24,119,43,39,33,150,47,40,28,031,45,3*47,1773295183236
NMEA,$GNGSA,A,3,06,07,11,13,14,17,19,20,22,24,30,,0.5,0.3,0.4,1*3C,1773295183248
NMEA,$GNGSA,A,3,78,79,80,82,83,,,,,,,,0.5,0.3,0.4,2*38,1773295183248
NMEA,$GNGSA,A,3,02,07,08,13,15,27,30,34,36,,,,0.5,0.3,0.4,3*3E,1773295183248
NMEA,$GNGSA,A,3,01,02,03,05,06,07,08,09,10,13,16,23,0.5,0.3,0.4,4*36,1773295183248
NMEA,$GNGSA,A,3,02,03,,,,,,,,,,,0.5,0.3,0.4,5*36,1773295183248
NMEA,$GNVTG,,T,,M,0.0,N,0.0,K,A*3D,1773295183248
NMEA,$GNDTM,W84,,0000.000000,N,00000.000000,E,0.000,W84*41,1773295183248
NMEA,$GNRMC,055942.00,A,1304.090664,N,07735.506448,E,0.0,,120326,1.1,W,A,V*60,1773295183248
NMEA,$GNGNS,055942.00,1304.090664,N,07735.506448,E,AAAAAN,51,0.3,954.8,-85.8,,,V*0B,1773295183248
NMEA,$GNGGA,055942.00,1304.090664,N,07735.506448,E,1,12,0.3,954.8,M,-85.8,M,,*53,1773295183248
NMEA,$GPGSV,5,1,20,03,03,064,33,06,82,151,48,07,10,150,43,11,40,206,52,1*67,1773295184235
NMEA,$GPGSV,5,2,20,13,25,240,43,14,43,063,43,17,33,019,46,19,47,344,50,1*64,1773295184235
NMEA,$GPGSV,5,3,20,20,16,245,38,22,45,038,47,24,15,317,44,30,41,159,47,1*6B,1773295184235
NMEA,$GPGSV,5,4,20,15,04,262,,21,07,191,,36,00,000,39,41,00,000,50,1*63,1773295184235
NMEA,$GPGSV,5,5,20,43,00,000,40,49,00,000,35,56,00,000,45,57,00,000,46,1*6C,1773295184235
NMEA,$GLGSV,2,1,08,78,19,124,46,82,63,353,52,80,33,353,49,79,53,071,43,1*75,1773295184235
NMEA,$GLGSV,2,2,08,69,00,215,27,84,01,212,31,83,50,229,52,,00,000,48,1*7E,1773295184235
NMEA,$GAGSV,3,1,10,02,34,066,33,03,04,161,45,07,23,263,42,08,25,207,41,7*7D,1773295184235
NMEA,$GAGSV,3,2,10,13,06,207,29,15,55,186,49,27,11,313,38,30,40,357,49,7*7B,1773295184235
NMEA,$GAGSV,3,3,10,34,61,063,42,36,13,037,42,7*74,1773295184235
NMEA,$GQGSV,1,1,02,02,22,075,44,03,24,058,41,1*6A,1773295184235
NMEA,$GBGSV,7,1,26,60,72,171,50,59,18,099,42,40,28,031,44,39,33,150,45,1*75,1773295184235
NMEA,$GBGSV,7,2,26,38,24,119,44,37,53,111,47,36,10,324,45,32,06,155,39,1*7F,1773295184235
NMEA,$GBGSV,7,3,26,30,57,266,53,29,13,234,40,28,11,036,44,27,48,017,43,1*7C,1773295184235
NMEA,$GBGSV,7,4,26,23,06,132,39,20,05,206,29,16,41,147,48,13,22,146,44,1*79,1773295184235
NMEA,$GBGSV,7,5,26,10,49,015,41,09,64,144,44,08,20,135,43,07,41,030,40,1*78,1773295184235
NMEA,$GBGSV,7,6,26,06,50,147,46,05,61,231,48,03,49,111,42,02,69,160,46,1*7F,1773295184235
NMEA,$GBGSV,7,7,26,01,14,096,43,46,58,351,,1*76,1773295184235
NMEA,$GBGSV,3,1,11,23,06,132,39,27,48,017,48,28,11,036,45,29,13,234,40,3*7E,1773295184235
NMEA,$GBGSV,3,2,11,30,57,266,53,32,06,155,36,36,10,324,45,37,53,111,48,3*7C,1773295184235
NMEA,$GBGSV,3,3,11,38,24,119,43,39,33,150,47,40,28,031,45,3*47,1773295184235
NMEA,$GNGSA,A,3,06,07,11,13,14,17,19,20,22,24,30,,0.5,0.3,0.4,1*3C,1773295184241
NMEA,$GNGSA,A,3,78,79,80,82,83,,,,,,,,0.5,0.3,0.4,2*38,1773295184241
NMEA,$GNGSA,A,3,02,07,08,13,15,27,30,34,36,,,,0.5,0.3,0.4,3*3E,1773295184241
NMEA,$GNGSA,A,3,01,02,03,05,06,07,08,09,10,13,16,23,0.5,0.3,0.4,4*36,1773295184241
NMEA,$GNGSA,A,3,02,03,,,,,,,,,,,0.5,0.3,0.4,5*36,1773295184241
NMEA,$GNVTG,,T,,M,0.0,N,0.0,K,A*3D,1773295184241
NMEA,$GNDTM,W84,,0000.000000,N,00000.000000,E,0.000,W84*41,1773295184241
NMEA,$GNRMC,055943.00,A,1304.090664,N,07735.506448,E,0.0,,120326,1.1,W,A,V*61,1773295184241
NMEA,$GNGNS,055943.00,1304.090664,N,07735.506448,E,AAAAAN,51,0.3,954.8,-85.8,,,V*0A,1773295184241
NMEA,$GNGGA,055943.00,1304.090664,N,07735.506448,E,1,12,0.3,954.8,M,-85.8,M,,*52,1773295184241
NMEA,$GPGSV,5,1,17,03,03,064,33,06,82,151,49,07,10,150,43,11,40,206,52,1*62,1773295185238
NMEA,$GPGSV,5,2,17,13,25,240,44,14,43,063,43,17,33,019,46,19,47,344,50,1*67,1773295185238
NMEA,$GPGSV,5,3,17,20,16,245,38,22,45,038,47,24,15,317,44,30,41,159,47,1*6F,1773295185238
NMEA,$GPGSV,5,4,17,15,04,262,,21,07,191,,41,00,000,50,56,00,000,45,1*6A,1773295185238
NMEA,$GPGSV,5,5,17,57,00,000,46,1*52,1773295185238
NMEA,$GLGSV,2,1,08,78,19,124,46,82,63,353,52,80,33,353,49,79,53,071,43,1*75,1773295185238
NMEA,$GLGSV,2,2,08,69,00,215,28,84,01,212,32,83,50,229,52,,00,000,47,1*7D,1773295185238
NMEA,$GAGSV,3,1,10,02,34,066,32,03,04,161,45,07,23,263,42,08,25,207,41,7*7C,1773295185238
NMEA,$GAGSV,3,2,10,13,06,207,30,15,55,186,49,27,11,313,38,30,40,357,49,7*73,1773295185238
NMEA,$GAGSV,3,3,10,34,61,063,42,36,13,037,42,7*74,1773295185238
NMEA,$GQGSV,1,1,02,02,22,075,44,03,24,058,41,1*6A,1773295185238
NMEA,$GBGSV,7,1,26,60,72,171,50,59,18,099,42,40,28,031,44,39,33,150,45,1*75,1773295185238
NMEA,$GBGSV,7,2,26,38,24,119,44,37,53,111,47,36,10,324,44,32,06,155,39,1*7E,1773295185238
NMEA,$GBGSV,7,3,26,30,57,266,53,29,13,234,40,28,11,036,44,27,48,017,43,1*7C,1773295185238
NMEA,$GBGSV,7,4,26,23,06,132,39,16,41,147,47,13,22,146,44,10,49,015,41,1*73,1773295185238
NMEA,$GBGSV,7,5,26,09,64,144,44,08,20,135,43,07,41,030,39,06,50,147,46,1*78,1773295185238
NMEA,$GBGSV,7,6,26,05,61,231,48,03,49,111,42,02,69,160,46,01,14,096,42,1*71,1773295185238
NMEA,$GBGSV,7,7,26,20,05,206,,46,58,351,,1*79,1773295185238
NMEA,$GBGSV,3,1,11,23,06,132,39,27,48,017,47,28,11,036,45,29,13,234,41,3*70,1773295185238
NMEA,$GBGSV,3,2,11,30,57,266,53,32,06,155,36,36,10,324,45,37,53,111,48,3*7C,1773295185238
NMEA,$GBGSV,3,3,11,38,24,119,43,39,33,150,47,40,28,031,45,3*47,1773295185238
NMEA,$GNGSA,A,3,06,07,11,13,14,17,19,20,22,24,30,,0.5,0.3,0.4,1*3C,1773295185246
NMEA,$GNGSA,A,3,78,79,80,82,83,,,,,,,,0.5,0.3,0.4,2*38,1773295185246
NMEA,$GNGSA,A,3,02,07,08,13,15,27,30,34,36,,,,0.5,0.3,0.4,3*3E,1773295185246
NMEA,$GNGSA,A,3,01,02,03,05,06,07,08,09,10,13,16,23,0.5,0.3,0.4,4*36,1773295185246
NMEA,$GNGSA,A,3,02,03,,,,,,,,,,,0.5,0.3,0.4,5*36,1773295185246
NMEA,$GNVTG,,T,,M,0.0,N,0.0,K,A*3D,1773295185246
NMEA,$GNDTM,W84,,0000.000000,N,00000.000000,E,0.000,W84*41,1773295185246
NMEA,$GNRMC,055944.00,A,1304.090664,N,07735.506448,E,0.0,,120326,1.1,W,A,V*66,1773295185246
NMEA,$GNGNS,055944.00,1304.090664,N,07735.506448,E,AAAAAN,51,0.3,954.8,-85.8,,,V*0D,1773295185246
NMEA,$GNGGA,055944.00,1304.090664,N,07735.506448,E,1,12,0.3,954.8,M,-85.8,M,,*55,1773295185246
NMEA,$GPGSV,5,1,17,03,03,064,34,06,82,151,49,07,10,150,43,11,40,206,53,1*64,1773295186237
NMEA,$GPGSV,5,2,17,13,25,240,43,14,43,063,43,17,33,019,46,19,47,344,50,1*60,1773295186237
NMEA,$GPGSV,5,3,17,20,16,245,38,22,45,038,47,24,15,317,44,30,41,159,47,1*6F,1773295186237
NMEA,$GPGSV,5,4,17,15,04,262,,21,07,191,,41,00,000,50,56,00,000,45,1*6A,1773295186237
NMEA,$GPGSV,5,5,17,57,00,000,46,1*52,1773295186237
NMEA,$GLGSV,2,1,08,78,19,124,46,82,63,353,52,80,33,353,49,79,53,071,42,1*74,1773295186237
NMEA,$GLGSV,2,2,08,69,00,215,27,84,01,212,32,83,50,229,52,,00,000,47,1*72,1773295186237
NMEA,$GAGSV,3,1,10,02,34,066,32,03,04,161,45,07,23,263,42,08,25,207,41,7*7C,1773295186237
NMEA,$GAGSV,3,2,10,13,06,207,30,15,55,186,50,27,11,313,38,30,40,357,50,7*73,1773295186237
NMEA,$GAGSV,3,3,10,34,61,063,42,36,13,037,43,7*75,1773295186237
NMEA,$GQGSV,1,1,02,02,22,075,43,03,24,058,41,1*6D,1773295186237
NMEA,$GBGSV,7,1,26,60,72,171,50,59,18,099,42,40,28,031,44,39,33,150,46,1*76,1773295186237
NMEA,$GBGSV,7,2,26,38,24,119,44,37,53,111,47,36,10,324,44,32,06,155,39,1*7E,1773295186237
NMEA,$GBGSV,7,3,26,30,57,266,53,29,13,234,40,28,11,036,44,27,48,017,43,1*7C,1773295186237
NMEA,$GBGSV,7,4,26,23,06,132,39,20,05,206,29,16,41,147,48,13,22,146,45,1*78,1773295186237
NMEA,$GBGSV,7,5,26,10,49,015,41,09,64,144,44,08,20,135,43,07,41,030,40,1*78,1773295186237
NMEA,$GBGSV,7,6,26,06,50,147,46,05,61,231,48,03,49,111,42,02,69,160,46,1*7F,1773295186237
NMEA,$GBGSV,7,7,26,01,14,096,43,46,58,351,,1*76,1773295186237
NMEA,$GBGSV,3,1,11,23,06,132,39,27,48,017,47,28,11,036,45,29,13,234,40,3*71,1773295186237
NMEA,$GBGSV,3,2,11,30,57,266,53,32,06,155,36,36,10,324,45,37,53,111,48,3*7C,1773295186237
NMEA,$GBGSV,3,3,11,38,24,119,43,39,33,150,47,40,28,031,45,3*47,1773295186237
NMEA,$GNGSA,A,3,06,07,11,13,14,17,19,20,22,24,30,,0.5,0.3,0.4,1*3C,1773295186243
NMEA,$GNGSA,A,3,78,79,80,82,83,,,,,,,,0.5,0.3,0.4,2*38,1773295186243
NMEA,$GNGSA,A,3,02,07,08,13,15,27,30,34,36,,,,0.5,0.3,0.4,3*3E,1773295186243
NMEA,$GNGSA,A,3,01,02,03,05,06,07,08,09,10,13,16,23,0.5,0.3,0.4,4*36,1773295186243
NMEA,$GNGSA,A,3,02,03,,,,,,,,,,,0.5,0.3,0.4,5*36,1773295186243
NMEA,$GNVTG,,T,,M,0.0,N,0.0,K,A*3D,1773295186243
NMEA,$GNDTM,W84,,0000.000000,N,00000.000000,E,0.000,W84*41,1773295186243
NMEA,$GNRMC,055945.00,A,1304.090663,N,07735.506448,E,0.0,,120326,1.1,W,A,V*60,1773295186243
NMEA,$GNGNS,055945.00,1304.090663,N,07735.506448,E,AAAAAN,51,0.3,954.8,-85.8,,,V*0B,1773295186243
NMEA,$GNGGA,055945.00,1304.090663,N,07735.506448,E,1,12,0.3,954.8,M,-85.8,M,,*53,1773295186243
NMEA,$GPGSV,4,1,16,03,03,064,34,06,82,151,49,07,10,150,43,11,40,206,52,1*65,1773295187238
NMEA,$GPGSV,4,2,16,13,25,240,43,14,43,063,43,17,33,019,46,19,47,344,50,1*60,1773295187238
NMEA,$GPGSV,4,3,16,20,16,245,37,22,45,038,47,24,15,317,44,30,41,159,47,1*60,1773295187238
NMEA,$GPGSV,4,4,16,15,04,262,,21,07,191,,41,00,000,50,56,00,000,45,1*6A,1773295187238
NMEA,$GLGSV,2,1,08,78,19,124,46,82,63,353,52,80,33,353,49,79,53,071,42,1*74,1773295187238
NMEA,$GLGSV,2,2,08,69,00,215,27,84,01,212,32,83,50,229,52,,00,000,47,1*72,1773295187238
NMEA,$GAGSV,3,1,10,02,34,066,33,03,04,161,45,07,23,263,42,08,25,207,41,7*7D,1773295187238
NMEA,$GAGSV,3,2,10,13,06,207,30,15,55,186,49,27,11,313,38,30,40,357,50,7*7B,1773295187238
NMEA,$GAGSV,3,3,10,34,61,063,42,36,13,037,43,7*75,1773295187238
NMEA,$GQGSV,1,1,02,02,22,075,44,03,24,058,41,1*6A,1773295187238
NMEA,$GBGSV,7,1,26,60,72,171,50,59,18,099,42,40,28,031,44,39,33,150,45,1*75,1773295187238
NMEA,$GBGSV,7,2,26,38,24,119,43,37,53,111,47,36,10,324,44,32,06,155,39,1*79,1773295187238
NMEA,$GBGSV,7,3,26,30,57,266,53,29,13,234,40,28,11,036,44,27,48,017,43,1*7C,1773295187238
NMEA,$GBGSV,7,4,26,23,06,132,39,16,41,147,48,13,22,146,44,10,49,015,41,1*7C,1773295187238
NMEA,$GBGSV,7,5,26,09,64,144,44,08,20,135,43,07,41,030,39,06,50,147,46,1*78,1773295187238
NMEA,$GBGSV,7,6,26,05,61,231,48,03,49,111,42,02,69,160,46,01,14,096,43,1*70,1773295187238
NMEA,$GBGSV,7,7,26,20,05,206,,46,58,351,,1*79,1773295187238
NMEA,$GBGSV,3,1,11,23,06,132,40,27,48,017,47,28,11,036,45,29,13,234,41,3*7E,1773295187238
NMEA,$GBGSV,3,2,11,30,57,266,53,32,06,155,36,36,10,324,45,37,53,111,48,3*7C,1773295187238
NMEA,$GBGSV,3,3,11,38,24,119,43,39,33,150,47,40,28,031,45,3*47,1773295187238
NMEA,$GNGSA,A,3,06,07,11,13,14,17,19,20,22,24,30,,0.5,0.3,0.4,1*3C,1773295187244
NMEA,$GNGSA,A,3,78,79,80,82,83,,,,,,,,0.5,0.3,0.4,2*38,1773295187244
NMEA,$GNGSA,A,3,02,07,08,13,15,27,30,34,36,,,,0.5,0.3,0.4,3*3E,1773295187244
NMEA,$GNGSA,A,3,01,02,03,05,06,07,08,09,10,13,16,23,0.5,0.3,0.4,4*36,1773295187244
NMEA,$GNGSA,A,3,02,03,,,,,,,,,,,0.5,0.3,0.4,5*36,1773295187244
NMEA,$GNVTG,,T,,M,0.0,N,0.0,K,A*3D,1773295187244
NMEA,$GNDTM,W84,,0000.000000,N,00000.000000,E,0.000,W84*41,1773295187244
NMEA,$GNRMC,055946.00,A,1304.090664,N,07735.506447,E,0.0,,120326,1.1,W,A,V*6B,1773295187244
NMEA,$GNGNS,055946.00,1304.090664,N,07735.506447,E,AAAAAN,51,0.3,954.8,-85.8,,,V*00,1773295187244
NMEA,$GNGGA,055946.00,1304.090664,N,07735.506447,E,1,12,0.3,954.8,M,-85.8,M,,*58,1773295187244
NMEA,$GPGSV,4,1,16,03,03,064,34,06,82,151,49,07,10,150,44,11,40,206,52,1*62,1773295188235
NMEA,$GPGSV,4,2,16,13,25,240,43,14,43,063,43,17,33,019,46,19,47,344,50,1*60,1773295188235
NMEA,$GPGSV,4,3,16,20,16,245,37,22,45,038,47,24,15,317,44,30,41,159,47,1*60,1773295188235
NMEA,$GPGSV,4,4,16,15,04,262,,21,07,191,,41,00,000,50,56,00,000,45,1*6A,1773295188235
NMEA,$GLGSV,2,1,08,78,19,124,46,82,63,353,52,80,33,353,49,79,53,071,43,1*75,1773295188235
NMEA,$GLGSV,2,2,08,69,00,215,30,84,01,212,32,83,50,229,52,,00,000,47,1*74,1773295188235
NMEA,$GAGSV,3,1,10,02,34,066,32,03,04,161,45,07,23,263,42,08,25,207,41,7*7C,1773295188235
NMEA,$GAGSV,3,2,10,13,06,207,29,15,55,186,49,27,11,313,38,30,40,357,49,7*7B,1773295188235
NMEA,$GAGSV,3,3,10,34,61,063,42,36,13,037,43,7*75,1773295188235
NMEA,$GQGSV,1,1,02,02,22,075,43,03,24,058,41,1*6D,1773295188235
NMEA,$GBGSV,7,1,26,60,72,171,50,59,18,099,42,40,28,031,44,39,33,150,45,1*75,1773295188235
NMEA,$GBGSV,7,2,26,38,24,119,44,37,53,111,47,36,10,324,44,32,06,155,38,1*7F,1773295188235
NMEA,$GBGSV,7,3,26,30,57,266,53,29,13,234,40,28,11,036,44,27,48,017,43,1*7C,1773295188235
NMEA,$GBGSV,7,4,26,23,06,132,38,20,05,206,29,16,41,147,48,13,22,146,44,1*78,1773295188235
NMEA,$GBGSV,7,5,26,10,49,015,41,09,64,144,44,08,20,135,43,07,41,030,39,1*76,1773295188235
NMEA,$GBGSV,7,6,26,06,50,147,46,05,61,231,48,03,49,111,42,02,69,160,46,1*7F,1773295188235
NMEA,$GBGSV,7,7,26,01,14,096,43,46,58,351,,1*76,1773295188235
NMEA,$GBGSV,3,1,11,23,06,132,40,27,48,017,47,28,11,036,44,29,13,234,41,3*7F,1773295188235
NMEA,$GBGSV,3,2,11,30,57,266,53,32,06,155,36,36,10,324,45,37,53,111,48,3*7C,1773295188235
NMEA,$GBGSV,3,3,11,38,24,119,43,39,33,150,46,40,28,031,45,3*46,1773295188235
NMEA,$GNGSA,A,3,06,07,11,13,14,17,19,20,22,24,30,,0.5,0.3,0.4,1*3C,1773295188243
NMEA,$GNGSA,A,3,78,79,80,82,83,,,,,,,,0.5,0.3,0.4,2*38,1773295188243
NMEA,$GNGSA,A,3,02,07,08,13,15,27,30,34,36,,,,0.5,0.3,0.4,3*3E,1773295188243
NMEA,$GNGSA,A,3,01,02,03,05,06,07,08,09,10,13,16,23,0.5,0.3,0.4,4*36,1773295188243
NMEA,$GNGSA,A,3,02,03,,,,,,,,,,,0.5,0.3,0.4,5*36,1773295188243
NMEA,$GNVTG,,T,,M,0.0,N,0.0,K,A*3D,1773295188243
NMEA,$GNDTM,W84,,0000.000000,N,00000.000000,E,0.000,W84*41,1773295188243
NMEA,$GNRMC,055947.00,A,1304.090664,N,07735.506447,E,0.0,,120326,1.1,W,A,V*6A,1773295188243
NMEA,$GNGNS,055947.00,1304.090664,N,07735.506447,E,AAAAAN,51,0.3,954.8,-85.8,,,V*01,1773295188243
NMEA,$GNGGA,055947.00,1304.090664,N,07735.506447,E,1,12,0.3,954.8,M,-85.8,M,,*59,1773295188243
NMEA,$GPGSV,4,1,16,03,03,064,34,06,82,151,49,07,10,150,44,11,40,206,53,1*63,1773295189237
NMEA,$GPGSV,4,2,16,13,25,240,43,14,43,063,43,17,33,019,46,19,47,344,50,1*60,1773295189237
NMEA,$GPGSV,4,3,16,20,16,245,37,22,45,038,47,24,15,317,44,30,41,159,47,1*60,1773295189237
NMEA,$GPGSV,4,4,16,15,04,262,,21,07,191,,41,00,000,50,56,00,000,45,1*6A,1773295189237
NMEA,$GLGSV,2,1,08,78,19,124,46,82,63,353,52,80,33,353,49,79,53,071,43,1*75,1773295189237
NMEA,$GLGSV,2,2,08,69,00,215,27,84,01,212,32,83,50,229,52,,00,000,47,1*72,1773295189237
NMEA,$GAGSV,3,1,10,02,34,066,32,03,04,161,46,07,23,262,42,08,25,207,40,7*7F,1773295189237
NMEA,$GAGSV,3,2,10,13,06,207,29,15,55,186,50,27,11,313,38,30,40,357,49,7*73,1773295189237
NMEA,$GAGSV,3,3,10,34,61,063,42,36,13,037,43,7*75,1773295189237
NMEA,$GQGSV,1,1,02,02,22,075,44,03,24,058,41,1*6A,1773295189237
NMEA,$GBGSV,7,1,26,60,72,171,50,59,18,099,41,40,28,031,45,39,33,150,45,1*77,1773295189237
NMEA,$GBGSV,7,2,26,38,24,119,43,37,53,111,47,36,10,324,44,32,06,155,39,1*79,1773295189237
NMEA,$GBGSV,7,3,26,30,57,266,53,29,13,234,40,28,11,036,44,27,48,017,43,1*7C,1773295189237
NMEA,$GBGSV,7,4,26,23,06,132,38,16,41,147,47,13,22,146,44,10,49,015,41,1*72,1773295189237
NMEA,$GBGSV,7,5,26,09,64,144,44,08,20,135,43,07,41,030,39,06,50,147,46,1*78,1773295189237
NMEA,$GBGSV,7,6,26,05,61,231,48,03,49,111,42,02,69,160,46,01,14,096,42,1*71,1773295189237
NMEA,$GBGSV,7,7,26,20,05,206,,46,58,351,,1*79,1773295189237
NMEA,$GBGSV,3,1,11,23,06,132,39,27,48,017,47,28,11,036,45,29,13,234,40,3*71,1773295189237
NMEA,$GBGSV,3,2,11,30,57,266,53,32,06,155,36,36,10,324,45,37,53,111,48,3*7C,1773295189237
NMEA,$GBGSV,3,3,11,38,24,119,42,39,33,150,46,40,28,031,44,3*46,1773295189237
NMEA,$GNGSA,A,3,06,07,11,13,14,17,19,20,22,24,30,,0.5,0.3,0.4,1*3C,1773295189244
NMEA,$GNGSA,A,3,78,79,80,82,83,,,,,,,,0.5,0.3,0.4,2*38,1773295189244
NMEA,$GNGSA,A,3,02,07,08,13,15,27,30,34,36,,,,0.5,0.3,0.4,3*3E,1773295189244
NMEA,$GNGSA,A,3,01,02,03,05,06,07,08,09,10,13,16,23,0.5,0.3,0.4,4*36,1773295189244
NMEA,$GNGSA,A,3,02,03,,,,,,,,,,,0.5,0.3,0.4,5*36,1773295189244
NMEA,$GNVTG,,T,,M,0.0,N,0.0,K,A*3D,1773295189244
NMEA,$GNDTM,W84,,0000.000000,N,00000.000000,E,0.000,W84*41,1773295189244
NMEA,$GNRMC,055948.00,A,1304.090663,N,07735.506447,E,0.0,,120326,1.1,W,A,V*62,1773295189244
NMEA,$GNGNS,055948.00,1304.090663,N,07735.506447,E,AAAAAN,51,0.3,954.8,-85.8,,,V*09,1773295189244
NMEA,$GNGGA,055948.00,1304.090663,N,07735.506447,E,1,12,0.3,954.8,M,-85.8,M,,*51,1773295189244
NMEA,$GPGSV,4,1,16,03,03,064,35,06,82,151,49,07,10,150,44,11,40,206,52,1*63,1773295190240
NMEA,$GPGSV,4,2,16,13,25,240,43,14,43,063,44,17,33,019,46,19,47,344,50,1*67,1773295190240
NMEA,$GPGSV,4,3,16,20,16,245,38,22,45,038,46,24,15,317,44,30,41,159,46,1*6F,1773295190240
NMEA,$GPGSV,4,4,16,15,04,262,,21,07,191,,41,00,000,50,56,00,000,45,1*6A,1773295190240
NMEA,$GLGSV,2,1,08,78,19,124,46,82,63,353,51,80,33,353,49,79,53,071,43,1*76,1773295190240
NMEA,$GLGSV,2,2,08,69,00,215,28,84,01,212,32,83,50,229,52,,00,000,47,1*7D,1773295190240
NMEA,$GAGSV,3,1,10,02,34,066,32,03,04,161,46,07,23,262,42,08,25,207,41,7*7E,1773295190240
NMEA,$GAGSV,3,2,10,13,06,207,29,15,55,186,49,27,11,313,38,30,40,357,49,7*7B,1773295190240
NMEA,$GAGSV,3,3,10,34,61,063,43,36,13,037,43,7*74,1773295190240
NMEA,$GQGSV,1,1,02,02,22,075,44,03,24,058,41,1*6A,1773295190240
NMEA,$GBGSV,7,1,26,60,72,171,50,59,18,099,42,40,28,031,44,39,33,150,45,1*75,1773295190240
NMEA,$GBGSV,7,2,26,38,24,119,43,37,53,111,47,36,10,324,44,32,06,155,39,1*79,1773295190240
NMEA,$GBGSV,7,3,26,30,57,266,53,29,13,234,40,28,11,036,44,27,48,017,43,1*7C,1773295190240
NMEA,$GBGSV,7,4,26,23,06,132,38,20,05,206,29,16,41,147,48,13,22,146,45,1*79,1773295190240
NMEA,$GBGSV,7,5,26,10,49,015,41,09,64,144,44,08,20,135,43,07,41,030,39,1*76,1773295190240
NMEA,$GBGSV,7,6,26,06,50,147,46,05,61,231,48,03,49,111,42,02,69,160,46,1*7F,1773295190240
NMEA,$GBGSV,7,7,26,01,14,096,43,46,58,351,,1*76,1773295190240
NMEA,$GBGSV,3,1,11,23,06,132,40,27,48,017,47,28,11,036,45,29,13,234,41,3*7E,1773295190240
NMEA,$GBGSV,3,2,11,30,57,266,53,32,06,155,36,36,10,324,45,37,53,111,48,3*7C,1773295190240
NMEA,$GBGSV,3,3,11,38,24,119,43,39,33,150,47,40,28,031,45,3*47,1773295190240
NMEA,$GNGSA,A,3,06,07,11,13,14,17,19,20,22,24,30,,0.5,0.3,0.4,1*3C,1773295190254
NMEA,$GNGSA,A,3,78,79,80,82,83,,,,,,,,0.5,0.3,0.4,2*38,1773295190254
NMEA,$GNGSA,A,3,02,07,08,13,15,27,30,34,36,,,,0.5,0.3,0.4,3*3E,1773295190254
NMEA,$GNGSA,A,3,01,02,03,05,06,07,08,09,10,13,16,23,0.5,0.3,0.4,4*36,1773295190254
NMEA,$GNGSA,A,3,02,03,,,,,,,,,,,0.5,0.3,0.4,5*36,1773295190254
NMEA,$GNVTG,,T,,M,0.0,N,0.0,K,A*3D,1773295190254
NMEA,$GNDTM,W84,,0000.000000,N,00000.000000,E,0.000,W84*41,1773295190254
NMEA,$GNRMC,055949.00,A,1304.090663,N,07735.506448,E,0.0,,120326,1.1,W,A,V*6C,1773295190254
NMEA,$GNGNS,055949.00,1304.090663,N,07735.506448,E,AAAAAN,51,0.3,954.8,-85.8,,,V*07,1773295190254
NMEA,$GNGGA,055949.00,1304.090663,N,07735.506448,E,1,12,0.3,954.8,M,-85.8,M,,*5F,1773295190254
NMEA,$GPGSV,4,1,16,03,03,064,35,06,82,151,49,07,10,150,43,11,40,206,52,1*64,1773295191235
NMEA,$GPGSV,4,2,16,13,25,240,43,14,43,063,43,17,33,019,46,19,47,344,50,1*60,1773295191235
NMEA,$GPGSV,4,3,16,20,16,245,38,22,45,038,47,24,15,317,44,30,41,159,47,1*6F,1773295191235
