NMEA,$GPGSV,6,1,21,05,26,026,43,10,10,233,40,11,06,076,37,12,25,178,47,1*6E,1773231410573
NMEA,$GPGSV,6,2,21,13,35,076,42,15,65,110,48,18,22,316,48,20,44,073,39,1*66,1773231410573
NMEA,$GPGSV,6,3,21,21,03,039,41,23,40,255,52,24,13,158,40,25,40,222,51,1*64,1773231410573
NMEA,$GPGSV,6,4,21,29,61,355,51,26,02,308,,36,00,000,37,40,00,000,52,1*61,1773231410573
NMEA,$GPGSV,6,5,21,41,00,000,49,49,00,000,36,50,00,000,38,56,00,000,45,1*68,1773231410573
NMEA,$GPGSV,6,6,21,57,00,000,47,1*56,1773231410573
NMEA,$GLGSV,2,1,08,,00,000,37,,00,000,43,70,52,185,52,73,17,215,38,1*74,1773231410573
NMEA,$GLGSV,2,2,08,69,65,057,47,,00,000,48,83,28,060,41,68,17,030,48,1*74,1773231410573
NMEA,$GAGSV,3,1,10,04,26,181,46,10,23,307,45,12,33,332,43,16,30,298,48,7*72,1773231410573
NMEA,$GAGSV,3,2,10,18,38,326,50,19,46,113,38,23,23,170,46,29,22,061,42,7*7F,1773231410573
NMEA,$GAGSV,3,3,10,31,53,225,49,33,28,035,41,7*77,1773231410573
NMEA,$GQGSV,1,1,02,02,10,136,46,03,22,070,40,1*62,1773231410573
NMEA,$GBGSV,3,1,10,19,21,036,47,21,47,208,53,22,75,051,51,24,11,265,38,3*78,1773231410573
NMEA,$GBGSV,3,2,10,26,19,220,40,29,12,109,41,35,50,058,44,38,36,022,47,3*7A,1773231410573
NMEA,$GBGSV,3,3,10,40,41,118,50,44,40,347,50,3*78,1773231410573
NMEA,$GNGSA,A,3,05,10,11,12,13,15,18,20,23,24,25,29,0.7,0.4,0.6,1*35,1773231410578
NMEA,$GNGSA,A,3,68,69,70,73,83,,,,,,,,0.7,0.4,0.6,2*3E,1773231410578
NMEA,$GNGSA,A,3,04,10,12,16,18,19,23,29,31,33,,,0.7,0.4,0.6,3*3E,1773231410578
NMEA,$GNGSA,A,3,19,21,22,24,26,29,35,38,40,44,,,0.7,0.4,0.6,4*3A,1773231410578
NMEA,$GNGSA,A,3,02,03,,,,,,,,,,,0.7,0.4,0.6,5*31,1773231410578
NMEA,$GNVTG,,T,,M,0.0,N,0.0,K,A*3D,1773231410578
NMEA,$GNDTM,W84,,0000.000000,N,00000.000000,E,0.000,W84*41,1773231410578
NMEA,$GNRMC,121651.00,A,1304.090682,N,07735.506007,E,0.0,,110326,1.1,W,A,V*6B,1773231410578
NMEA,$GNGNS,121651.00,1304.090682,N,07735.506007,E,AAAAAN,39,0.4,960.6,-85.8,,,V*03,1773231410578
NMEA,$GNGGA,121651.00,1304.090682,N,07735.506007,E,1,12,0.4,960.6,M,-85.8,M,,*55,1773231410578
NMEA,$GPGSV,6,1,21,05,26,026,43,10,10,233,39,11,06,076,38,12,25,178,47,1*6F,1773231411573
NMEA,$GPGSV,6,2,21,13,35,076,42,15,65,110,48,18,22,316,49,20,44,073,39,1*67,1773231411573
NMEA,$GPGSV,6,3,21,21,03,039,41,23,40,255,52,24,13,158,39,25,40,222,51,1*6A,1773231411573
NMEA,$GPGSV,6,4,21,29,61,355,51,26,02,308,,36,00,000,37,40,00,000,52,1*61,1773231411573
NMEA,$GPGSV,6,5,21,41,00,000,49,49,00,000,36,50,00,000,38,56,00,000,45,1*68,1773231411573
NMEA,$GPGSV,6,6,21,57,00,000,47,1*56,1773231411573
NMEA,$GLGSV,2,1,08,,00,000,37,,00,000,43,70,52,185,52,73,17,215,38,1*74,1773231411573
NMEA,$GLGSV,2,2,08,69,65,057,47,,00,000,48,83,28,060,41,68,17,030,48,1*74,1773231411573
NMEA,$GAGSV,3,1,10,04,26,181,46,10,23,307,45,12,33,332,43,16,30,298,48,7*72,1773231411573
NMEA,$GAGSV,3,2,10,18,38,326,51,19,46,113,39,23,23,170,45,29,22,061,42,7*7C,1773231411573
NMEA,$GAGSV,3,3,10,31,53,225,48,33,28,035,40,7*77,1773231411573
NMEA,$GQGSV,1,1,02,02,10,136,46,03,22,070,38,1*6D,1773231411573
NMEA,$GBGSV,3,1,10,19,21,036,46,21,47,208,52,22,75,051,52,24,11,265,38,3*7B,1773231411573
NMEA,$GBGSV,3,2,10,26,19,220,40,29,12,109,42,35,50,058,44,38,36,022,47,3*79,1773231411573
NMEA,$GBGSV,3,3,10,40,41,118,49,44,40,347,50,3*70,1773231411573
NMEA,$GNGSA,A,3,05,10,11,12,13,15,18,20,23,24,25,29,0.7,0.4,0.6,1*35,1773231411577
NMEA,$GNGSA,A,3,68,69,70,73,83,,,,,,,,0.7,0.4,0.6,2*3E,1773231411577
NMEA,$GNGSA,A,3,04,10,12,16,18,19,23,29,31,33,,,0.7,0.4,0.6,3*3E,1773231411577
NMEA,$GNGSA,A,3,19,21,22,24,26,29,35,38,40,44,,,0.7,0.4,0.6,4*3A,1773231411577
NMEA,$GNGSA,A,3,02,03,,,,,,,,,,,0.7,0.4,0.6,5*31,1773231411577
NMEA,$GNVTG,,T,,M,0.0,N,0.0,K,A*3D,1773231411577
NMEA,$GNDTM,W84,,0000.000000,N,00000.000000,E,0.000,W84*41,1773231411577
NMEA,$GNRMC,121652.00,A,1304.090682,N,07735.506008,E,0.0,,110326,1.1,W,A,V*67,1773231411577
NMEA,$GNGNS,121652.00,1304.090682,N,07735.506008,E,AAAAAN,39,0.4,960.6,-85.8,,,V*0F,1773231411577
NMEA,$GNGGA,121652.00,1304.090682,N,07735.506008,E,1,12,0.4,960.6,M,-85.8,M,,*59,1773231411577
NMEA,$GPGSV,6,1,21,05,26,026,43,10,10,233,39,11,06,076,37,12,25,178,47,1*60,1773231412573
NMEA,$GPGSV,6,2,21,13,35,076,42,15,65,110,48,18,22,316,48,20,44,073,38,1*67,1773231412573
NMEA,$GPGSV,6,3,21,21,03,039,40,23,40,255,52,24,13,158,40,25,40,222,50,1*64,1773231412573
NMEA,$GPGSV,6,4,21,29,61,355,51,26,02,308,,36,00,000,37,40,00,000,51,1*62,1773231412573
NMEA,$GPGSV,6,5,21,41,00,000,49,49,00,000,36,50,00,000,38,56,00,000,45,1*68,1773231412573
NMEA,$GPGSV,6,6,21,57,00,000,47,1*56,1773231412573
NMEA,$GLGSV,2,1,08,,00,000,37,,00,000,43,70,52,185,52,73,17,215,38,1*74,1773231412573
NMEA,$GLGSV,2,2,08,69,65,057,47,,00,000,48,83,28,060,42,68,17,030,47,1*78,1773231412573
NMEA,$GAGSV,3,1,10,04,26,181,45,10,23,307,45,12,33,332,43,16,30,298,48,7*71,1773231412573
NMEA,$GAGSV,3,2,10,18,38,326,50,19,46,113,38,23,23,170,46,29,22,061,41,7*7C,1773231412573
NMEA,$GAGSV,3,3,10,31,53,225,49,33,28,035,40,7*76,1773231412573
NMEA,$GQGSV,1,1,02,02,10,136,46,03,22,070,39,1*6C,1773231412573
NMEA,$GBGSV,3,1,10,19,21,036,46,21,47,208,53,22,75,051,51,24,11,265,39,3*78,1773231412573
NMEA,$GBGSV,3,2,10,26,19,220,40,29,12,109,41,35,50,058,44,38,36,022,47,3*7A,1773231412573
NMEA,$GBGSV,3,3,10,40,41,118,50,44,40,347,50,3*78,1773231412573
NMEA,$GNGSA,A,3,05,10,11,12,13,15,18,20,23,24,25,29,0.7,0.4,0.6,1*35,1773231412580
NMEA,$GNGSA,A,3,68,69,70,73,83,,,,,,,,0.7,0.4,0.6,2*3E,1773231412580
NMEA,$GNGSA,A,3,04,10,12,16,18,19,23,29,31,33,,,0.7,0.4,0.6,3*3E,1773231412580
NMEA,$GNGSA,A,3,19,21,22,24,26,29,35,38,40,44,,,0.7,0.4,0.6,4*3A,1773231412580
NMEA,$GNGSA,A,3,02,03,,,,,,,,,,,0.7,0.4,0.6,5*31,1773231412580
NMEA,$GNVTG,,T,,M,0.0,N,0.0,K,A*3D,1773231412580
NMEA,$GNDTM,W84,,0000.000000,N,00000.000000,E,0.000,W84*41,1773231412580
NMEA,$GNRMC,121653.00,A,1304.090681,N,07735.506010,E,0.0,,110326,1.1,W,A,V*6C,1773231412580
NMEA,$GNGNS,121653.00,1304.090681,N,07735.506010,E,AAAAAN,39,0.4,960.6,-85.8,,,V*04,1773231412580
NMEA,$GNGGA,121653.00,1304.090681,N,07735.506010,E,1,12,0.4,960.6,M,-85.8,M,,*52,1773231412580
NMEA,$GPGSV,6,1,21,05,26,026,42,10,10,233,39,11,06,076,37,12,25,178,47,1*61,1773231413578
NMEA,$GPGSV,6,2,21,13,35,076,42,15,65,110,48,18,22,316,48,20,44,073,38,1*67,1773231413578
NMEA,$GPGSV,6,3,21,21,03,039,40,23,40,255,52,24,13,158,40,25,40,222,51,1*65,1773231413578
NMEA,$GPGSV,6,4,21,29,61,355,50,26,02,308,,36,00,000,37,40,00,000,52,1*60,1773231413578
NMEA,$GPGSV,6,5,21,41,00,000,49,49,00,000,36,50,00,000,38,56,00,000,45,1*68,1773231413578
NMEA,$GPGSV,6,6,21,57,00,000,47,1*56,1773231413578
NMEA,$GLGSV,2,1,08,,00,000,37,,00,000,43,70,52,185,52,73,17,215,37,1*7B,1773231413578
NMEA,$GLGSV,2,2,08,69,65,057,47,,00,000,48,83,28,060,42,68,17,030,48,1*77,1773231413578
NMEA,$GAGSV,3,1,10,04,26,181,46,10,23,307,45,12,33,332,44,16,30,298,48,7*75,1773231413578
NMEA,$GAGSV,3,2,10,18,38,326,51,19,46,113,39,23,23,170,46,29,22,061,42,7*7F,1773231413578
NMEA,$GAGSV,3,3,10,31,53,225,49,33,28,035,41,7*77,1773231413578
NMEA,$GQGSV,1,1,02,02,10,136,46,03,22,070,38,1*6D,1773231413578
NMEA,$GBGSV,3,1,10,19,21,036,46,21,47,208,53,22,75,051,51,24,11,265,38,3*79,1773231413578
NMEA,$GBGSV,3,2,10,26,19,220,41,29,12,109,41,35,50,058,44,38,36,022,47,3*7B,1773231413578
NMEA,$GBGSV,3,3,10,40,41,118,49,44,40,347,49,3*78,1773231413578
NMEA,$GNGSA,A,3,05,10,11,12,13,15,18,20,23,24,25,29,0.7,0.4,0.6,1*35,1773231413586
NMEA,$GNGSA,A,3,68,69,70,73,83,,,,,,,,0.7,0.4,0.6,2*3E,1773231413586
NMEA,$GNGSA,A,3,04,10,12,16,18,19,23,29,31,33,,,0.7,0.4,0.6,3*3E,1773231413586
NMEA,$GNGSA,A,3,19,21,22,24,26,29,35,38,40,44,,,0.7,0.4,0.6,4*3A,1773231413586
NMEA,$GNGSA,A,3,02,03,,,,,,,,,,,0.7,0.4,0.6,5*31,1773231413586
NMEA,$GNVTG,,T,,M,0.0,N,0.0,K,A*3D,1773231413586
NMEA,$GNDTM,W84,,0000.000000,N,00000.000000,E,0.000,W84*41,1773231413586
NMEA,$GNRMC,121654.00,A,1304.090681,N,07735.506011,E,0.0,,110326,1.1,W,A,V*6A,1773231413586
NMEA,$GNGNS,121654.00,1304.090681,N,07735.506011,E,AAAAAN,39,0.4,960.6,-85.8,,,V*02,1773231413586
NMEA,$GNGGA,121654.00,1304.090681,N,07735.506011,E,1,12,0.4,960.6,M,-85.8,M,,*54,1773231413586
NMEA,$GPGSV,6,1,21,05,26,026,43,10,10,233,39,11,06,076,37,12,25,178,48,1*6F,1773231414575
NMEA,$GPGSV,6,2,21,13,35,076,42,15,65,110,49,18,22,316,49,20,44,073,38,1*67,1773231414575
NMEA,$GPGSV,6,3,21,21,03,039,40,23,40,255,52,24,13,158,40,25,40,222,51,1*65,1773231414575
NMEA,$GPGSV,6,4,21,29,61,355,50,26,02,308,,36,00,000,37,40,00,000,52,1*60,1773231414575
NMEA,$GPGSV,6,5,21,41,00,000,49,49,00,000,36,50,00,000,38,56,00,000,45,1*68,1773231414575
NMEA,$GPGSV,6,6,21,57,00,000,47,1*56,1773231414575
NMEA,$GLGSV,2,1,08,,00,000,37,,00,000,43,70,52,185,52,73,17,215,37,1*7B,1773231414575
NMEA,$GLGSV,2,2,08,69,65,057,47,,00,000,48,83,28,060,41,68,17,030,48,1*74,1773231414575
NMEA,$GAGSV,3,1,10,04,26,181,45,10,23,307,45,12,33,332,43,16,30,298,48,7*71,1773231414575
NMEA,$GAGSV,3,2,10,18,38,326,51,19,46,113,39,23,23,170,46,29,22,061,42,7*7F,1773231414575
NMEA,$GAGSV,3,3,10,31,53,225,49,33,28,035,40,7*76,1773231414575
NMEA,$GQGSV,1,1,02,02,10,136,46,03,22,070,39,1*6C,1773231414575
NMEA,$GBGSV,3,1,10,19,21,036,46,21,47,208,53,22,75,051,51,24,11,265,37,3*76,1773231414575
NMEA,$GBGSV,3,2,10,26,19,220,41,29,12,109,41,35,50,058,45,38,36,022,46,3*7B,1773231414575
NMEA,$GBGSV,3,3,10,40,41,118,49,44,40,347,50,3*70,1773231414575
NMEA,$GNGSA,A,3,05,10,11,12,13,15,18,20,23,24,25,29,0.7,0.4,0.6,1*35,1773231414580
NMEA,$GNGSA,A,3,68,69,70,73,83,,,,,,,,0.7,0.4,0.6,2*3E,1773231414580
NMEA,$GNGSA,A,3,04,10,12,16,18,19,23,29,31,33,,,0.7,0.4,0.6,3*3E,1773231414580
NMEA,$GNGSA,A,3,19,21,22,24,26,29,35,38,40,44,,,0.7,0.4,0.6,4*3A,1773231414580
NMEA,$GNGSA,A,3,02,03,,,,,,,,,,,0.7,0.4,0.6,5*31,1773231414580
NMEA,$GNVTG,,T,,M,0.0,N,0.0,K,A*3D,1773231414580
NMEA,$GNDTM,W84,,0000.000000,N,00000.000000,E,0.000,W84*41,1773231414580
NMEA,$GNRMC,121655.00,A,1304.090681,N,07735.506012,E,0.0,,110326,1.1,W,A,V*68,1773231414580
NMEA,$GNGNS,121655.00,1304.090681,N,07735.506012,E,AAAAAN,39,0.4,960.6,-85.8,,,V*00,1773231414580
NMEA,$GNGGA,121655.00,1304.090681,N,07735.506012,E,1,12,0.4,960.6,M,-85.8,M,,*56,1773231414580
NMEA,$GPGSV,6,1,21,05,26,026,42,10,10,233,39,11,06,076,37,12,25,178,47,1*61,1773231415577
NMEA,$GPGSV,6,2,21,13,35,076,43,15,65,110,49,18,22,316,48,20,44,073,39,1*66,1773231415577
NMEA,$GPGSV,6,3,21,21,03,039,40,23,40,255,52,24,13,158,40,25,40,222,50,1*64,1773231415577
NMEA,$GPGSV,6,4,21,29,61,355,51,26,02,308,,36,00,000,37,40,00,000,51,1*62,1773231415577
NMEA,$GPGSV,6,5,21,41,00,000,48,49,00,000,36,50,00,000,38,56,00,000,45,1*69,1773231415577
NMEA,$GPGSV,6,6,21,57,00,000,47,1*56,1773231415577
NMEA,$GLGSV,2,1,08,,00,000,37,,00,000,43,70,52,185,52,73,17,215,38,1*74,1773231415577
NMEA,$GLGSV,2,2,08,69,65,057,47,,00,000,48,83,28,060,41,68,17,030,48,1*74,1773231415577
NMEA,$GAGSV,3,1,10,04,26,181,46,10,23,307,45,12,33,332,43,16,30,298,49,7*73,1773231415577
NMEA,$GAGSV,3,2,10,18,38,326,50,19,46,113,38,23,23,170,46,29,22,061,41,7*7C,1773231415577
NMEA,$GAGSV,3,3,10,31,53,225,49,33,28,035,41,7*77,1773231415577
NMEA,$GQGSV,1,1,02,02,10,136,46,03,22,070,39,1*6C,1773231415577
NMEA,$GBGSV,3,1,10,19,21,036,46,21,47,208,53,22,75,051,51,24,11,265,39,3*78,1773231415577
NMEA,$GBGSV,3,2,10,26,19,220,41,29,12,109,42,35,50,058,44,38,36,022,47,3*78,1773231415577
NMEA,$GBGSV,3,3,10,40,41,118,50,44,40,347,50,3*78,1773231415577
NMEA,$GNGSA,A,3,05,10,11,12,13,15,18,20,23,24,25,29,0.7,0.4,0.6,1*35,1773231415583
NMEA,$GNGSA,A,3,68,69,70,73,83,,,,,,,,0.7,0.4,0.6,2*3E,1773231415583
NMEA,$GNGSA,A,3,04,10,12,16,18,19,23,29,31,33,,,0.7,0.4,0.6,3*3E,1773231415583
NMEA,$GNGSA,A,3,19,21,22,24,26,29,35,38,40,44,,,0.7,0.4,0.6,4*3A,1773231415583
NMEA,$GNGSA,A,3,02,03,,,,,,,,,,,0.7,0.4,0.6,5*31,1773231415583
NMEA,$GNVTG,,T,,M,0.0,N,0.0,K,A*3D,1773231415583
NMEA,$GNDTM,W84,,0000.000000,N,00000.000000,E,0.000,W84*41,1773231415583
NMEA,$GNRMC,121656.00,A,1304.090686,N,07735.506003,E,0.0,,110326,1.1,W,A,V*6C,1773231415583
NMEA,$GNGNS,121656.00,1304.090686,N,07735.506003,E,AAAAAN,39,0.4,960.6,-85.8,,,V*04,1773231415583
NMEA,$GNGGA,121656.00,1304.090686,N,07735.506003,E,1,12,0.4,960.6,M,-85.8,M,,*52,1773231415583
NMEA,$GPGSV,6,1,21,05,26,026,42,10,10,233,39,11,06,076,38,12,25,178,46,1*6F,1773231416574
NMEA,$GPGSV,6,2,21,13,35,076,43,15,65,110,48,18,22,316,48,20,44,073,38,1*66,1773231416574
NMEA,$GPGSV,6,3,21,21,03,039,40,23,40,255,52,24,13,158,40,25,40,222,51,1*65,1773231416574
NMEA,$GPGSV,6,4,21,29,61,355,51,26,02,308,,36,00,000,37,40,00,000,51,1*62,1773231416574
NMEA,$GPGSV,6,5,21,41,00,000,49,49,00,000,36,50,00,000,38,56,00,000,45,1*68,1773231416574
NMEA,$GPGSV,6,6,21,57,00,000,47,1*56,1773231416574
NMEA,$GLGSV,2,1,08,,00,000,37,,00,000,43,70,52,185,52,73,17,215,38,1*74,1773231416574
NMEA,$GLGSV,2,2,08,69,65,057,47,,00,000,48,83,28,060,42,68,17,030,48,1*77,1773231416574
NMEA,$GAGSV,3,1,10,04,26,181,46,10,23,307,44,12,33,332,43,16,30,298,48,7*73,1773231416574
NMEA,$GAGSV,3,2,10,18,38,326,50,19,46,113,39,23,23,170,46,29,22,061,41,7*7D,1773231416574
NMEA,$GAGSV,3,3,10,31,53,225,49,33,28,035,41,7*77,1773231416574
NMEA,$GQGSV,1,1,02,02,10,136,46,03,22,070,38,1*6D,1773231416574
NMEA,$GBGSV,3,1,10,19,21,036,46,21,47,208,53,22,75,051,52,24,11,265,37,3*75,1773231416574
NMEA,$GBGSV,3,2,10,26,19,220,40,29,12,109,42,35,50,058,44,38,36,022,47,3*79,1773231416574
NMEA,$GBGSV,3,3,10,40,41,118,50,44,40,347,50,3*78,1773231416574
NMEA,$GNGSA,A,3,05,10,11,12,13,15,18,20,23,24,25,29,0.7,0.4,0.6,1*35,1773231416580
NMEA,$GNGSA,A,3,68,69,70,73,83,,,,,,,,0.7,0.4,0.6,2*3E,1773231416580
NMEA,$GNGSA,A,3,04,10,12,16,18,19,23,29,31,33,,,0.7,0.4,0.6,3*3E,1773231416580
NMEA,$GNGSA,A,3,19,21,22,24,26,29,35,38,40,44,,,0.7,0.4,0.6,4*3A,1773231416580
NMEA,$GNGSA,A,3,02,03,,,,,,,,,,,0.7,0.4,0.6,5*31,1773231416580
NMEA,$GNVTG,,T,,M,0.0,N,0.0,K,A*3D,1773231416580
NMEA,$GNDTM,W84,,0000.000000,N,00000.000000,E,0.000,W84*41,1773231416580
NMEA,$GNRMC,121657.00,A,1304.090686,N,07735.506004,E,0.0,,110326,1.1,W,A,V*6A,1773231416580
NMEA,$GNGNS,121657.00,1304.090686,N,07735.506004,E,AAAAAN,39,0.4,960.6,-85.8,,,V*02,1773231416580
NMEA,$GNGGA,121657.00,1304.090686,N,07735.506004,E,1,12,0.4,960.6,M,-85.8,M,,*54,1773231416580
NMEA,$GPGSV,5,1,20,05,26,026,43,10,10,233,39,11,06,076,37,12,25,178,47,1*62,1773231417577
NMEA,$GPGSV,5,2,20,13,35,076,43,15,65,110,48,18,22,316,48,20,44,073,38,1*64,1773231417577
NMEA,$GPGSV,5,3,20,21,03,039,40,23,40,255,52,24,13,158,40,25,40,222,51,1*67,1773231417577
NMEA,$GPGSV,5,4,20,29,61,355,51,26,02,308,,36,00,000,37,40,00,000,51,1*60,1773231417577
NMEA,$GPGSV,5,5,20,41,00,000,49,50,00,000,38,56,00,000,45,57,00,000,47,1*63,1773231417577
NMEA,$GLGSV,2,1,08,,00,000,37,,00,000,43,70,52,185,52,73,17,215,38,1*74,1773231417577
NMEA,$GLGSV,2,2,08,69,65,057,47,,00,000,48,83,28,060,42,68,17,030,48,1*77,1773231417577
NMEA,$GAGSV,3,1,10,04,26,181,45,10,23,307,45,12,33,332,43,16,30,298,48,7*71,1773231417577
NMEA,$GAGSV,3,2,10,18,38,326,50,19,46,113,38,23,23,170,46,29,22,061,42,7*7F,1773231417577
NMEA,$GAGSV,3,3,10,31,53,225,49,33,28,035,41,7*77,1773231417577
NMEA,$GQGSV,1,1,02,02,10,136,46,03,22,070,39,1*6C,1773231417577
NMEA,$GBGSV,3,1,10,19,21,036,46,21,47,208,53,22,75,051,52,24,11,265,37,3*75,1773231417577
NMEA,$GBGSV,3,2,10,26,19,220,40,29,12,109,42,35,50,058,44,38,36,022,47,3*79,1773231417577
NMEA,$GBGSV,3,3,10,40,41,118,50,44,40,347,50,3*78,1773231417577
NMEA,$GNGSA,A,3,05,10,11,12,13,15,18,20,23,24,25,29,0.7,0.4,0.6,1*35,1773231417583
NMEA,$GNGSA,A,3,68,69,70,73,83,,,,,,,,0.7,0.4,0.6,2*3E,1773231417583
NMEA,$GNGSA,A,3,04,10,12,16,18,19,23,29,31,33,,,0.7,0.4,0.6,3*3E,1773231417583
NMEA,$GNGSA,A,3,19,21,22,24,26,29,35,38,40,44,,,0.7,0.4,0.6,4*3A,1773231417583
NMEA,$GNGSA,A,3,02,03,,,,,,,,,,,0.7,0.4,0.6,5*31,1773231417583
NMEA,$GNVTG,,T,,M,0.0,N,0.0,K,A*3D,1773231417583
NMEA,$GNDTM,W84,,0000.000000,N,00000.000000,E,0.000,W84*41,1773231417583
NMEA,$GNRMC,121658.00,A,1304.090685,N,07735.506004,E,0.0,,110326,1.1,W,A,V*66,1773231417583
NMEA,$GNGNS,121658.00,1304.090685,N,07735.506004,E,AAAAAN,39,0.4,960.6,-85.8,,,V*0E,1773231417583
NMEA,$GNGGA,121658.00,1304.090685,N,07735.506004,E,1,12,0.4,960.6,M,-85.8,M,,*58,1773231417583
NMEA,$GPGSV,5,1,19,05,26,026,42,10,10,233,39,11,06,076,38,12,25,178,47,1*66,1773231418576
NMEA,$GPGSV,5,2,19,13,35,076,42,15,65,110,49,18,22,316,48,20,44,073,37,1*61,1773231418576
NMEA,$GPGSV,5,3,19,21,03,039,40,23,40,255,52,24,13,158,39,25,40,222,51,1*63,1773231418576
NMEA,$GPGSV,5,4,19,29,61,355,50,26,02,308,,36,00,000,37,40,00,000,51,1*6B,1773231418576
NMEA,$GPGSV,5,5,19,41,00,000,50,56,00,000,45,57,00,000,47,1*5F,1773231418576
NMEA,$GLGSV,2,1,08,,00,000,37,,00,000,43,70,52,185,52,73,17,215,39,1*75,1773231418576
NMEA,$GLGSV,2,2,08,69,65,057,48,,00,000,48,83,28,060,42,68,17,030,48,1*78,1773231418576
NMEA,$GAGSV,3,1,10,04,26,181,45,10,23,307,45,12,33,332,43,16,30,298,48,7*71,1773231418576
NMEA,$GAGSV,3,2,10,18,38,326,50,19,46,113,38,23,23,170,46,29,22,061,41,7*7C,1773231418576
NMEA,$GAGSV,3,3,10,31,53,225,49,33,28,035,41,7*77,1773231418576
NMEA,$GQGSV,1,1,02,02,10,136,46,03,22,070,39,1*6C,1773231418576
NMEA,$GBGSV,3,1,10,19,21,036,46,21,47,208,53,22,75,051,52,24,11,265,37,3*75,1773231418576
NMEA,$GBGSV,3,2,10,26,19,220,41,29,12,109,42,35,50,058,44,38,36,022,47,3*78,1773231418576
NMEA,$GBGSV,3,3,10,40,41,118,50,44,40,347,50,3*78,1773231418576
NMEA,$GNGSA,A,3,05,10,11,12,13,15,18,20,23,24,25,29,0.7,0.4,0.6,1*35,1773231418582
NMEA,$GNGSA,A,3,68,69,70,73,83,,,,,,,,0.7,0.4,0.6,2*3E,1773231418582
NMEA,$GNGSA,A,3,04,10,12,16,18,19,23,29,31,33,,,0.7,0.4,0.6,3*3E,1773231418582
NMEA,$GNGSA,A,3,19,21,22,24,26,29,35,38,40,44,,,0.7,0.4,0.6,4*3A,1773231418582
NMEA,$GNGSA,A,3,02,03,,,,,,,,,,,0.7,0.4,0.6,5*31,1773231418582
NMEA,$GNVTG,,T,,M,0.0,N,0.0,K,A*3D,1773231418582
NMEA,$GNDTM,W84,,0000.000000,N,00000.000000,E,0.000,W84*41,1773231418582
NMEA,$GNRMC,121659.00,A,1304.090686,N,07735.506006,E,0.0,,110326,1.1,W,A,V*66,1773231418582
NMEA,$GNGNS,121659.00,1304.090686,N,07735.506006,E,AAAAAN,39,0.4,960.6,-85.8,,,V*0E,1773231418582
NMEA,$GNGGA,121659.00,1304.090686,N,07735.506006,E,1,12,0.4,960.6,M,-85.8,M,,*58,1773231418582
NMEA,$GPGSV,5,1,18,05,26,026,42,10,10,233,38,11,06,076,38,12,25,178,47,1*66,1773231419578
NMEA,$GPGSV,5,2,18,13,35,076,43,15,65,110,49,18,22,316,48,20,44,073,38,1*6E,1773231419578
NMEA,$GPGSV,5,3,18,21,03,039,39,23,40,255,52,24,13,158,40,25,40,222,50,1*63,1773231419578
NMEA,$GPGSV,5,4,18,29,61,355,50,26,02,308,,36,00,000,37,40,00,000,51,1*6A,1773231419578
NMEA,$GPGSV,5,5,18,41,00,000,49,57,00,000,47,1*64,1773231419578
NMEA,$GLGSV,2,1,08,,00,000,37,,00,000,43,70,52,185,53,73,17,215,38,1*75,1773231419578
NMEA,$GLGSV,2,2,08,69,65,057,47,,00,000,48,83,28,060,42,68,17,030,48,1*77,1773231419578
NMEA,$GAGSV,3,1,10,04,26,181,46,10,23,307,44,12,33,332,44,16,30,298,49,7*75,1773231419578
NMEA,$GAGSV,3,2,10,18,38,326,51,19,46,113,39,23,23,170,46,29,22,061,41,7*7C,1773231419578
NMEA,$GAGSV,3,3,10,31,53,225,49,33,28,035,41,7*77,1773231419578
NMEA,$GQGSV,1,1,02,02,10,136,46,03,22,070,39,1*6C,1773231419578
NMEA,$GBGSV,3,1,10,19,21,036,46,21,47,208,53,22,75,051,52,24,11,265,38,3*7A,1773231419578
NMEA,$GBGSV,3,2,10,26,19,220,40,29,12,109,42,35,50,058,44,38,36,022,47,3*79,1773231419578
NMEA,$GBGSV,3,3,10,40,41,118,50,44,40,347,50,3*78,1773231419578
NMEA,$GNGSA,A,3,05,10,11,12,13,15,18,20,23,24,25,29,0.7,0.4,0.6,1*35,1773231419583
NMEA,$GNGSA,A,3,68,69,70,73,83,,,,,,,,0.7,0.4,0.6,2*3E,1773231419583
NMEA,$GNGSA,A,3,04,10,12,16,18,19,23,29,31,33,,,0.7,0.4,0.6,3*3E,1773231419583
NMEA,$GNGSA,A,3,19,21,22,24,26,29,35,38,40,44,,,0.7,0.4,0.6,4*3A,1773231419583
NMEA,$GNGSA,A,3,02,03,,,,,,,,,,,0.7,0.4,0.6,5*31,1773231419583
NMEA,$GNVTG,,T,,M,0.0,N,0.0,K,A*3D,1773231419583
NMEA,$GNDTM,W84,,0000.000000,N,00000.000000,E,0.000,W84*41,1773231419583
NMEA,$GNRMC,121700.00,A,1304.090686,N,07735.506007,E,0.0,,110326,1.1,W,A,V*6A,1773231419583
NMEA,$GNGNS,121700.00,1304.090686,N,07735.506007,E,AAAAAN,39,0.4,960.6,-85.8,,,V*02,1773231419583
NMEA,$GNGGA,121700.00,1304.090686,N,07735.506007,E,1,12,0.4,960.6,M,-85.8,M,,*54,1773231419583
NMEA,$GPGSV,5,1,17,05,26,026,43,10,10,233,39,11,06,076,38,12,25,178,47,1*69,1773231420574
NMEA,$GPGSV,5,2,17,13,35,076,43,15,65,110,49,18,22,316,49,20,44,073,37,1*6F,1773231420574
NMEA,$GPGSV,5,3,17,21,03,039,39,23,40,255,52,24,13,158,41,25,40,222,51,1*6C,1773231420574
NMEA,$GPGSV,5,4,17,29,61,355,51,26,02,308,,36,00,000,37,40,00,000,51,1*64,1773231420574
NMEA,$GPGSV,5,5,17,41,00,000,49,1*5A,1773231420574
NMEA,$GLGSV,2,1,08,,00,000,37,,00,000,43,70,52,185,53,73,17,215,39,1*74,1773231420574
NMEA,$GLGSV,2,2,08,69,65,057,47,,00,000,48,83,28,060,42,68,17,030,48,1*77,1773231420574
NMEA,$GAGSV,3,1,10,04,26,181,46,10,23,307,45,12,33,332,43,16,30,298,49,7*73,1773231420574
NMEA,$GAGSV,3,2,10,18,38,326,51,19,46,113,38,23,23,170,46,29,22,061,41,7*7D,1773231420574
NMEA,$GAGSV,3,3,10,31,53,225,49,33,28,035,41,7*77,1773231420574
NMEA,$GQGSV,1,1,02,02,10,136,46,03,22,070,39,1*6C,1773231420574
NMEA,$GBGSV,3,1,10,19,21,036,46,21,47,208,52,22,75,051,51,24,11,265,37,3*77,1773231420574
NMEA,$GBGSV,3,2,10,26,19,220,40,29,12,109,42,35,50,058,44,38,36,022,47,3*79,1773231420574
NMEA,$GBGSV,3,3,10,40,41,118,50,44,40,347,50,3*78,1773231420574
NMEA,$GNGSA,A,3,05,10,11,12,13,15,18,20,23,24,25,29,0.7,0.4,0.6,1*35,1773231420579
NMEA,$GNGSA,A,3,68,69,70,73,83,,,,,,,,0.7,0.4,0.6,2*3E,1773231420579
NMEA,$GNGSA,A,3,04,10,12,16,18,19,23,29,31,33,,,0.7,0.4,0.6,3*3E,1773231420579
NMEA,$GNGSA,A,3,19,21,22,24,26,29,35,38,40,44,,,0.7,0.4,0.6,4*3A,1773231420579
NMEA,$GNGSA,A,3,02,03,,,,,,,,,,,0.7,0.4,0.6,5*31,1773231420579
NMEA,$GNVTG,,T,,M,0.0,N,0.0,K,A*3D,1773231420579
NMEA,$GNDTM,W84,,0000.000000,N,00000.000000,E,0.000,W84*41,1773231420579
NMEA,$GNRMC,121701.00,A,1304.090685,N,07735.506007,E,0.0,,110326,1.1,W,A,V*68,1773231420579
NMEA,$GNGNS,121701.00,1304.090685,N,07735.506007,E,AAAAAN,39,0.4,960.6,-85.8,,,V*00,1773231420579
NMEA,$GNGGA,121701.00,1304.090685,N,07735.506007,E,1,12,0.4,960.6,M,-85.8,M,,*56,1773231420579
NMEA,$GPGSV,5,1,17,05,26,026,42,10,10,233,38,11,06,076,37,12,25,178,47,1*66,1773231421578
NMEA,$GPGSV,5,2,17,13,35,076,43,15,65,110,49,18,22,316,49,20,44,073,37,1*6F,1773231421578
NMEA,$GPGSV,5,3,17,21,03,039,39,23,40,255,50,24,13,158,40,25,40,222,51,1*6F,1773231421578
NMEA,$GPGSV,5,4,17,29,61,355,50,26,02,308,,36,00,000,37,40,00,000,51,1*65,1773231421578
NMEA,$GPGSV,5,5,17,41,00,000,49,1*5A,1773231421578
NMEA,$GLGSV,2,1,08,,00,000,37,,00,000,43,70,52,185,52,73,17,215,39,1*75,1773231421578
NMEA,$GLGSV,2,2,08,69,65,057,47,,00,000,48,83,28,060,42,68,17,030,48,1*77,1773231421578
NMEA,$GAGSV,3,1,10,04,26,181,46,10,23,307,45,12,33,332,43,16,30,298,48,7*72,1773231421578
NMEA,$GAGSV,3,2,10,18,38,326,50,19,46,113,38,23,23,170,46,29,22,061,41,7*7C,1773231421578
NMEA,$GAGSV,3,3,10,31,53,225,49,33,28,035,41,7*77,1773231421578
NMEA,$GQGSV,1,1,02,02,10,136,46,03,22,070,39,1*6C,1773231421578
NMEA,$GBGSV,3,1,10,19,21,036,46,21,47,208,53,22,75,051,51,24,11,265,36,3*77,1773231421578
NMEA,$GBGSV,3,2,10,26,19,220,40,29,12,109,43,35,50,058,43,38,36,022,47,3*7F,1773231421578
NMEA,$GBGSV,3,3,10,40,41,118,49,44,40,347,50,3*70,1773231421578
NMEA,$GNGSA,A,3,05,10,11,12,13,15,18,20,23,24,25,29,0.7,0.4,0.6,1*35,1773231421584
NMEA,$GNGSA,A,3,68,69,70,73,83,,,,,,,,0.7,0.4,0.6,2*3E,1773231421584
NMEA,$GNGSA,A,3,04,10,12,16,18,19,23,29,31,33,,,0.7,0.4,0.6,3*3E,1773231421584
NMEA,$GNGSA,A,3,19,21,22,24,26,29,35,38,40,44,,,0.7,0.4,0.6,4*3A,1773231421584
NMEA,$GNGSA,A,3,02,03,,,,,,,,,,,0.7,0.4,0.6,5*31,1773231421584
NMEA,$GNVTG,,T,,M,0.0,N,0.0,K,A*3D,1773231421584
NMEA,$GNDTM,W84,,0000.000000,N,00000.000000,E,0.000,W84*41,1773231421584
NMEA,$GNRMC,121702.00,A,1304.090697,N,07735.506000,E,0.0,,110326,1.1,W,A,V*6F,1773231421584
NMEA,$GNGNS,121702.00,1304.090697,N,07735.506000,E,AAAAAN,39,0.4,960.6,-85.8,,,V*07,1773231421584
NMEA,$GNGGA,121702.00,1304.090697,N,07735.506000,E,1,12,0.4,960.6,M,-85.8,M,,*51,1773231421584
NMEA,$GPGSV,5,1,17,05,26,026,42,10,10,233,38,11,06,076,38,12,25,178,47,1*69,1773231422573
NMEA,$GPGSV,5,2,17,13,35,076,43,15,65,110,49,18,22,316,48,20,44,073,38,1*61,1773231422573
NMEA,$GPGSV,5,3,17,21,03,039,39,23,40,255,51,24,13,158,41,25,40,222,51,1*6F,1773231422573
NMEA,$GPGSV,5,4,17,29,61,355,50,26,02,308,,36,00,000,37,40,00,000,52,1*66,1773231422573
NMEA,$GPGSV,5,5,17,41,00,000,49,1*5A,1773231422573
NMEA,$GLGSV,2,1,08,,00,000,37,,00,000,43,70,52,185,53,73,17,215,38,1*75,1773231422573
NMEA,$GLGSV,2,2,08,69,65,057,47,,00,000,48,83,28,060,41,68,17,030,48,1*74,1773231422573
NMEA,$GAGSV,3,1,10,04,26,181,46,10,23,307,45,12,33,332,44,16,30,298,49,7*74,1773231422573
NMEA,$GAGSV,3,2,10,18,38,326,50,19,46,113,38,23,23,170,46,29,22,061,42,7*7F,1773231422573
NMEA,$GAGSV,3,3,10,31,53,225,49,33,28,035,41,7*77,1773231422573
NMEA,$GQGSV,1,1,02,02,10,136,46,03,22,070,38,1*6D,1773231422573
NMEA,$GBGSV,3,1,10,19,21,036,46,21,47,208,53,22,75,051,51,24,11,265,37,3*76,1773231422573
NMEA,$GBGSV,3,2,10,26,19,220,40,29,12,109,42,35,50,058,44,38,36,022,47,3*79,1773231422573
NMEA,$GBGSV,3,3,10,40,41,118,49,44,40,347,50,3*70,1773231422573
NMEA,$GNGSA,A,3,05,10,11,12,13,15,18,20,23,24,25,29,0.7,0.4,0.6,1*35,1773231422581
NMEA,$GNGSA,A,3,68,69,70,73,83,,,,,,,,0.7,0.4,0.6,2*3E,1773231422581
NMEA,$GNGSA,A,3,04,10,12,16,18,19,23,29,31,33,,,0.7,0.4,0.6,3*3E,1773231422581
NMEA,$GNGSA,A,3,19,21,22,24,26,29,35,38,40,44,,,0.7,0.4,0.6,4*3A,1773231422581
NMEA,$GNGSA,A,3,02,03,,,,,,,,,,,0.7,0.4,0.6,5*31,1773231422581
NMEA,$GNVTG,,T,,M,0.0,N,0.0,K,A*3D,1773231422581
NMEA,$GNDTM,W84,,0000.000000,N,00000.000000,E,0.000,W84*41,1773231422581
NMEA,$GNRMC,121703.00,A,1304.090696,N,07735.506000,E,0.0,,110326,1.1,W,A,V*6F,1773231422581
NMEA,$GNGNS,121703.00,1304.090696,N,07735.506000,E,AAAAAN,39,0.4,960.6,-85.8,,,V*07,1773231422581
NMEA,$GNGGA,121703.00,1304.090696,N,07735.506000,E,1,12,0.4,960.6,M,-85.8,M,,*51,1773231422581
NMEA,$GPGSV,5,1,17,05,26,026,42,10,10,233,38,11,06,076,38,12,25,178,47,1*69,1773231423577
NMEA,$GPGSV,5,2,17,13,35,076,43,15,65,110,49,18,22,316,48,20,44,073,37,1*6E,1773231423577
NMEA,$GPGSV,5,3,17,21,03,039,39,23,40,255,52,24,13,158,39,25,40,222,50,1*62,1773231423577
NMEA,$GPGSV,5,4,17,29,61,355,51,26,02,308,,36,00,000,37,40,00,000,52,1*67,1773231423577
NMEA,$GPGSV,5,5,17,41,00,000,49,1*5A,1773231423577
NMEA,$GLGSV,2,1,08,,00,000,37,,00,000,43,70,52,185,52,73,17,215,39,1*75,1773231423577
NMEA,$GLGSV,2,2,08,69,65,057,47,,00,000,48,83,28,060,42,68,17,030,48,1*77,1773231423577
NMEA,$GAGSV,3,1,10,04,26,181,45,10,23,307,45,12,33,332,43,16,30,298,48,7*71,1773231423577
NMEA,$GAGSV,3,2,10,18,38,326,50,19,46,113,38,23,23,170,46,29,22,061,41,7*7C,1773231423577
NMEA,$GAGSV,3,3,10,31,53,225,49,33,28,035,41,7*77,1773231423577
NMEA,$GQGSV,1,1,02,02,10,136,46,03,22,070,39,1*6C,1773231423577
NMEA,$GBGSV,3,1,10,19,21,036,47,21,47,208,53,22,75,051,52,24,11,265,36,3*75,1773231423577
NMEA,$GBGSV,3,2,10,26,19,220,40,29,12,109,42,35,50,058,44,38,36,022,47,3*79,1773231423577
NMEA,$GBGSV,3,3,10,40,41,118,49,44,40,347,50,3*70,1773231423577
NMEA,$GNGSA,A,3,05,10,11,12,13,15,18,20,23,24,25,29,0.7,0.4,0.6,1*35,1773231423584
NMEA,$GNGSA,A,3,68,69,70,73,83,,,,,,,,0.7,0.4,0.6,2*3E,1773231423584
NMEA,$GNGSA,A,3,04,10,12,16,18,19,23,29,31,33,,,0.7,0.4,0.6,3*3E,1773231423584
NMEA,$GNGSA,A,3,19,21,22,24,26,29,35,38,40,44,,,0.7,0.4,0.6,4*3A,1773231423584
NMEA,$GNGSA,A,3,02,03,,,,,,,,,,,0.7,0.4,0.6,5*31,1773231423584
NMEA,$GNVTG,,T,,M,0.0,N,0.0,K,A*3D,1773231423584
NMEA,$GNDTM,W84,,0000.000000,N,00000.000000,E,0.000,W84*41,1773231423584
NMEA,$GNRMC,121704.00,A,1304.090696,N,07735.506001,E,0.0,,110326,1.1,W,A,V*69,1773231423584
NMEA,$GNGNS,121704.00,1304.090696,N,07735.506001,E,AAAAAN,39,0.4,960.6,-85.8,,,V*01,1773231423584
NMEA,$GNGGA,121704.00,1304.090696,N,07735.506001,E,1,12,0.4,960.6,M,-85.8,M,,*57,1773231423584
NMEA,$GPGSV,5,1,17,05,26,026,42,10,10,233,38,11,06,076,38,12,25,178,47,1*69,1773231424574
NMEA,$GPGSV,5,2,17,13,35,076,43,15,65,110,49,18,22,316,49,20,44,073,37,1*6F,1773231424574
NMEA,$GPGSV,5,3,17,21,03,039,40,23,40,255,51,24,13,158,40,25,40,222,50,1*61,1773231424574
NMEA,$GPGSV,5,4,17,29,61,355,51,26,02,308,,36,00,000,37,40,00,000,51,1*64,1773231424574
NMEA,$GPGSV,5,5,17,41,00,000,49,1*5A,1773231424574
NMEA,$GLGSV,2,1,08,,00,000,37,,00,000,43,70,52,185,52,73,17,215,39,1*75,1773231424574
NMEA,$GLGSV,2,2,08,69,65,057,47,,00,000,48,83,28,060,42,68,17,030,48,1*77,1773231424574
NMEA,$GAGSV,3,1,10,04,26,181,46,10,23,307,45,12,33,332,44,16,30,298,49,7*74,1773231424574
NMEA,$GAGSV,3,2,10,18,38,326,50,19,46,113,39,23,23,170,46,29,22,061,42,7*7E,1773231424574
NMEA,$GAGSV,3,3,10,31,53,225,49,33,28,035,41,7*77,1773231424574
NMEA,$GQGSV,1,1,02,02,10,136,46,03,22,070,39,1*6C,1773231424574
NMEA,$GBGSV,3,1,10,19,21,036,46,21,47,208,53,22,75,051,51,24,11,265,37,3*76,1773231424574
NMEA,$GBGSV,3,2,10,26,19,220,40,29,12,109,42,35,50,058,44,38,36,022,47,3*79,1773231424574
NMEA,$GBGSV,3,3,10,40,41,118,50,44,40,347,50,3*78,1773231424574
NMEA,$GNGSA,A,3,05,10,11,12,13,15,18,20,23,24,25,29,0.7,0.4,0.6,1*35,1773231424581
NMEA,$GNGSA,A,3,68,69,70,73,83,,,,,,,,0.7,0.4,0.6,2*3E,1773231424581
NMEA,$GNGSA,A,3,04,10,12,16,18,19,23,29,31,33,,,0.7,0.4,0.6,3*3E,1773231424581
NMEA,$GNGSA,A,3,19,21,22,24,26,29,35,38,40,44,,,0.7,0.4,0.6,4*3A,1773231424581
NMEA,$GNGSA,A,3,02,03,,,,,,,,,,,0.7,0.4,0.6,5*31,1773231424581
NMEA,$GNVTG,,T,,M,0.0,N,0.0,K,A*3D,1773231424581
NMEA,$GNDTM,W84,,0000.000000,N,00000.000000,E,0.000,W84*41,1773231424581
NMEA,$GNRMC,121705.00,A,1304.090697,N,07735.506001,E,0.0,,110326,1.1,W,A,V*69,1773231424581
NMEA,$GNGNS,121705.00,1304.090697,N,07735.506001,E,AAAAAN,39,0.4,960.6,-85.8,,,V*01,1773231424581
NMEA,$GNGGA,121705.00,1304.090697,N,07735.506001,E,1,12,0.4,960.6,M,-85.8,M,,*57,1773231424581
NMEA,$GPGSV,5,1,17,05,26,026,42,10,10,233,38,11,06,076,39,12,25,178,46,1*69,1773231425580
NMEA,$GPGSV,5,2,17,13,35,076,43,15,65,110,49,18,22,316,49,20,44,073,36,1*6E,1773231425580
NMEA,$GPGSV,5,3,17,21,03,039,40,23,40,255,52,24,13,158,40,25,40,222,49,1*6A,1773231425580
NMEA,$GPGSV,5,4,17,29,61,355,50,26,02,308,,36,00,000,37,40,00,000,51,1*65,1773231425580
NMEA,$GPGSV,5,5,17,41,00,000,49,1*5A,1773231425580
NMEA,$GLGSV,2,1,08,,00,000,37,,00,000,43,70,52,185,53,73,17,215,39,1*74,1773231425580
NMEA,$GLGSV,2,2,08,69,65,057,47,,00,000,48,83,28,060,41,68,17,030,48,1*74,1773231425580
NMEA,$GAGSV,3,1,10,04,26,181,47,10,23,307,45,12,33,332,43,16,30,298,49,7*72,1773231425580
NMEA,$GAGSV,3,2,10,18,38,326,50,19,46,113,39,23,23,170,46,29,22,061,41,7*7D,1773231425580
NMEA,$GAGSV,3,3,10,31,53,225,49,33,28,035,41,7*77,1773231425580
NMEA,$GQGSV,1,1,02,02,10,136,46,03,22,070,39,1*6C,1773231425580
NMEA,$GBGSV,3,1,10,19,21,036,46,21,47,208,53,22,75,051,51,24,11,265,37,3*76,1773231425580
NMEA,$GBGSV,3,2,10,26,19,220,40,29,12,109,42,35,50,058,44,38,36,022,47,3*79,1773231425580
NMEA,$GBGSV,3,3,10,40,41,118,49,44,40,347,50,3*70,1773231425580
NMEA,$GNGSA,A,3,05,10,11,12,13,15,18,20,23,24,25,29,0.7,0.4,0.6,1*35,1773231425586
NMEA,$GNGSA,A,3,68,69,70,73,83,,,,,,,,0.7,0.4,0.6,2*3E,1773231425586
NMEA,$GNGSA,A,3,04,10,12,16,18,19,23,29,31,33,,,0.7,0.4,0.6,3*3E,1773231425586
NMEA,$GNGSA,A,3,19,21,22,24,26,29,35,38,40,44,,,0.7,0.4,0.6,4*3A,1773231425586
NMEA,$GNGSA,A,3,02,03,,,,,,,,,,,0.7,0.4,0.6,5*31,1773231425586
NMEA,$GNVTG,,T,,M,0.0,N,0.0,K,A*3D,1773231425586
NMEA,$GNDTM,W84,,0000.000000,N,00000.000000,E,0.000,W84*41,1773231425586
NMEA,$GNRMC,121706.00,A,1304.090697,N,07735.506002,E,0.0,,110326,1.1,W,A,V*69,1773231425586
NMEA,$GNGNS,121706.00,1304.090697,N,07735.506002,E,AAAAAN,39,0.4,960.6,-85.8,,,V*01,1773231425586
NMEA,$GNGGA,121706.00,1304.090697,N,07735.506002,E,1,12,0.4,960.6,M,-85.8,M,,*57,1773231425586
NMEA,$GPGSV,5,1,17,05,26,026,43,10,10,233,38,11,06,076,39,12,25,178,47,1*69,1773231426576
NMEA,$GPGSV,5,2,17,13,35,076,43,15,65,110,48,18,22,316,49,20,44,073,36,1*6F,1773231426576
NMEA,$GPGSV,5,3,17,21,03,039,39,23,40,255,52,24,13,158,40,25,40,222,50,1*6C,1773231426576
NMEA,$GPGSV,5,4,17,29,61,355,50,26,02,308,,36,00,000,37,40,00,000,52,1*66,1773231426576
NMEA,$GPGSV,5,5,17,41,00,000,49,1*5A,1773231426576
NMEA,$GLGSV,2,1,08,,00,000,37,,00,000,43,70,52,185,52,73,17,215,38,1*74,1773231426576
NMEA,$GLGSV,2,2,08,69,65,057,47,,00,000,48,83,28,060,41,68,17,030,48,1*74,1773231426576
NMEA,$GAGSV,3,1,10,04,26,181,45,10,23,307,45,12,33,332,44,16,30,298,49,7*77,1773231426576
NMEA,$GAGSV,3,2,10,18,38,326,51,19,46,113,38,23,23,170,46,29,22,061,41,7*7D,1773231426576
NMEA,$GAGSV,3,3,10,31,53,225,49,33,28,035,41,7*77,1773231426576
NMEA,$GQGSV,1,1,02,02,10,136,46,03,22,070,40,1*62,1773231426576
NMEA,$GBGSV,3,1,10,19,21,036,46,21,47,208,53,22,75,051,51,24,11,265,35,3*74,1773231426576
NMEA,$GBGSV,3,2,10,26,19,220,40,29,12,109,42,35,50,058,44,38,36,022,47,3*79,1773231426576
NMEA,$GBGSV,3,3,10,40,41,118,50,44,40,347,50,3*78,1773231426576
NMEA,$GNGSA,A,3,05,10,11,12,13,15,18,20,23,24,25,29,0.7,0.4,0.6,1*35,1773231426581
NMEA,$GNGSA,A,3,68,69,70,73,83,,,,,,,,0.7,0.4,0.6,2*3E,1773231426581
NMEA,$GNGSA,A,3,04,10,12,16,18,19,23,29,31,33,,,0.7,0.4,0.6,3*3E,1773231426581
NMEA,$GNGSA,A,3,19,21,22,24,26,29,35,38,40,44,,,0.7,0.4,0.6,4*3A,1773231426581
NMEA,$GNGSA,A,3,02,03,,,,,,,,,,,0.7,0.4,0.6,5*31,1773231426581
NMEA,$GNVTG,,T,,M,0.0,N,0.0,K,A*3D,1773231426581
NMEA,$GNDTM,W84,,0000.000000,N,00000.000000,E,0.000,W84*41,1773231426581
NMEA,$GNRMC,121707.00,A,1304.090700,N,07735.505995,E,0.0,,110326,1.1,W,A,V*63,1773231426581
NMEA,$GNGNS,121707.00,1304.090700,N,07735.505995,E,AAAAAN,39,0.4,960.6,-85.8,,,V*0B,1773231426581
NMEA,$GNGGA,121707.00,1304.090700,N,07735.505995,E,1,12,0.4,960.6,M,-85.8,M,,*5D,1773231426581
NMEA,$GPGSV,4,1,16,05,26,026,43,10,10,233,38,11,06,076,39,12,25,178,47,1*69,1773231427576
NMEA,$GPGSV,4,2,16,13,35,076,43,15,65,110,48,18,22,316,49,20,44,073,37,1*6E,1773231427576
NMEA,$GPGSV,4,3,16,21,03,039,39,23,40,255,52,24,13,158,40,25,40,222,50,1*6C,1773231427576
NMEA,$GPGSV,4,4,16,29,61,355,50,26,02,308,,40,00,000,52,41,00,000,49,1*6F,1773231427576
NMEA,$GLGSV,2,1,08,,00,000,37,,00,000,43,70,52,185,52,73,17,215,38,1*74,1773231427576
NMEA,$GLGSV,2,2,08,69,65,057,47,,00,000,48,83,28,060,41,68,17,030,48,1*74,1773231427576
NMEA,$GAGSV,3,1,10,04,26,181,45,10,23,307,45,12,33,332,44,16,30,298,49,7*77,1773231427576
NMEA,$GAGSV,3,2,10,18,38,326,50,19,46,113,38,23,23,170,46,29,22,061,42,7*7F,1773231427576
NMEA,$GAGSV,3,3,10,31,53,225,49,33,28,035,41,7*77,1773231427576
NMEA,$GQGSV,1,1,02,02,10,136,46,03,22,070,39,1*6C,1773231427576
NMEA,$GBGSV,3,1,10,19,21,036,46,21,47,208,53,22,75,051,51,24,11,265,36,3*77,1773231427576
NMEA,$GBGSV,3,2,10,26,19,220,39,29,12,109,42,35,50,058,43,38,36,022,47,3*70,1773231427576
NMEA,$GBGSV,3,3,10,40,41,118,49,44,40,347,50,3*70,1773231427576
NMEA,$GNGSA,A,3,05,10,11,12,13,15,18,20,23,24,25,29,0.7,0.4,0.6,1*35,1773231427584
NMEA,$GNGSA,A,3,68,69,70,73,83,,,,,,,,0.7,0.4,0.6,2*3E,1773231427584
NMEA,$GNGSA,A,3,04,10,12,16,18,19,23,29,31,33,,,0.7,0.4,0.6,3*3E,1773231427584
NMEA,$GNGSA,A,3,19,21,22,24,26,29,35,38,40,44,,,0.7,0.4,0.6,4*3A,1773231427584
NMEA,$GNGSA,A,3,02,03,,,,,,,,,,,0.7,0.4,0.6,5*31,1773231427584
NMEA,$GNVTG,,T,,M,0.0,N,0.0,K,A*3D,1773231427584
NMEA,$GNDTM,W84,,0000.000000,N,00000.000000,E,0.000,W84*41,1773231427584
NMEA,$GNRMC,121708.00,A,1304.090699,N,07735.505995,E,0.0,,110326,1.1,W,A,V*6D,1773231427584
NMEA,$GNGNS,121708.00,1304.090699,N,07735.505995,E,AAAAAN,39,0.4,960.6,-85.8,,,V*05,1773231427584
NMEA,$GNGGA,121708.00,1304.090699,N,07735.505995,E,1,12,0.4,960.6,M,-85.8,M,,*53,1773231427584
NMEA,$GPGSV,4,1,16,05,26,026,43,10,10,233,37,11,06,076,39,12,25,178,48,1*69,1773231428574
NMEA,$GPGSV,4,2,16,13,35,076,43,15,65,110,48,18,22,316,47,20,44,073,36,1*61,1773231428574
NMEA,$GPGSV,4,3,16,21,03,039,39,23,40,255,52,24,13,158,40,25,40,222,50,1*6C,1773231428574
NMEA,$GPGSV,4,4,16,29,61,355,50,26,02,308,,40,00,000,52,41,00,000,49,1*6F,1773231428574
NMEA,$GLGSV,2,1,08,,00,000,37,,00,000,43,70,52,185,53,73,17,215,38,1*75,1773231428574
NMEA,$GLGSV,2,2,08,69,65,057,47,,00,000,48,83,28,060,41,68,17,030,48,1*74,1773231428574
NMEA,$GAGSV,3,1,10,04,26,181,46,10,23,307,45,12,33,332,43,16,30,298,49,7*73,1773231428574
NMEA,$GAGSV,3,2,10,18,38,326,50,19,46,113,39,23,23,170,46,29,22,061,42,7*7E,1773231428574
NMEA,$GAGSV,3,3,10,31,53,225,49,33,28,035,41,7*77,1773231428574
NMEA,$GQGSV,1,1,02,02,10,136,46,03,22,070,39,1*6C,1773231428574
NMEA,$GBGSV,3,1,10,19,21,036,46,21,47,208,53,22,75,051,51,24,11,265,35,3*74,1773231428574
NMEA,$GBGSV,3,2,10,26,19,220,40,29,12,109,42,35,50,058,44,38,36,022,46,3*78,1773231428574
NMEA,$GBGSV,3,3,10,40,41,118,49,44,40,347,51,3*71,1773231428574
NMEA,$GNGSA,A,3,05,10,11,12,13,15,18,20,23,24,25,29,0.7,0.4,0.6,1*35,1773231428579
NMEA,$GNGSA,A,3,68,69,70,73,83,,,,,,,,0.7,0.4,0.6,2*3E,1773231428579
NMEA,$GNGSA,A,3,04,10,12,16,18,19,23,29,31,33,,,0.7,0.4,0.6,3*3E,1773231428579
NMEA,$GNGSA,A,3,19,21,22,24,26,29,35,38,40,44,,,0.7,0.4,0.6,4*3A,1773231428579
NMEA,$GNGSA,A,3,02,03,,,,,,,,,,,0.7,0.4,0.6,5*31,1773231428579
NMEA,$GNVTG,,T,,M,0.0,N,0.0,K,A*3D,1773231428579
NMEA,$GNDTM,W84,,0000.000000,N,00000.000000,E,0.000,W84*41,1773231428579
NMEA,$GNRMC,121709.00,A,1304.090699,N,07735.505995,E,0.0,,110326,1.1,W,A,V*6C,1773231428579
NMEA,$GNGNS,121709.00,1304.090699,N,07735.505995,E,AAAAAN,39,0.4,960.6,-85.8,,,V*04,1773231428579
NMEA,$GNGGA,121709.00,1304.090699,N,07735.505995,E,1,12,0.4,960.6,M,-85.8,M,,*52,1773231428579
NMEA,$GPGSV,4,1,16,05,26,026,43,10,10,233,38,11,06,076,38,12,25,178,47,1*68,1773231429574
NMEA,$GPGSV,4,2,16,13,35,076,43,15,65,110,49,18,22,316,49,20,44,073,37,1*6F,1773231429574
NMEA,$GPGSV,4,3,16,21,03,039,39,23,40,255,51,24,13,158,40,25,40,222,50,1*6F,1773231429574
NMEA,$GPGSV,4,4,16,29,61,355,51,26,02,308,,40,00,000,51,41,00,000,49,1*6D,1773231429574
NMEA,$GLGSV,2,1,08,,00,000,37,,00,000,43,70,52,185,52,73,17,215,39,1*75,1773231429574
NMEA,$GLGSV,2,2,08,69,65,057,47,,00,000,48,83,28,060,41,68,17,030,48,1*74,1773231429574
NMEA,$GAGSV,3,1,10,04,26,181,46,10,23,307,45,12,33,332,43,16,30,298,49,7*73,1773231429574
NMEA,$GAGSV,3,2,10,18,38,326,50,19,46,113,38,23,23,170,46,29,22,061,41,7*7C,1773231429574
NMEA,$GAGSV,3,3,10,31,53,225,49,33,28,035,41,7*77,1773231429574
NMEA,$GQGSV,1,1,02,02,10,136,46,03,22,070,39,1*6C,1773231429574
NMEA,$GBGSV,3,1,10,19,21,036,46,21,47,208,53,22,75,051,51,24,11,265,36,3*77,1773231429574
NMEA,$GBGSV,3,2,10,26,19,220,40,29,12,109,42,35,50,058,44,38,36,022,47,3*79,1773231429574
NMEA,$GBGSV,3,3,10,40,41,118,49,44,40,347,50,3*70,1773231429574
NMEA,$GNGSA,A,3,05,10,11,12,13,15,18,20,23,24,25,29,0.7,0.4,0.6,1*35,1773231429579
NMEA,$GNGSA,A,3,68,69,70,73,83,,,,,,,,0.7,0.4,0.6,2*3E,1773231429579
NMEA,$GNGSA,A,3,04,10,12,16,18,19,23,29,31,33,,,0.7,0.4,0.6,3*3E,1773231429579
NMEA,$GNGSA,A,3,19,21,22,24,26,29,35,38,40,44,,,0.7,0.4,0.6,4*3A,1773231429579
NMEA,$GNGSA,A,3,02,03,,,,,,,,,,,0.7,0.4,0.6,5*31,1773231429579
NMEA,$GNVTG,,T,,M,0.0,N,0.0,K,A*3D,1773231429579
NMEA,$GNDTM,W84,,0000.000000,N,00000.000000,E,0.000,W84*41,1773231429579
NMEA,$GNRMC,121710.00,A,1304.090699,N,07735.505995,E,0.0,,110326,1.1,W,A,V*64,1773231429579
NMEA,$GNGNS,121710.00,1304.090699,N,07735.505995,E,AAAAAN,39,0.4,960.6,-85.8,,,V*0C,1773231429579
NMEA,$GNGGA,121710.00,1304.090699,N,07735.505995,E,1,12,0.4,960.6,M,-85.8,M,,*5A,1773231429579
NMEA,$GPGSV,4,1,16,05,26,026,43,10,10,233,38,11,06,076,39,12,25,178,48,1*66,1773231430578
NMEA,$GPGSV,4,2,16,13,35,076,43,15,65,110,48,18,22,316,48,20,44,073,35,1*6D,1773231430578
NMEA,$GPGSV,4,3,16,21,03,039,39,23,40,255,51,24,13,158,41,25,40,222,50,1*6E,1773231430578
NMEA,$GPGSV,4,4,16,29,61,355,50,26,02,308,,40,00,000,51,41,00,000,49,1*6C,1773231430578
NMEA,$GLGSV,2,1,08,,00,000,37,,00,000,43,70,52,185,53,73,17,215,39,1*74,1773231430578
NMEA,$GLGSV,2,2,08,69,65,057,47,,00,000,48,83,28,060,41,68,17,030,48,1*74,1773231430578
NMEA,$GAGSV,3,1,10,04,26,181,46,10,23,307,45,12,33,332,43,16,30,298,49,7*73,1773231430578
NMEA,$GAGSV,3,2,10,18,38,326,50,19,46,113,39,23,23,170,46,29,22,061,42,7*7E,1773231430578
NMEA,$GAGSV,3,3,10,31,53,225,49,33,28,035,41,7*77,1773231430578
NMEA,$GQGSV,1,1,02,02,10,136,45,03,22,070,39,1*6F,1773231430578
NMEA,$GBGSV,3,1,10,19,21,036,46,21,47,208,53,22,75,051,51,24,11,265,36,3*77,1773231430578
NMEA,$GBGSV,3,2,10,26,19,220,41,29,12,109,42,35,50,058,43,38,36,022,46,3*7E,1773231430578
NMEA,$GBGSV,3,3,10,40,41,118,49,44,40,347,50,3*70,1773231430578
NMEA,$GNGSA,A,3,05,10,11,12,13,15,18,20,23,24,25,29,0.7,0.4,0.6,1*35,1773231430584
NMEA,$GNGSA,A,3,68,69,70,73,83,,,,,,,,0.7,0.4,0.6,2*3E,1773231430584
NMEA,$GNGSA,A,3,04,10,12,16,18,19,23,29,31,33,,,0.7,0.4,0.6,3*3E,1773231430584
NMEA,$GNGSA,A,3,19,21,22,24,26,29,35,38,40,44,,,0.7,0.4,0.6,4*3A,1773231430584
NMEA,$GNGSA,A,3,02,03,,,,,,,,,,,0.7,0.4,0.6,5*31,1773231430584
NMEA,$GNVTG,,T,,M,0.0,N,0.0,K,A*3D,1773231430584
NMEA,$GNDTM,W84,,0000.000000,N,00000.000000,E,0.000,W84*41,1773231430584
NMEA,$GNRMC,121711.00,A,1304.090699,N,07735.505995,E,0.0,,110326,1.1,W,A,V*65,1773231430584
NMEA,$GNGNS,121711.00,1304.090699,N,07735.505995,E,AAAAAN,39,0.4,960.6,-85.8,,,V*0D,1773231430584
NMEA,$GNGGA,121711.00,1304.090699,N,07735.505995,E,1,12,0.4,960.6,M,-85.8,M,,*5B,1773231430584
NMEA,$GPGSV,4,1,16,05,26,026,43,10,10,233,38,11,06,076,39,12,25,178,48,1*66,1773231431574
NMEA,$GPGSV,4,2,16,13,35,076,43,15,65,110,49,18,22,316,49,20,44,073,36,1*6E,1773231431574
NMEA,$GPGSV,4,3,16,21,03,039,39,23,40,255,51,24,13,158,40,25,40,222,50,1*6F,1773231431574
NMEA,$GPGSV,4,4,16,29,61,355,50,26,02,308,,40,00,000,52,41,00,000,49,1*6F,1773231431574
NMEA,$GLGSV,2,1,08,,00,000,37,,00,000,43,70,52,185,53,73,17,215,39,1*74,1773231431574
NMEA,$GLGSV,2,2,08,69,65,057,47,,00,000,48,83,28,060,41,68,17,030,48,1*74,1773231431574
NMEA,$GAGSV,3,1,10,04,26,181,46,10,23,307,45,12,33,332,44,16,30,298,49,7*74,1773231431574
NMEA,$GAGSV,3,2,10,18,38,326,50,19,46,113,38,23,23,170,46,29,22,061,42,7*7F,1773231431574
NMEA,$GAGSV,3,3,10,31,53,225,49,33,28,035,42,7*74,1773231431574
NMEA,$GQGSV,1,1,02,02,10,136,45,03,22,070,39,1*6F,1773231431574
NMEA,$GBGSV,3,1,10,19,21,036,46,21,47,208,53,22,75,051,51,24,11,265,35,3*74,1773231431574
NMEA,$GBGSV,3,2,10,26,19,220,41,29,12,109,42,35,50,058,43,38,36,022,46,3*7E,1773231431574
NMEA,$GBGSV,3,3,10,40,41,118,50,44,40,347,51,3*79,1773231431574
NMEA,$GNGSA,A,3,05,10,11,12,13,15,18,20,23,24,25,29,0.7,0.4,0.6,1*35,1773231431580
NMEA,$GNGSA,A,3,68,69,70,73,83,,,,,,,,0.7,0.4,0.6,2*3E,1773231431580
NMEA,$GNGSA,A,3,04,10,12,16,18,19,23,29,31,33,,,0.7,0.4,0.6,3*3E,1773231431580
NMEA,$GNGSA,A,3,19,21,22,24,26,29,35,38,40,44,,,0.7,0.4,0.6,4*3A,1773231431580
NMEA,$GNGSA,A,3,02,03,,,,,,,,,,,0.7,0.4,0.6,5*31,1773231431580
NMEA,$GNVTG,,T,,M,0.0,N,0.0,K,A*3D,1773231431580
NMEA,$GNDTM,W84,,0000.000000,N,00000.000000,E,0.000,W84*41,1773231431580
NMEA,$GNRMC,121712.00,A,1304.090699,N,07735.505995,E,0.0,,110326,1.1,W,A,V*66,1773231431580
NMEA,$GNGNS,121712.00,1304.090699,N,07735.505995,E,AAAAAN,39,0.4,960.6,-85.8,,,V*0E,1773231431580
NMEA,$GNGGA,121712.00,1304.090699,N,07735.505995,E,1,12,0.4,960.6,M,-85.8,M,,*58,1773231431580
NMEA,$GPGSV,4,1,16,05,26,026,43,10,10,233,38,11,06,076,39,12,25,178,47,1*69,1773231432578
NMEA,$GPGSV,4,2,16,13,35,076,43,15,65,110,49,18,22,316,49,20,44,073,37,1*6F,1773231432578
NMEA,$GPGSV,4,3,16,21,03,039,39,23,40,255,52,24,13,158,41,25,40,222,51,1*6C,1773231432578
NMEA,$GPGSV,4,4,16,29,61,355,50,26,02,308,,40,00,000,52,41,00,000,49,1*6F,1773231432578
NMEA,$GLGSV,2,1,08,,00,000,37,,00,000,43,70,52,185,52,73,17,215,39,1*75,1773231432578
NMEA,$GLGSV,2,2,08,69,65,057,48,,00,000,48,83,28,060,41,68,17,030,48,1*7B,1773231432578
NMEA,$GAGSV,3,1,10,04,26,181,46,10,23,307,44,12,33,332,43,16,30,298,49,7*72,1773231432578
NMEA,$GAGSV,3,2,10,18,38,326,50,19,46,113,38,23,23,170,46,29,22,061,41,7*7C,1773231432578
NMEA,$GAGSV,3,3,10,31,53,225,49,33,28,035,41,7*77,1773231432578
NMEA,$GQGSV,1,1,02,02,10,136,47,03,22,070,39,1*6D,1773231432578
NMEA,$GBGSV,3,1,10,19,21,036,46,21,47,208,53,22,75,051,51,24,11,265,35,3*74,1773231432578
NMEA,$GBGSV,3,2,10,26,19,220,40,29,12,109,42,35,50,058,43,38,36,022,47,3*7E,1773231432578
NMEA,$GBGSV,3,3,10,40,41,118,49,44,40,347,51,3*71,1773231432578
NMEA,$GNGSA,A,3,05,10,11,12,13,15,18,20,23,24,25,29,0.7,0.4,0.6,1*35,1773231432582
NMEA,$GNGSA,A,3,68,69,70,73,83,,,,,,,,0.7,0.4,0.6,2*3E,1773231432582
NMEA,$GNGSA,A,3,04,10,12,16,18,19,23,29,31,33,,,0.7,0.4,0.6,3*3E,1773231432582
NMEA,$GNGSA,A,3,19,21,22,24,26,29,35,38,40,44,,,0.7,0.4,0.6,4*3A,1773231432582
NMEA,$GNGSA,A,3,02,03,,,,,,,,,,,0.7,0.4,0.6,5*31,1773231432582
NMEA,$GNVTG,,T,,M,0.0,N,0.0,K,A*3D,1773231432582
NMEA,$GNDTM,W84,,0000.000000,N,00000.000000,E,0.000,W84*41,1773231432582
NMEA,$GNRMC,121713.00,A,1304.090702,N,07735.505989,E,0.0,,110326,1.1,W,A,V*69,1773231432582
NMEA,$GNGNS,121713.00,1304.090702,N,07735.505989,E,AAAAAN,39,0.4,960.6,-85.8,,,V*01,1773231432582
NMEA,$GNGGA,121713.00,1304.090702,N,07735.505989,E,1,12,0.4,960.6,M,-85.8,M,,*57,1773231432582
NMEA,$GPGSV,4,1,16,05,26,026,42,10,10,233,37,11,06,076,39,12,25,178,48,1*68,1773231433575
NMEA,$GPGSV,4,2,16,13,35,076,43,15,65,110,49,18,22,316,49,20,44,073,37,1*6F,1773231433575
NMEA,$GPGSV,4,3,16,21,03,039,39,23,40,255,51,24,13,158,40,25,40,222,50,1*6F,1773231433575
NMEA,$GPGSV,4,4,16,29,61,355,50,26,02,308,,40,00,000,52,41,00,000,49,1*6F,1773231433575
NMEA,$GLGSV,2,1,08,,00,000,37,,00,000,43,70,52,185,53,73,17,215,39,1*74,1773231433575
NMEA,$GLGSV,2,2,08,69,65,057,48,,00,000,48,83,28,060,41,68,17,030,47,1*74,1773231433575
NMEA,$GAGSV,3,1,10,04,26,181,46,10,23,307,45,12,33,332,44,16,30,298,49,7*74,1773231433575
NMEA,$GAGSV,3,2,10,18,38,326,51,19,46,113,39,23,23,170,46,29,22,061,42,7*7F,1773231433575
NMEA,$GAGSV,3,3,10,31,53,225,49,33,28,035,41,7*77,1773231433575
NMEA,$GQGSV,1,1,02,02,10,136,46,03,22,070,39,1*6C,1773231433575
NMEA,$GBGSV,3,1,10,19,21,036,46,21,47,208,53,22,75,051,51,24,11,265,35,3*74,1773231433575
NMEA,$GBGSV,3,2,10,26,19,220,40,29,12,109,42,35,50,058,43,38,36,022,47,3*7E,1773231433575
NMEA,$GBGSV,3,3,10,40,41,118,49,44,40,347,50,3*70,1773231433575
NMEA,$GNGSA,A,3,05,10,11,12,13,15,18,20,23,24,25,29,0.7,0.4,0.6,1*35,1773231433583
NMEA,$GNGSA,A,3,68,69,70,73,83,,,,,,,,0.7,0.4,0.6,2*3E,1773231433583
NMEA,$GNGSA,A,3,04,10,12,16,18,19,23,29,31,33,,,0.7,0.4,0.6,3*3E,1773231433583
NMEA,$GNGSA,A,3,19,21,22,24,26,29,35,38,40,44,,,0.7,0.4,0.6,4*3A,1773231433583
NMEA,$GNGSA,A,3,02,03,,,,,,,,,,,0.7,0.4,0.6,5*31,1773231433583
NMEA,$GNVTG,,T,,M,0.0,N,0.0,K,A*3D,1773231433583
NMEA,$GNDTM,W84,,0000.000000,N,00000.000000,E,0.000,W84*41,1773231433583
NMEA,$GNRMC,121714.00,A,1304.090702,N,07735.505988,E,0.0,,110326,1.1,W,A,V*6F,1773231433583
NMEA,$GNGNS,121714.00,1304.090702,N,07735.505988,E,AAAAAN,39,0.4,960.6,-85.8,,,V*07,1773231433583
NMEA,$GNGGA,121714.00,1304.090702,N,07735.505988,E,1,12,0.4,960.6,M,-85.8,M,,*51,1773231433583
NMEA,$GPGSV,4,1,16,05,26,026,43,10,10,233,37,11,06,076,39,12,25,178,47,1*66,1773231434576
NMEA,$GPGSV,4,2,16,13,35,076,43,15,65,110,49,18,22,316,48,20,44,073,35,1*6C,1773231434576
NMEA,$GPGSV,4,3,16,21,03,039,40,23,40,255,51,24,13,158,41,25,40,222,51,1*61,1773231434576
NMEA,$GPGSV,4,4,16,29,61,355,50,26,02,308,,40,00,000,52,41,00,000,49,1*6F,1773231434576
NMEA,$GLGSV,2,1,08,,00,000,37,,00,000,43,70,52,185,53,73,17,215,39,1*74,1773231434576
NMEA,$GLGSV,2,2,08,69,65,057,48,,00,000,48,83,28,060,41,68,17,030,48,1*7B,1773231434576
NMEA,$GAGSV,3,1,10,04,26,181,46,10,23,307,45,12,33,332,43,16,30,298,49,7*73,1773231434576
NMEA,$GAGSV,3,2,10,18,38,326,51,19,46,113,38,23,23,170,46,29,22,061,42,7*7E,1773231434576
NMEA,$GAGSV,3,3,10,31,53,225,49,33,28,035,40,7*76,1773231434576
NMEA,$GQGSV,1,1,02,02,10,136,46,03,22,070,39,1*6C,1773231434576
NMEA,$GBGSV,3,1,10,19,21,036,46,21,47,208,53,22,75,051,51,24,11,265,35,3*74,1773231434576
NMEA,$GBGSV,3,2,10,26,19,220,40,29,12,109,42,35,50,058,43,38,36,022,47,3*7E,1773231434576
NMEA,$GBGSV,3,3,10,40,41,118,49,44,40,347,50,3*70,1773231434576
NMEA,$GNGSA,A,3,05,10,11,12,13,15,18,20,23,24,25,29,0.7,0.4,0.6,1*35,1773231434584
NMEA,$GNGSA,A,3,68,69,70,73,83,,,,,,,,0.7,0.4,0.6,2*3E,1773231434584
NMEA,$GNGSA,A,3,04,10,12,16,18,19,23,29,31,33,,,0.7,0.4,0.6,3*3E,1773231434584
NMEA,$GNGSA,A,3,19,21,22,24,26,29,35,38,40,44,,,0.7,0.4,0.6,4*3A,1773231434584
NMEA,$GNGSA,A,3,02,03,,,,,,,,,,,0.7,0.4,0.6,5*31,1773231434584
NMEA,$GNVTG,,T,,M,0.0,N,0.0,K,A*3D,1773231434584
NMEA,$GNDTM,W84,,0000.000000,N,00000.000000,E,0.000,W84*41,1773231434584
NMEA,$GNRMC,121715.00,A,1304.090701,N,07735.505988,E,0.0,,110326,1.1,W,A,V*6D,1773231434584
NMEA,$GNGNS,121715.00,1304.090701,N,07735.505988,E,AAAAAN,39,0.4,960.6,-85.8,,,V*05,1773231434584
NMEA,$GNGGA,121715.00,1304.090701,N,07735.505988,E,1,12,0.4,960.6,M,-85.8,M,,*53,1773231434584
NMEA,$GPGSV,4,1,16,05,26,026,43,10,10,233,37,11,06,076,39,12,25,178,48,1*69,1773231435576
NMEA,$GPGSV,4,2,16,13,35,076,43,15,65,110,50,18,22,316,49,20,44,073,37,1*67,1773231435576
NMEA,$GPGSV,4,3,16,21,03,039,39,23,40,255,52,24,13,158,41,25,40,222,50,1*6D,1773231435576
NMEA,$GPGSV,4,4,16,29,61,355,50,26,02,308,,40,00,000,51,41,00,000,49,1*6C,1773231435576
NMEA,$GLGSV,2,1,08,,00,000,37,,00,000,43,70,52,185,52,73,17,215,38,1*74,1773231435576
NMEA,$GLGSV,2,2,08,69,65,057,47,,00,000,48,83,28,060,40,68,17,030,48,1*75,1773231435576
NMEA,$GAGSV,3,1,10,04,26,181,46,10,23,307,45,12,33,332,44,16,30,298,49,7*74,1773231435576
NMEA,$GAGSV,3,2,10,18,38,326,50,19,46,113,39,23,23,170,46,29,22,061,42,7*7E,1773231435576
NMEA,$GAGSV,3,3,10,31,53,225,49,33,28,035,41,7*77,1773231435576
NMEA,$GQGSV,1,1,02,02,10,136,45,03,22,070,40,1*61,1773231435576
NMEA,$GBGSV,3,1,10,19,21,036,46,21,47,208,53,22,75,051,51,24,11,265,35,3*74,1773231435576
NMEA,$GBGSV,3,2,10,26,19,220,40,29,12,109,42,35,50,058,43,38,36,022,47,3*7E,1773231435576
NMEA,$GBGSV,3,3,10,40,41,118,49,44,40,347,51,3*71,1773231435576
NMEA,$GNGSA,A,3,05,10,11,12,13,15,18,20,23,24,25,29,0.7,0.4,0.6,1*35,1773231435585
NMEA,$GNGSA,A,3,68,69,70,73,83,,,,,,,,0.7,0.4,0.6,2*3E,1773231435585
NMEA,$GNGSA,A,3,04,10,12,16,18,19,23,29,31,33,,,0.7,0.4,0.6,3*3E,1773231435585
NMEA,$GNGSA,A,3,19,21,22,24,26,29,35,38,40,44,,,0.7,0.4,0.6,4*3A,1773231435585
NMEA,$GNGSA,A,3,02,03,,,,,,,,,,,0.7,0.4,0.6,5*31,1773231435585
NMEA,$GNVTG,,T,,M,0.0,N,0.0,K,A*3D,1773231435585
NMEA,$GNDTM,W84,,0000.000000,N,00000.000000,E,0.000,W84*41,1773231435585
NMEA,$GNRMC,121716.00,A,1304.090700,N,07735.505987,E,0.0,,110326,1.1,W,A,V*60,1773231435585
NMEA,$GNGNS,121716.00,1304.090700,N,07735.505987,E,AAAAAN,39,0.4,960.6,-85.8,,,V*08,1773231435585
NMEA,$GNGGA,121716.00,1304.090700,N,07735.505987,E,1,12,0.4,960.6,M,-85.8,M,,*5E,1773231435585
NMEA,$GPGSV,4,1,16,05,26,026,43,10,10,233,37,11,06,076,38,12,25,178,47,1*67,1773231436572
NMEA,$GPGSV,4,2,16,13,35,076,43,15,65,110,49,18,22,316,48,20,44,073,36,1*6F,1773231436572
NMEA,$GPGSV,4,3,16,21,03,039,39,23,40,255,52,24,13,158,40,25,40,222,51,1*6D,1773231436572
NMEA,$GPGSV,4,4,16,29,61,355,50,26,02,308,,40,00,000,51,41,00,000,49,1*6C,1773231436572
NMEA,$GLGSV,2,1,08,,00,000,37,,00,000,43,70,52,185,53,73,17,215,38,1*75,1773231436572
NMEA,$GLGSV,2,2,08,69,65,057,47,,00,000,48,83,28,060,40,68,17,030,48,1*75,1773231436572
NMEA,$GAGSV,3,1,10,04,26,181,46,10,23,307,45,12,33,332,43,16,30,298,49,7*73,1773231436572
NMEA,$GAGSV,3,2,10,18,38,326,50,19,46,113,39,23,23,170,45,29,22,061,42,7*7D,1773231436572
NMEA,$GAGSV,3,3,10,31,53,225,49,33,28,035,41,7*77,1773231436572
NMEA,$GQGSV,1,1,02,02,10,136,45,03,22,070,39,1*6F,1773231436572
NMEA,$GBGSV,3,1,10,19,21,036,46,21,47,208,52,22,75,051,51,24,11,265,35,3*75,1773231436572
NMEA,$GBGSV,3,2,10,26,19,220,41,29,12,109,42,35,50,058,44,38,36,022,47,3*78,1773231436572
NMEA,$GBGSV,3,3,10,40,41,118,49,44,40,347,50,3*70,1773231436572
NMEA,$GNGSA,A,3,05,10,11,12,13,15,18,20,23,24,25,29,0.7,0.4,0.6,1*35,1773231436577
NMEA,$GNGSA,A,3,68,69,70,73,83,,,,,,,,0.7,0.4,0.6,2*3E,1773231436577
NMEA,$GNGSA,A,3,04,10,12,16,18,19,23,29,31,33,,,0.7,0.4,0.6,3*3E,1773231436577
NMEA,$GNGSA,A,3,19,21,22,24,26,29,35,38,40,44,,,0.7,0.4,0.6,4*3A,1773231436577
NMEA,$GNGSA,A,3,02,03,,,,,,,,,,,0.7,0.4,0.6,5*31,1773231436577
NMEA,$GNVTG,,T,,M,0.0,N,0.0,K,A*3D,1773231436577
NMEA,$GNDTM,W84,,0000.000000,N,00000.000000,E,0.000,W84*41,1773231436577
NMEA,$GNRMC,121717.00,A,1304.090700,N,07735.505986,E,0.0,,110326,1.1,W,A,V*60,1773231436577
NMEA,$GNGNS,121717.00,1304.090700,N,07735.505986,E,AAAAAN,39,0.4,960.6,-85.8,,,V*08,1773231436577
NMEA,$GNGGA,121717.00,1304.090700,N,07735.505986,E,1,12,0.4,960.6,M,-85.8,M,,*5E,1773231436577
NMEA,$GPGSV,4,1,16,05,26,026,43,10,10,233,37,11,06,076,38,12,25,178,47,1*67,1773231437577
NMEA,$GPGSV,4,2,16,13,35,076,43,15,65,110,49,18,22,316,49,20,44,073,36,1*6E,1773231437577
NMEA,$GPGSV,4,3,16,21,03,039,39,23,40,255,52,24,13,158,40,25,40,222,50,1*6C,1773231437577
NMEA,$GPGSV,4,4,16,29,61,355,50,26,02,308,,40,00,000,51,41,00,000,49,1*6C,1773231437577
NMEA,$GLGSV,2,1,08,,00,000,37,,00,000,43,70,52,185,52,73,17,215,38,1*74,1773231437577
NMEA,$GLGSV,2,2,08,69,65,057,48,,00,000,48,83,28,060,40,68,17,030,48,1*7A,1773231437577
NMEA,$GAGSV,3,1,10,04,26,181,46,10,23,307,45,12,33,332,44,16,30,298,49,7*74,1773231437577
NMEA,$GAGSV,3,2,10,18,38,326,51,19,46,113,38,23,23,170,46,29,22,061,41,7*7D,1773231437577
NMEA,$GAGSV,3,3,10,31,53,225,49,33,28,035,41,7*77,1773231437577
NMEA,$GQGSV,1,1,02,02,10,136,46,03,22,070,39,1*6C,1773231437577
NMEA,$GBGSV,3,1,10,19,21,036,46,21,47,208,53,22,75,051,51,24,11,265,34,3*75,1773231437577
NMEA,$GBGSV,3,2,10,26,19,220,40,29,12,109,42,35,50,058,43,38,36,022,46,3*7F,1773231437577
NMEA,$GBGSV,3,3,10,40,41,118,49,44,40,347,51,3*71,1773231437577
NMEA,$GNGSA,A,3,05,10,11,12,13,15,18,20,23,24,25,29,0.7,0.4,0.6,1*35,1773231437583
NMEA,$GNGSA,A,3,68,69,70,73,83,,,,,,,,0.7,0.4,0.6,2*3E,1773231437583
NMEA,$GNGSA,A,3,04,10,12,16,18,19,23,29,31,33,,,0.7,0.4,0.6,3*3E,1773231437583
NMEA,$GNGSA,A,3,19,21,22,24,26,29,35,38,40,44,,,0.7,0.4,0.6,4*3A,1773231437583
NMEA,$GNGSA,A,3,02,03,,,,,,,,,,,0.7,0.4,0.6,5*31,1773231437583
NMEA,$GNVTG,,T,,M,0.0,N,0.0,K,A*3D,1773231437583
NMEA,$GNDTM,W84,,0000.000000,N,00000.000000,E,0.000,W84*41,1773231437583
NMEA,$GNRMC,121718.00,A,1304.090699,N,07735.505985,E,0.0,,110326,1.1,W,A,V*6D,1773231437583
NMEA,$GNGNS,121718.00,1304.090699,N,07735.505985,E,AAAAAN,39,0.4,960.6,-85.8,,,V*05,1773231437583
NMEA,$GNGGA,121718.00,1304.090699,N,07735.505985,E,1,12,0.4,960.6,M,-85.8,M,,*53,1773231437583
NMEA,$GPGSV,4,1,16,05,26,026,43,10,10,233,37,11,06,076,39,12,25,178,47,1*66,1773231438575
NMEA,$GPGSV,4,2,16,13,35,076,43,15,65,110,49,18,22,316,49,20,44,073,37,1*6F,1773231438575
NMEA,$GPGSV,4,3,16,21,03,039,39,23,40,255,52,24,13,158,41,25,40,222,51,1*6C,1773231438575
NMEA,$GPGSV,4,4,16,29,61,355,50,26,02,308,,40,00,000,51,41,00,000,49,1*6C,1773231438575
NMEA,$GLGSV,2,1,08,,00,000,37,,00,000,43,70,52,185,52,73,17,215,38,1*74,1773231438575
NMEA,$GLGSV,2,2,08,69,65,057,47,,00,000,48,83,28,060,40,68,17,030,48,1*75,1773231438575
NMEA,$GAGSV,3,1,10,04,26,181,46,10,23,307,45,12,33,332,44,16,30,298,49,7*74,1773231438575
NMEA,$GAGSV,3,2,10,18,38,326,50,19,46,113,39,23,23,170,46,29,22,061,41,7*7D,1773231438575
NMEA,$GAGSV,3,3,10,31,53,225,49,33,28,035,41,7*77,1773231438575
NMEA,$GQGSV,1,1,02,02,10,136,45,03,22,070,39,1*6F,1773231438575
NMEA,$GBGSV,3,1,10,19,21,036,46,21,47,208,53,22,75,051,51,24,11,265,35,3*74,1773231438575
NMEA,$GBGSV,3,2,10,26,19,220,40,29,12,109,42,35,50,058,43,38,36,022,47,3*7E,1773231438575
NMEA,$GBGSV,3,3,10,40,41,118,49,44,40,347,50,3*70,1773231438575
NMEA,$GNGSA,A,3,05,10,11,12,13,15,18,20,23,24,25,29,0.7,0.4,0.6,1*35,1773231438581
NMEA,$GNGSA,A,3,68,69,70,73,83,,,,,,,,0.7,0.4,0.6,2*3E,1773231438581
NMEA,$GNGSA,A,3,04,10,12,16,18,19,23,29,31,33,,,0.7,0.4,0.6,3*3E,1773231438581
NMEA,$GNGSA,A,3,19,21,22,24,26,29,35,38,40,44,,,0.7,0.4,0.6,4*3A,1773231438581
NMEA,$GNGSA,A,3,02,03,,,,,,,,,,,0.7,0.4,0.6,5*31,1773231438581
NMEA,$GNVTG,,T,,M,0.0,N,0.0,K,A*3D,1773231438581
NMEA,$GNDTM,W84,,0000.000000,N,00000.000000,E,0.000,W84*41,1773231438581
NMEA,$GNRMC,121719.00,A,1304.090703,N,07735.505979,E,0.0,,110326,1.1,W,A,V*6D,1773231438581
NMEA,$GNGNS,121719.00,1304.090703,N,07735.505979,E,AAAAAN,39,0.4,960.6,-85.8,,,V*05,1773231438581
NMEA,$GNGGA,121719.00,1304.090703,N,07735.505979,E,1,12,0.4,960.6,M,-85.8,M,,*53,1773231438581
NMEA,$GPGSV,4,1,16,05,26,026,43,10,10,233,37,11,06,076,40,12,25,178,47,1*68,1773231439574
NMEA,$GPGSV,4,2,16,13,35,076,43,15,65,110,49,18,22,316,49,20,44,073,36,1*6E,1773231439574
NMEA,$GPGSV,4,3,16,21,03,039,40,23,40,255,52,24,13,158,41,25,40,222,50,1*63,1773231439574
NMEA,$GPGSV,4,4,16,29,61,355,50,26,02,308,,40,00,000,52,41,00,000,49,1*6F,1773231439574
NMEA,$GLGSV,2,1,08,,00,000,37,,00,000,43,70,52,185,53,73,17,215,38,1*75,1773231439574
NMEA,$GLGSV,2,2,08,69,65,057,48,,00,000,48,83,28,060,41,68,17,030,47,1*74,1773231439574
NMEA,$GAGSV,3,1,10,04,26,181,45,10,23,307,45,12,33,332,44,16,30,298,49,7*77,1773231439574
NMEA,$GAGSV,3,2,10,18,38,326,50,19,46,113,38,23,23,170,46,29,22,061,42,7*7F,1773231439574
NMEA,$GAGSV,3,3,10,31,53,225,49,33,28,035,40,7*76,1773231439574
NMEA,$GQGSV,1,1,02,02,10,136,45,03,22,070,39,1*6F,1773231439574
NMEA,$GBGSV,3,1,10,19,21,036,46,21,47,208,53,22,75,051,51,24,11,265,36,3*77,1773231439574
NMEA,$GBGSV,3,2,10,26,19,220,40,29,12,109,42,35,50,058,43,38,36,022,47,3*7E,1773231439574
NMEA,$GBGSV,3,3,10,40,41,118,49,44,40,347,50,3*70,1773231439574
NMEA,$GNGSA,A,3,05,10,11,12,13,15,18,20,23,24,25,29,0.7,0.4,0.6,1*35,1773231439578
NMEA,$GNGSA,A,3,68,69,70,73,83,,,,,,,,0.7,0.4,0.6,2*3E,1773231439578
NMEA,$GNGSA,A,3,04,10,12,16,18,19,23,29,31,33,,,0.7,0.4,0.6,3*3E,1773231439578
NMEA,$GNGSA,A,3,19,21,22,24,26,29,35,38,40,44,,,0.7,0.4,0.6,4*3A,1773231439578
NMEA,$GNGSA,A,3,02,03,,,,,,,,,,,0.7,0.4,0.6,5*31,1773231439578
NMEA,$GNVTG,,T,,M,0.0,N,0.0,K,A*3D,1773231439578
NMEA,$GNDTM,W84,,0000.000000,N,00000.000000,E,0.000,W84*41,1773231439578
NMEA,$GNRMC,121720.00,A,1304.090703,N,07735.505979,E,0.0,,110326,1.1,W,A,V*67,1773231439578
NMEA,$GNGNS,121720.00,1304.090703,N,07735.505979,E,AAAAAN,39,0.4,960.6,-85.8,,,V*0F,1773231439578
NMEA,$GNGGA,121720.00,1304.090703,N,07735.505979,E,1,12,0.4,960.6,M,-85.8,M,,*59,1773231439578
NMEA,$GPGSV,4,1,16,05,26,026,43,10,10,233,37,11,06,076,39,12,25,178,48,1*69,1773231440574
NMEA,$GPGSV,4,2,16,13,35,076,42,15,65,110,49,18,22,316,48,20,44,073,36,1*6E,1773231440574
NMEA,$GPGSV,4,3,16,21,03,039,39,23,40,255,51,24,13,158,40,25,40,222,51,1*6E,1773231440574
NMEA,$GPGSV,4,4,16,29,61,355,50,26,02,308,,40,00,000,51,41,00,000,49,1*6C,1773231440574
NMEA,$GLGSV,2,1,08,,00,000,37,,00,000,43,70,52,185,53,73,17,215,39,1*74,1773231440574
NMEA,$GLGSV,2,2,08,69,65,057,47,,00,000,48,83,28,060,41,68,17,030,48,1*74,1773231440574
NMEA,$GAGSV,3,1,10,04,26,181,46,10,23,307,45,12,33,332,44,16,30,298,49,7*74,1773231440574
NMEA,$GAGSV,3,2,10,18,38,326,50,19,46,113,40,23,23,170,46,29,22,061,42,7*70,1773231440574
NMEA,$GAGSV,3,3,10,31,53,225,49,33,28,035,41,7*77,1773231440574
NMEA,$GQGSV,1,1,02,02,10,136,46,03,22,070,38,1*6D,1773231440574
NMEA,$GBGSV,3,1,10,19,21,036,46,21,47,208,53,22,75,051,51,24,11,265,36,3*77,1773231440574
NMEA,$GBGSV,3,2,10,26,19,220,40,29,12,109,42,35,50,058,43,38,36,022,47,3*7E,1773231440574
NMEA,$GBGSV,3,3,10,40,41,118,49,44,40,347,50,3*70,1773231440574
NMEA,$GNGSA,A,3,05,10,11,12,13,15,18,20,23,24,25,29,0.7,0.4,0.6,1*35,1773231440579
NMEA,$GNGSA,A,3,68,69,70,73,83,,,,,,,,0.7,0.4,0.6,2*3E,1773231440579
NMEA,$GNGSA,A,3,04,10,12,16,18,19,23,29,31,33,,,0.7,0.4,0.6,3*3E,1773231440579
NMEA,$GNGSA,A,3,19,21,22,24,26,29,35,38,40,44,,,0.7,0.4,0.6,4*3A,1773231440579
NMEA,$GNGSA,A,3,02,03,,,,,,,,,,,0.7,0.4,0.6,5*31,1773231440579
NMEA,$GNVTG,,T,,M,0.0,N,0.0,K,A*3D,1773231440579
NMEA,$GNDTM,W84,,0000.000000,N,00000.000000,E,0.000,W84*41,1773231440579
NMEA,$GNRMC,121721.00,A,1304.090703,N,07735.505978,E,0.0,,110326,1.1,W,A,V*67,1773231440579
NMEA,$GNGNS,121721.00,1304.090703,N,07735.505978,E,AAAAAN,39,0.4,960.6,-85.8,,,V*0F,1773231440579
NMEA,$GNGGA,121721.00,1304.090703,N,07735.505978,E,1,12,0.4,960.6,M,-85.8,M,,*59,1773231440579
NMEA,$GPGSV,4,1,16,05,26,026,43,10,10,233,36,11,06,076,39,12,25,178,47,1*67,1773231441575
NMEA,$GPGSV,4,2,16,13,35,076,43,15,65,110,49,18,22,316,49,20,44,073,36,1*6E,1773231441575
NMEA,$GPGSV,4,3,16,21,03,039,39,23,40,255,51,24,13,158,40,25,40,222,50,1*6F,1773231441575
NMEA,$GPGSV,4,4,16,29,61,355,50,26,02,308,,40,00,000,52,41,00,000,49,1*6F,1773231441575
NMEA,$GLGSV,2,1,08,,00,000,37,,00,000,43,70,52,185,52,73,17,215,39,1*75,1773231441575
NMEA,$GLGSV,2,2,08,69,65,057,47,,00,000,48,83,28,060,40,68,17,030,47,1*7A,1773231441575
NMEA,$GAGSV,3,1,10,04,26,181,46,10,23,307,45,12,33,332,44,16,30,298,49,7*74,1773231441575
