     4.01           OBSERVATION DATA    M                   RINEX VERSION / TYPE
GnssLogger          Sony 16             20260311 121708 UTC PGM / RUN BY / DATE
Google GnssLogger                                           MARKER NAME
Unknown                                                     MARKER NUMBER
Unknown             Unknown                                 OBSERVER / AGENCY
Unknown             GnssLogger          v3.1.1.2            REC # / TYPE / VERS
Unknown             Unknown                                 ANT # / TYPE
        0.0000        0.0000        0.0000                  ANTENNA: DELTA H/E/N
G    3 C1C D1C S1C                                          SYS / # / OBS TYPES
R    3 C1C D1C S1C                                          SYS / # / OBS TYPES
J    3 C1C D1C S1C                                          SYS / # / OBS TYPES
C    3 C1P D1P S1P                                          SYS / # / OBS TYPES
E    3 C1C D1C S1C                                          SYS / # / OBS TYPES
  2026    03    11    12    17   08.0000000     GPS         TIME OF FIRST OBS
 5 R04  6 R05  1 R06 -4 R09 -2 R19  3                       GLONASS SLOT / FRQ #
Sony XQ-GE54 (Android 16) HW Year: 2023 HW Model:           COMMENT
qcom;MPSS.DE.9.0.c2-00076.1-KAANAPALI_GEN_PACK-1.141244.8;  COMMENT
                                                            END OF HEADER
> 2026 03 11 12 17 08.5892529  0 40                      
G05  23058290.48527     -2947.82227        42.80027
G10  24923986.79026      2267.77426        39.50026
G11  25217224.58626     -1125.05726        37.30026
G12  23591406.61727     -3143.27027        47.30027
G13  21946801.25327      -516.26127        41.90027
G15  20407442.22928       711.47928        47.80028
G18  23725589.22428      1062.78428        48.20028
G20  21761789.13426      -865.71926        38.80026
G21  25382035.79026     -3127.23026        40.80026
G23  21932165.08628      1084.44228        51.90028
G24  24707910.17726      1211.13126        39.60026
G25  22098584.37628     -2066.97428        50.60028
G29  20817323.27428      1732.85928        50.70028
J02  37661909.61027      -609.47827        45.70027
J03  41160397.65726      1205.68926        39.50026
R06  20175542.27028      2837.05528        52.00028
R09  22782366.30426     -2635.87226        37.50026
R05  19575303.80727     -1064.43227        46.60027
R19  21878965.41526       162.07026        41.10026
R04  22826032.57428     -3836.56528        47.90028
E04  26204772.12127      2513.03127        45.50027
E10  26782014.40527       278.17727        44.50027
E12  25641202.17327        31.76227        42.70027
E16  25899924.86328       883.96528        48.20028
E18  20127583.87128      5946.33428        49.80028
E19  23807571.36926      1058.10626        38.40026
E23  26556896.35127     -2739.90227        45.80027
E29  26666168.30327      -968.56527        41.80027
E31  24312504.01128     -1515.36228        48.90028
E33  26097011.72226      -500.15526        40.50026
C19  25289440.39227     -2994.36827        46.50027
C21  23116477.50328      2244.54928        52.50028
C22  21541623.05228      -694.01528        51.00028
C24  26051380.31226      -730.28526        38.10026
C26  25427776.92426     -1452.49626        39.60026
C29  25709255.36026     -1570.87726        41.40026
C35  22835626.23227       224.39227        43.90027
C38  38156832.48227     -1089.26027        47.00027
C40  37633285.42628      -163.62628        49.70028
C44  23116647.48528      1773.64428        49.80028
> 2026 03 11 12 17 09.5815195  0 40                      
G05  23058821.83027     -2945.11627        43.00027
G10  24923530.02026      2270.29826        39.10026
G11  25217417.76626     -1122.32326        37.60026
G12  23591970.93927     -3140.68527        46.60027
G13  21946869.71927      -514.18427        41.90027
G15  20407279.55528       713.50028        48.00028
G18  23725363.89328      1065.37428        48.70028
G20  21761920.85626      -863.61526        38.50026
G21  25382598.91326     -3124.11826        40.50026
G23  21931928.96228      1086.62628        52.10028
G24  24707648.87126      1213.92826        39.10026
G25  22098945.43928     -2064.59328        50.80028
G29  20816970.23228      1735.18528        50.80028
J02  37661999.96127      -606.83627        45.50027
J03  41160145.04526      1208.18326        38.40026
R06  20174985.66928      2839.23328        52.20028
R09  22782816.10526     -2633.40126        37.50026
R05  19575475.10127     -1062.50527        46.70027
R19  21878915.76226       164.58926        41.20026
R04  22826717.41328     -3834.30428        47.90028
E04  26204270.98127      2515.96027        45.70027
E10  26781934.17327       281.06427        44.60027
E12  25641167.21027        34.52027        42.70027
E16  25899729.81128       886.24728        48.40028
E18  20126432.18228      5948.95028        50.50028
E19  23807344.83926      1060.59126        38.60026
E23  26557385.72527     -2737.09927        45.00027
E29  26666323.10927      -966.23127        41.50027
E31  24312760.44728     -1513.02528        48.30028
E33  26097078.08926      -497.36126        40.30026
C19  25289977.13427     -2991.66327        46.00027
C21  23116025.22928      2246.88428        52.40028
C22  21541725.69428      -691.90928        51.50028
C24  26051487.45126      -727.25626        38.30026
C26  25428030.36126     -1449.79726        40.10026
C29  25709524.08727     -1568.37027        41.50027
C35  22835555.29527       226.89727        44.00027
C38  38157009.17327     -1086.34627        46.90027
C40  37633287.93728      -161.12328        49.30028
C44  23116283.05128      1776.36628        49.90028
> 2026 03 11 12 17 10.5924274  0 40                      
G05  23059415.18427     -2942.34227        42.50027
G10  24923130.46126      2272.90126        39.00026
G11  25217651.36826     -1119.28726        36.70026
G12  23592602.96627     -3137.69927        46.50027
G13  21946992.09827      -511.84327        41.90027
G15  20407168.09628       715.79728        47.90028
G18  23725186.48028      1068.56828        48.30028
G20  21762117.58426      -861.67926        37.70026
G21  25383227.04226     -3120.94326        39.90026
G23  21931747.05228      1089.18628        52.00028
G24  24707439.68026      1217.13526        39.50026
G25  22099369.71028     -2061.88328        49.70028
G29  20816660.91028      1737.62428        50.60028
J02  37662145.12427      -604.05927        45.80027
J03  41159939.75126      1211.07626        38.70026
R06  20174477.58528      2841.38728        52.10028
R09  22783335.11026     -2630.37926        37.50026
R05  19575699.71027     -1060.55727        46.80027
R19  21878920.62327       167.49227        41.50027
R04  22827466.05927     -3831.72127        47.20027
E04  26203812.06327      2518.85727        45.30027
E10  26781906.05727       283.95727        45.00027
E12  25641186.76127        37.79727        43.30027
E16  25899585.67528       888.80828        48.30028
E18  20125314.91928      5951.48028        50.20028
E19  23807162.62926      1063.27226        38.40026
E23  26557938.00727     -2734.20627        45.60027
E29  26666539.02426      -963.66926        41.40026
E31  24313077.69128     -1510.46328        48.80028
E33  26097200.46926      -494.32926        40.30026
C19  25290579.78127     -2988.87427        46.20027
C21  23115619.67428      2249.39128        52.80028
C22  21541886.74728      -689.54828        51.10028
C24  26051657.49826      -724.83326        38.60026
C26  25428336.21426     -1446.97626        40.10026
C29  25709856.02226     -1565.58026        41.30026
C35  22835535.87227       229.83927        44.10027
C38  38157246.97227     -1083.45027        47.20027
C40  37633345.56228      -158.22028        49.50028
C44  23115967.43428      1779.28028        49.90028
> 2026 03 11 12 17 11.5864656  0 40                      
G05  23059944.17927     -2943.80827        42.40027
G10  24922664.44526      2271.06326        38.90026
G11  25217839.49926     -1120.82926        37.00026
G12  23593166.43727     -3138.96627        46.60027
G13  21947069.60627      -513.95727        42.30027
G15  20407005.47128       713.74628        47.90028
G18  23724954.30228      1066.76428        48.00028
G20  21762256.55026      -863.29126        37.90026
G21  25383787.81626     -3122.43726        39.70026
G23  21931513.97528      1087.32428        52.10028
G24  24707182.62026      1215.82826        39.80026
G25  22099731.12128     -2063.55828        50.70028
G29  20816307.31728      1735.80528        50.10028
J02  37662227.42927      -605.66327        45.70027
J03  41159676.99526      1210.12626        38.40026
R06  20173915.93528      2839.36828        52.30028
R09  22783804.74726     -2631.38226        37.20026
R05  19575873.15227     -1062.88527        47.10027
R19  21878845.83727       165.76727        41.60027
R04  22828145.25028     -3833.45428        48.00028
E04  26203308.27427      2517.23027        45.50027
E10  26781824.07527       282.52627        44.90027
E12  25641150.04827        35.97327        43.60027
E16  25899389.17228       886.72028        48.40028
E18  20124161.77928      5949.62128        50.50028
E19  23806935.54826      1061.29226        38.90026
E23  26558428.92927     -2735.84727        45.60027
E29  26666691.48027      -965.75327        41.60027
E31  24313336.57428     -1512.23628        49.10028
E33  26097264.18626      -495.87926        41.00026
C19  25291117.47027     -2990.69327        45.90027
C21  23115166.55028      2247.58528        52.50028
C22  21541988.53828      -691.65828        51.20028
C24  26051758.98926      -726.36926        38.00026
C26  25428582.80526     -1448.45126        40.70026
C29  25710120.00126     -1567.72326        41.20026
C35  22835463.78427       227.93627        44.40027
C38  38157420.41427     -1084.93727        46.80027
C40  37633348.72128      -160.01928        49.30028
C44  23115602.74828      1777.83928        49.40028
> 2026 03 11 12 17 12.5782345  0 40                      
G05  23060491.67127     -2942.33027        42.50027
G10  24922229.51726      2272.55626        38.90026
G11  25218041.03126     -1119.02926        37.20026
G12  23593752.60228     -3137.52928        47.70028
G13  21947156.61727      -513.01427        42.30027
G15  20406864.33928       714.85728        48.60028
G18  23724744.81828      1068.76228        48.70028
G20  21762411.01426      -862.39526        38.10026
G21  25384375.78026     -3120.55926        39.80026
G23  21931301.19328      1088.28828        51.90028
G24  24706944.95526      1217.79326        40.30026
G25  22100111.02928     -2062.36428        50.70028
G29  20815973.11928      1737.14428        50.40028
J02  37662336.62427      -603.96027        45.70027
J03  41159444.72726      1211.49426        38.90026
R06  20173382.97528      2840.54628        52.30028
R09  22784296.17726     -2630.11326        36.90026
R05  19576061.19227     -1061.87927        47.10027
R19  21878813.23026       167.01726        41.20026
R04  22828847.73528     -3832.40028        47.90028
E04  26202825.97827      2518.90027        45.30027
E10  26781764.48827       284.37027        44.80027
E12  25641136.62827        37.92727        43.30027
E16  25899213.56528       888.05628        48.40028
E18  20123030.13328      5951.01228        50.50028
E19  23806727.86326      1062.78526        39.30026
E23  26558936.54827     -2734.06727        45.60027
E29  26666863.03227      -964.28427        41.50027
E31  24313613.35328     -1510.97928        49.10028
E33  26097354.79526      -494.09926        40.20026
C19  25291672.75727     -2989.19627        45.90027
C21  23114734.02028      2248.70328        52.50028
C22  21542110.62428      -690.64028        51.20028
C24  26051890.66926      -724.66326        37.40026
C26  25428846.39326     -1446.40226        40.80026
C29  25710409.07126     -1565.97926        41.30026
C35  22835417.68727       229.40527        44.50027
C38  38157617.44827     -1083.27627        46.20027
C40  37633370.67728      -158.49928        49.30028
C44  23115260.75528      1779.40028        49.70028
> 2026 03 11 12 17 13.5905517  0 40                      
G05  23061054.98727     -2941.13427        42.10027
G10  24921792.72526      2273.14726        39.20026
G11  25218253.88926     -1118.70526        37.20026
G12  23594350.69427     -3136.65727        46.70027
G13  21947252.25627      -512.81827        42.70027
G15  20406719.54528       714.98428        48.80028
G18  23724531.67128      1069.97628        48.20028
G20  21762566.01226      -862.01526        38.50026
G21  25384962.77926     -3119.58326        40.00026
G23  21931086.24828      1088.87728        51.80028
G24  24706703.02826      1218.73126        39.80026
G25  22100505.56128     -2061.56928        50.20028
G29  20815631.66128      1737.46728        50.80028
J02  37662447.25327      -603.30527        46.00027
J03  41159206.39726      1212.56526        39.20026
R06  20172840.95628      2840.70228        52.30028
R09  22784784.84526     -2629.22726        38.10026
R05  19576262.05927     -1061.94827        47.40027
R19  21878760.17326       167.83226        41.20026
R04  22829572.03928     -3831.73328        48.00028
E04  26202336.42327      2519.91027        45.80027
E10  26781704.23527       285.12727        45.00027
E12  25641121.94427        38.85727        42.90027
E16  25899038.79228       888.51328        49.20028
E18  20121876.83828      5951.65128        50.10028
E19  23806518.01426      1063.28026        38.30026
E23  26559457.29327     -2733.21127        45.50027
E29  26667042.91326      -964.02626        41.40026
E31  24313899.06128     -1510.30828        48.80028
E33  26097441.74026      -492.92826        40.60026
C19  25292241.16927     -2988.59527        45.90027
C21  23114295.12928      2249.23128        52.80028
C22  21542239.84128      -689.98528        51.00028
C24  26052016.88726      -724.26026        38.90026
C26  25429121.90826     -1445.65826        40.70026
C29  25710706.77127     -1565.47727        41.50027
C35  22835365.52827       230.08527        44.30027
C38  38157820.71327     -1082.35627        46.70027
C40  37633393.46728      -157.67828        49.60028
C44  23114911.20328      1780.28428        49.80028
> 2026 03 11 12 17 14.5802725  0 40                      
G05  23061585.77327     -2940.21827        41.80027
G10  24921346.78826      2273.87726        38.50026
G11  25218451.60626     -1116.91626        37.50026
G12  23594925.25027     -3135.32827        46.30027
G13  21947329.45727      -512.09427        42.70027
G15  20406570.70228       715.75928        48.40028
G18  23724317.17428      1071.24228        48.00028
G20  21762713.36426      -861.08926        37.60026
G21  25385541.53226     -3118.02926        40.20026
G23  21930864.55528      1089.68628        52.10028
G24  24706458.85126      1220.38726        40.30026
G25  22100877.75828     -2060.53928        50.70028
G29  20815287.05428      1738.30328        50.60028
J02  37662541.54227      -602.07027        46.00027
J03  41158961.62126      1213.97026        38.40026
R06  20172295.48728      2841.29828        52.30028
R09  22785251.47626     -2627.53126        38.10026
R05  19576436.69227     -1061.52227        47.20027
R19  21878717.45627       168.97027        41.60027
R04  22830261.11628     -3830.86728        48.00028
E04  26201843.11827      2521.19327        45.50027
E10  26781631.83927       286.85227        44.40027
E12  25641100.81227        40.36627        43.40027
E16  25898853.67428       889.51228        48.40028
E18  20120740.47828      5952.68428        50.10028
E19  23806302.31726      1064.46626        38.50026
E23  26559955.10327     -2731.75727        45.80027
E29  26667209.75226      -962.86226        41.20026
E31  24314167.52928     -1509.33728        49.10028
E33  26097519.24026      -491.34526        41.00026
C19  25292789.34327     -2987.36127        45.90027
C21  23113856.08728      2250.16928        52.70028
C22  21542352.71628      -689.35828        51.60028
C24  26052139.05626      -723.27626        37.30026
C26  25429377.18526     -1444.33726        40.40026
C29  25710983.63327     -1564.44027        41.90027
C35  22835305.12427       231.05927        44.10027
C38  38158011.23527     -1081.07227        46.70027
C40  37633407.71128      -156.51628        49.70028
C44  23114559.70028      1781.54728        50.00028
> 2026 03 11 12 17 15.5944996  0 40                      
G05  23062150.58227     -2938.07327        42.50027
G10  24920885.40726      2275.84026        39.20026
G11  25218648.56926     -1115.01926        37.40026
G12  23595521.53727     -3133.19227        47.00027
G13  21947418.49527      -510.73027        42.80027
G15  20406418.70728       717.02928        48.40028
G18  23724097.72628      1073.38628        47.60028
G20  21762874.65226      -860.15726        37.60026
G21  25386130.62426     -3115.80926        39.90026
G23  21930644.50728      1091.40128        52.30028
G24  24706212.12226      1222.72126        40.00026
G25  22101263.29028     -2058.69928        50.70028
G29  20814940.19328      1739.94428        50.50028
J02  37662645.27027      -600.00727        46.00027
J03  41158719.98826      1216.09426        38.90026
R06  20171743.26928      2842.76028        51.90028
R09  22785735.94026     -2625.26626        37.80026
R05  19576622.56327     -1060.21027        47.30027
R19  21878674.28627       170.88227        41.80027
R04  22830976.12128     -3829.02728        47.80028
E04  26201346.96227      2523.31427        45.30027
E10  26781565.58527       288.78427        44.90027
E12  25641082.82427        42.61727        43.00027
E16  25898671.39928       891.10428        48.00028
E18  20119581.18028      5954.42728        50.30028
E19  23806084.96726      1066.06726        38.40026
E23  26560473.14427     -2729.59927        45.50027
E29  26667386.32927      -961.20127        41.50027
E31  24314447.83528     -1507.57528        49.30028
E33  26097604.38126      -489.36926        40.60026
C19  25293353.25327     -2985.58827        46.20027
C21  23113410.59528      2251.80328        53.10028
C22  21542476.23128      -687.86928        51.80028
C24  26052270.36526      -721.39126        36.90026
C26  25429644.30026     -1442.03526        40.10026
C29  25711278.02927     -1562.74727        42.20027
C35  22835249.66227       233.01327        44.20027
C38  38158206.10027     -1078.98827        46.80027
C40  37633428.09628      -154.57628        49.90028
C44  23114205.94528      1783.64828        49.90028
> 2026 03 11 12 17 16.5854008  0 40                      
G05  23062711.34827     -2936.68327        42.00027
G10  24920476.94426      2276.47626        38.60026
G11  25218870.27126     -1113.63226        38.10026
G12  23596124.27427     -3131.77527        46.50027
G13  21947527.77427      -509.98427        42.40027
G15  20406296.24628       717.79928        48.80028
G18  23723907.51228      1074.76428        48.20028
G20  21763041.79126      -859.20026        37.30026
G21  25386728.86426     -3114.46526        39.70026
G23  21930447.69828      1092.21228        51.60028
G24  24706001.52226      1224.22726        39.30026
G25  22101661.56928     -2057.62228        50.50028
G29  20814623.76728      1740.84228        50.10028
J02  37662772.53627      -598.87027        45.90027
J03  41158497.39626      1217.30526        39.20026
R06  20171225.98228      2843.43028        52.30028
R09  22786266.72726     -2624.08026        38.50026
R05  19576834.37128     -1059.99428        47.60028
R19  21878653.75427       172.10027        41.90027
R04  22831697.27628     -3828.08528        48.10028
E04  26200880.33927      2524.53227        45.30027
E10  26781521.37027       290.16027        44.90027
E12  25641083.57827        44.01827        43.20027
E16  25898515.06228       891.94328        48.30028
E18  20118469.40528      5955.33628        50.40028
E19  23805897.45126      1066.88226        38.30026
E23  26560996.13627     -2728.42727        45.60027
E29  26667573.85426      -960.35326        41.30026
E31  24314743.88428     -1506.61728        49.20028
E33  26097704.36626      -487.88726        40.50026
C19  25293929.60827     -2984.57627        46.20027
C21  23112996.43728      2252.74028        52.70028
C22  21542614.29028      -687.12028        51.80028
C24  26052409.62326      -719.64026        36.80026
C26  25429925.36026     -1440.82526        40.70026
C29  25711582.17327     -1561.55727        41.70027
C35  22835215.34027       233.87527        44.10027
C38  38158419.70727     -1077.71527        47.10027
C40  37633467.52428      -153.43928        49.60028
C44  23113878.72628      1784.89628        49.70028
> 2026 03 11 12 17 17.5789449  0 40                      
G05  23063238.08527     -2937.30727        42.20027
G10  24920018.26226      2275.84726        38.20026
G11  25219064.53726     -1113.98026        38.00026
G12  23596690.58327     -3132.24927        47.10027
G13  21947596.12727      -510.99727        42.80027
G15  20406135.55828       716.78328        49.00028
G18  23723680.86928      1074.49128        48.20028
G20  21763177.59826      -860.11226        37.90026
G21  25387284.98026     -3114.57326        39.10026
G23  21930218.65828      1091.33628        52.40028
G24  24705737.10626      1223.98126        40.30026
G25  22102027.01728     -2058.33028        50.10028
G29  20814271.51228      1740.22428        50.20028
J02  37662863.37427      -599.24227        45.80027
J03  41158246.47126      1216.89026        39.10026
R06  20170671.66728      2842.54028        52.50028
R09  22786720.91326     -2624.69726        38.00026
R05  19577004.95327     -1060.98827        47.10027
R19  21878597.39427       171.38927        42.00027
R04  22832384.70128     -3829.04228        47.90028
E04  26200380.28627      2524.16727        45.90027
E10  26781442.22527       289.81827        44.20027
E12  25641051.20227        43.66627        43.70027
E16  25898322.89628       891.05428        48.80028
E18  20117318.80228      5954.66328        50.50028
E19  23805675.60626      1066.31126        38.70026
E23  26561489.59527     -2728.81327        45.60027
E29  26667735.14326      -961.25826        41.20026
E31  24315004.40528     -1507.35028        49.20028
E33  26097772.42026      -488.23826        40.80026
C19  25294469.53527     -2985.02727        45.80027
C21  23112546.74928      2251.89728        53.00028
C22  21542720.41728      -688.10528        51.60028
C24  26052518.74926      -720.53226        37.50026
C26  25430175.08826     -1440.94126        39.60026
C29  25711855.28527     -1562.40227        42.30027
C35  22835149.08727       233.43427        44.20027
C38  38158601.68227     -1078.14827        46.80027
C40  37633471.42228      -154.08028        49.50028
C44  23113518.07628      1784.52328        49.90028
> 2026 03 11 12 17 18.5863405  0 40                      
G05  23063802.02927     -2937.20727        42.70027
G10  24919575.80426      2275.35126        39.20026
G11  25219272.32826     -1114.28226        38.20026
G12  23597287.80527     -3132.33027        46.60027
G13  21947692.69627      -511.64327        42.60027
G15  20405995.29128       715.95128        48.90028
G18  23723471.35028      1074.62628        48.60028
G20  21763330.22726      -860.96426        37.10026
G21  25387880.70326     -3114.66526        39.20026
G23  21930004.04128      1090.79428        51.70028
G24  24705500.30526      1224.28226        41.00026
G25  22102416.48328     -2058.65728        50.70028
G29  20813931.28228      1739.46328        50.80028
J02  37662973.43327      -599.64227        46.00027
J03  41158009.07026      1216.96826        39.00026
R06  20170129.37728      2841.60428        52.50028
R09  22787192.22226     -2624.57926        39.10026
R05  19577200.75327     -1062.16927        47.40027
R19  21878568.05027       171.18027        41.60027
R04  22833097.04328     -3829.55828        47.70028
E04  26199890.46027      2524.10827        45.60027
E10  26781380.50327       289.90327        45.10027
E12  25641039.54527        43.72027        42.80027
E16  25898145.45428       890.66228        48.60028
E18  20116172.13128      5954.25928        50.50028
E19  23805461.58926      1065.75426        38.30026
E23  26562008.27127     -2728.87827        45.80027
E29  26667912.35626      -961.43926        41.40026
E31  24315289.54228     -1507.72728        48.70028
E33  26097862.39326      -488.09026        40.50026
C19  25295036.77827     -2985.48627        46.30027
C21  23112107.28828      2251.32228        52.40028
C22  21542847.26428      -688.72328        50.80028
C24  26052658.48726      -720.73926        37.10026
C26  25430441.93826     -1441.15226        40.20026
C29  25712149.71627     -1562.88427        42.00027
C35  22835100.25627       233.03227        43.60027
C38  38158804.37727     -1078.07727        47.00027
C40  37633498.43828      -154.44928        49.90028
C44  23113171.25228      1784.44528        50.10028
> 2026 03 11 12 17 19.5799578  0 40                      
G05  23064353.57127     -2940.62827        41.70027
G10  24919141.92826      2271.74226        38.20026
G11  25219486.00426     -1117.71926        37.30026
G12  23597878.02027     -3135.75727        47.40027
G13  21947785.55527      -515.70827        42.80027
G15  20405860.90728       712.00428        48.90028
G18  23723264.71628      1071.19628        48.50028
G20  21763501.63226      -864.81226        37.40026
G21  25388477.51426     -3117.93926        38.80026
G23  21929798.30728      1087.03528        49.70028
G24  24705260.99526      1221.07326        40.10026
G25  22102805.83728     -2062.29728        50.60028
G29  20813604.43228      1735.71228        50.30028
J02  37663088.77727      -603.04527        45.90027
J03  41157775.45626      1213.62926        38.60026
R06  20169603.16528      2837.56128        51.90028
R09  22787696.39726     -2627.99726        38.60026
R05  19577405.43527     -1066.42927        47.00027
R19  21878543.39027       167.77227        41.70027
R04  22833807.17528     -3833.22828        47.80028
E04  26199414.91327      2520.80127        45.60027
E10  26781330.96127       286.54227        44.70027
E12  25641031.37427        40.53627        43.10027
E16  25897978.09428       886.89328        48.40028
E18  20115047.83328      5950.62828        50.20028
E19  23805263.65026      1061.84126        38.30026
E23  26562523.83827     -2732.15027        45.60027
E29  26668099.05026      -965.24126        41.40026
E31  24315574.26928     -1511.37328        48.80028
E33  26097954.35326      -491.53826        40.80026
C19  25295602.71027     -2988.96727        45.70027
C21  23111685.40428      2247.54128        52.60028
C22  21542979.09728      -692.69128        50.90028
C24  26052798.41426      -724.48426        36.10026
C26  25430718.57126     -1444.80726        39.70026
C29  25712446.13527     -1566.45527        42.80027
C35  22835056.71027       229.62227        43.20027
C38  38159007.26027     -1081.35427        47.30027
C40  37633526.54328      -158.00228        49.30028
C44  23112833.30928      1780.91328        49.70028
> 2026 03 11 12 17 20.5913731  0 40                      
G05  23064923.54227     -2938.23027        41.80027
G10  24918707.59426      2273.87326        38.10026
G11  25219690.22826     -1115.32526        37.50026
G12  23598482.76627     -3133.26127        46.50027
G13  21947886.95027      -513.70727        42.80027
G15  20405722.46828       713.63428        48.60028
G18  23723058.52428      1073.92728        48.00028
G20  21763667.78226      -862.82726        37.50026
G21  25389069.36926     -3114.86826        38.80026
G23  21929587.31928      1089.00728        51.00028
G24  24705035.01626      1224.03226        40.50026
G25  22103202.22828     -2060.07828        50.50028
G29  20813269.32928      1737.57328        50.40028
J02  37663198.86627      -600.96627        45.60027
J03  41157540.18426      1215.97726        38.20026
R06  20169064.20328      2839.22128        52.80028
R09  22788177.02926     -2625.18126        38.10026
R05  19577597.66727     -1065.09627        47.30027
R19  21878505.68226       169.92126        41.30026
R04  22834529.74028     -3831.25428        47.90028
E04  26198928.41527      2523.02127        45.60027
E10  26781272.56727       288.86427        44.60027
E12  25641022.74527        42.96127        43.80027
E16  25897804.87928       888.74428        48.80028
E18  20113899.39328      5952.68428        49.90028
E19  23805056.55826      1064.04026        37.90026
E23  26563046.44227     -2729.85827        45.70027
E29  26668279.89027      -963.49127        41.70027
E31  24315864.23328     -1509.48528        48.50028
E33  26098047.95326      -488.82926        40.90026
C19  25296175.67827     -2986.80227        45.70027
C21  23111250.47028      2249.48028        52.90028
C22  21543111.37028      -690.79328        51.20028
C24  26052932.48626      -722.98126        37.00026
C26  25430993.24626     -1441.77426        40.40026
C29  25712742.09527     -1564.36327        42.20027
C35  22835010.30727       231.33427        43.80027
C38  38159214.48227     -1079.16527        47.00027
C40  37633555.98728      -155.82228        49.20028
C44  23112489.51228      1783.25628        50.00028
> 2026 03 11 12 17 21.5870179  0 40                      
G05  23065470.13727     -2933.53627        42.00027
G10  24918266.37326      2278.28226        37.90026
G11  25219898.05726     -1110.89626        38.20026
G12  23599071.63227     -3128.59127        47.20027
G13  21947979.95927      -509.70127        42.50027
G15  20405578.64128       717.94128        48.90028
G18  23722850.54228      1078.58028        47.80028
G20  21763821.05026      -858.82526        37.10026
G21  25389659.13426     -3110.68526        38.90026
G23  21929376.33828      1093.34728        51.80028
G24  24704788.66026      1228.73126        39.20026
G25  22103587.83428     -2055.55828        50.20028
G29  20812933.03628      1741.98028        51.40028
J02  37663305.66627      -596.19027        45.70027
J03  41157313.31426      1220.60626        39.10026
R06  20168527.04928      2843.56328        52.40028
R09  22788677.45626     -2620.47726        38.50026
R05  19577798.90127     -1060.98227        47.20027
R19  21878459.88727       174.50227        41.60027
R04  22835239.72228     -3826.69728        47.70028
E04  26198445.52327      2527.96927        45.20027
E10  26781210.28327       293.98427        44.80027
E12  25641006.03027        47.79927        42.90027
E16  25897633.77128       893.24428        48.40028
E18  20112765.65228      5957.20628        50.00028
E19  23804845.57826      1068.56826        38.40026
E23  26563560.35927     -2725.06927        45.70027
E29  26668456.84126      -959.10026        41.30026
E31  24316144.91328     -1504.82228        48.60028
E33  26098133.46826      -483.94926        40.60026
C19  25296734.86427     -2982.14227        46.60027
C21  23110819.44228      2253.87828        52.50028
C22  21543235.25828      -686.57128        51.90028
C24  26053061.47026      -717.96326        36.00026
C26  25431264.93126     -1437.04726        40.00026
C29  25713036.56527     -1559.79227        42.00027
C35  22834960.91527       236.25127        44.10027
C38  38159411.21927     -1074.41727        46.80027
C40  37633578.54528      -151.08228        49.20028
C44  23112147.22328      1788.05728        49.60028
> 2026 03 11 12 17 22.5772513  0 40                      
G05  23066024.36927     -2932.96327        42.40027
G10  24917838.18426      2278.35626        38.20026
G11  25220105.42926     -1110.17926        38.10026
G12  23599656.74327     -3128.11727        46.60027
G13  21948071.01227      -509.95827        43.20027
G15  20405442.45128       717.54928        49.00028
G18  23722645.99928      1079.17228        48.60028
G20  21763982.55326      -858.80326        36.50026
G21  25390241.24726     -3109.93726        40.20026
G23  21929165.50028      1093.26428        51.40028
G24  24704561.93326      1229.51826        40.00026
G25  22103970.88428     -2055.46828        50.30028
G29  20812601.38128      1741.90828        50.70028
J02  37663421.30127      -595.96927        46.40027
J03  41157077.59326      1221.29826        38.60026
R06  20167997.53128      2843.22428        52.40028
R09  22789162.73626     -2620.06526        39.30026
R05  19577994.28127     -1061.52527        47.40027
R19  21878416.63227       174.85227        41.50027
R04  22835942.05128     -3826.69628        47.80028
E04  26197966.07027      2528.38327        45.80027
E10  26781151.73927       294.36827        44.90027
E12  25640994.55427        48.62927        43.70027
E16  25897462.50528       893.25528        48.80028
E18  20111641.64528      5957.31528        50.20028
E19  23804644.03326      1068.64726        38.50026
E23  26564070.22227     -2724.60027        45.70027
E29  26668635.73327      -958.87027        41.80027
E31  24316425.13428     -1504.76528        49.10028
E33  26098220.32326      -483.42226        41.40026
C19  25297293.29327     -2981.91727        46.00027
C21  23110391.85428      2253.95728        52.80028
C22  21543361.08628      -686.74928        51.10028
C24  26053185.50026      -717.91226        36.60026
C26  25431530.46326     -1436.36226        40.30026
C29  25713328.77827     -1559.41227        42.20027
C35  22834912.26427       236.36527        43.80027
C38  38159609.89727     -1073.88927        46.90027
C40  37633605.74228      -150.95528        49.90028
C44  23111806.87428      1788.50228        50.00028
> 2026 03 11 12 17 23.5907834  0 40                      
G05  23066574.30827     -2933.27327        42.20027
G10  24917379.62226      2277.60326        37.80026
G11  25220308.20926     -1110.84126        38.50026
G12  23600244.75627     -3128.34627        46.40027
G13  21948153.27527      -510.91327        43.10027
G15  20405290.57628       716.66128        48.80028
G18  23722420.97528      1079.00828        48.70028
G20  21764132.87026      -859.91126        36.30026
G21  25390824.16326     -3110.13226        39.60026
G23  21928941.07528      1092.52828        51.50028
G24  24704309.02826      1229.20926        39.90026
G25  22104352.34028     -2055.96828        49.20028
G29  20812250.74428      1741.21028        50.40028
J02  37663518.85427      -596.29927        45.80027
J03  41156819.29226      1221.04426        39.20026
R06  20167448.73128      2842.30028        52.60028
R09  22789652.11726     -2620.33226        38.60026
R05  19578182.07227     -1062.79227        47.10027
R19  21878375.38126       174.35326        41.30026
R04  22836646.38428     -3827.46028        48.00028
E04  26197465.23727      2527.94527        46.50027
E10  26781084.10627       294.06527        44.90027
E12  25640972.48927        48.11327        43.00027
E16  25897274.65528       892.39128        49.00028
E18  20110477.37128      5956.57828        50.10028
E19  23804421.10726      1067.81826        38.50026
E23  26564580.58927     -2725.02127        45.50027
E29  26668804.33626      -959.88926        41.20026
E31  24316700.46428     -1505.40628        49.00028
E33  26098302.58626      -483.82526        40.70026
C19  25297856.42427     -2982.57527        46.40027
C21  23109942.88528      2253.19128        52.90028
C22  21543481.42328      -687.63428        51.00028
C24  26053313.63126      -718.52326        36.60026
C26  25431800.09626     -1436.68826        39.80026
C29  25713615.50027     -1560.24827        41.90027
C35  22834854.52427       235.88927        44.10027
C38  38159803.68327     -1074.14127        47.20027
C40  37633618.75328      -151.39228        49.10028
C44  23111449.34228      1788.08128        49.80028
> 2026 03 11 12 17 24.5803533  0 40                      
G05  23067125.46027     -2934.37527        42.70027
G10  24916947.15526      2276.63626        37.80026
G11  25220514.90026     -1111.25826        38.50026
G12  23600832.18327     -3129.34727        47.10027
G13  21948251.44027      -512.34027        42.80027
G15  20405150.70728       715.06628        48.30028
G18  23722216.35028      1078.08628        48.70028
G20  21764293.39226      -861.65226        35.80026
G21  25391407.99326     -3110.94026        39.30026
G23  21928732.85328      1091.21628        52.30028
G24  24704073.82426      1228.75826        39.50026
G25  22104738.00728     -2057.17228        50.30028
G29  20811922.30528      1739.99928        49.90028
J02  37663626.01327      -597.42227        45.80027
J03  41156593.08226      1220.25926        39.80026
R06  20166917.63228      2840.86928        52.20028
R09  22790131.91926     -2621.38326        38.20026
R05  19578379.46927     -1064.48827        47.40027
R19  21878356.92726       173.37426        41.00026
R04  22837356.12628     -3828.74228        48.10028
E04  26196986.00327      2527.18827        45.40027
E10  26781024.58127       293.27227        44.70027
E12  25640960.33127        47.43427        43.60027
E16  25897105.40628       891.08828        48.80028
E18  20109354.48228      5955.43128        50.60028
E19  23804221.27926      1066.60626        38.20026
E23  26565092.76827     -2725.88127        46.10027
E29  26668981.04726      -961.03626        41.30026
E31  24316983.30128     -1506.58528        49.10028
E33  26098392.95726      -484.44726        41.10026
C19  25298417.76927     -2983.80927        45.90027
C21  23109515.81428      2251.83828        52.90028
C22  21543608.96928      -689.12428        51.30028
C24  26053446.27325      -718.50025        35.30025
C26  25432065.24626     -1437.72326        39.60026
C29  25713907.33127     -1561.27327        42.10027
C35  22834807.59027       234.61027        43.80027
C38  38160004.97727     -1075.16527        47.00027
C40  37633645.86828      -152.48828        49.70028
C44  23111108.31128      1787.15028        50.20028
> 2026 03 11 12 17 25.5945013  0 40                      
G05  23067666.31527     -2935.88527        42.50027
G10  24916488.20226      2274.55726        37.70026
G11  25220699.30126     -1113.01226        38.80026
G12  23601410.81127     -3130.76127        47.30027
G13  21948327.01727      -514.64327        43.00027
G15  20404989.44828       712.82228        48.20028
G18  23721984.94028      1076.79728        49.20028
G20  21764436.72226      -863.63426        36.90026
G21  25391986.32226     -3112.23726        39.00026
G23  21928496.94628      1089.23028        51.80028
G24  24703810.03626      1227.63926        40.20026
G25  22105111.87828     -2058.98328        50.30028
G29  20811562.58328      1737.87728        50.30028
J02  37663717.17927      -598.86227        45.70027
J03  41156331.99226      1218.85326        39.40026
R06  20166353.75228      2838.51828        52.40028
R09  22790566.64726     -2622.79726        38.10026
R05  19578553.97727     -1066.84727        47.40027
R19  21878283.80726       171.52826        41.10026
R04  22838063.06628     -3830.64028        47.70028
E04  26196474.58627      2525.61627        45.40027
E10  26780943.06727       291.79027        44.60027
E12  25640929.78227        45.94627        43.50027
E16  25896910.57028       889.11328        48.50028
E18  20108180.22528      5953.52728        49.80028
E19  23803988.67026      1064.64726        38.30026
E23  26565593.15127     -2727.43227        45.60027
E29  26669148.96027      -962.99927        41.50027
E31  24317248.64728     -1508.47028        48.60028
E33  26098459.54126      -485.96726        41.10026
C19  25298968.51727     -2985.39527        45.80027
C21  23109057.76028      2249.96328        53.10028
C22  21543717.52328      -691.08928        51.30028
C24  26053559.62426      -720.90826        36.20026
C26  25432318.30126     -1439.01426        39.40026
C29  25714181.97027     -1562.86427        42.30027
C35  22834735.37027       232.92227        43.30027
C38  38160187.88027     -1076.81027        47.20027
C40  37633653.39228      -153.96128        49.20028
C44  23110740.79528      1785.69028        50.00028
> 2026 03 11 12 17 26.5846510  0 40                      
G05  23068229.19627     -2929.96327        43.10027
G10  24916062.06826      2280.18126        37.40026
G11  25220916.82126     -1107.20926        38.60026
G12  23602009.36728     -3125.02628        47.50028
G13  21948427.91827      -509.40327        42.70027
G15  20404863.70528       718.07828        48.40028
G18  23721789.04627      1082.53427        47.40027
G20  21764607.47426      -858.32026        36.40026
G21  25392580.08126     -3106.22026        39.30026
G23  21928301.65128      1094.46928        52.40028
G24  24703586.56126      1233.23726        39.70026
G25  22105506.87528     -2053.44528        50.40028
G29  20811243.47428      1743.31928        50.00028
J02  37663841.16427      -593.27027        45.60027
J03  41156105.81926      1224.53226        38.70026
R06  20165834.38228      2843.67328        52.60028
R09  22791095.65126     -2616.85826        38.30026
R05  19578754.40927     -1062.09727        47.20027
R19  21878252.79926       177.38426        40.90026
R04  22838777.04228     -3825.07028        47.50028
E04  26196008.87927      2531.31327        45.70027
E10  26780896.47027       297.67027        44.80027
E12  25640927.55427        51.86227        43.40027
E16  25896748.25328       894.61128        48.50028
E18  20107066.66628      5959.05528        50.20028
E19  23803798.47226      1070.10326        38.60026
E23  26566116.75927     -2721.52427        46.00027
E29  26669333.20327      -957.74127        41.90027
E31  24317542.01428     -1503.03928        48.70028
E33  26098558.64226      -479.86026        40.80026
C19  25299537.99327     -2979.80027        45.50027
C21  23108640.61928      2255.22928        52.60028
C22  21543854.69828      -685.88228        51.20028
C24  26053695.30125      -716.23625        35.10025
C26  25432594.87926     -1432.87526        40.00026
C29  25714485.83027     -1557.49027        42.10027
C35  22834701.06427       238.31427        43.60027
C38  38160398.20527     -1070.97027        46.30027
C40  37633686.83928      -148.62128        49.00028
C44  23110412.09328      1791.47928        50.50028
> 2026 03 11 12 17 27.5785639  0 40                      
G05  23068790.35927     -2932.36827        42.50027
G10  24915648.60526      2277.80926        37.60026
G11  25221136.52026     -1109.11826        38.00026
G12  23602608.60427     -3127.05327        47.10027
G13  21948530.69827      -512.15327        42.70027
G15  20404736.24528       715.46228        48.60028
G18  23721592.33328      1080.54428        48.60028
G20  21764772.91126      -861.40326        36.60026
G21  25393177.51926     -3108.13826        38.80026
G23  21928104.93928      1091.93228        51.30028
G24  24703359.27026      1231.66526        40.10026
G25  22105903.15228     -2055.80528        49.70028
G29  20810921.14928      1740.91728        50.50028
J02  37663962.23127      -595.50727        45.60027
J03  41155900.11326      1222.37826        39.20026
R06  20165312.39528      2841.11728        52.30028
R09  22791581.56626     -2619.08626        39.30026
R05  19578965.11427     -1064.91227        47.40027
R19  21878243.45726       174.89226        40.80026
R04  22839493.79728     -3827.70528        47.60028
E04  26195537.25727      2529.15127        45.70027
E10  26780850.55327       295.52427        44.50027
E12  25640928.10527        49.78727        43.30027
E16  25896589.01428       892.06228        48.60028
E18  20105948.39128      5956.61328        49.80028
E19  23803607.45526      1067.56326        37.80026
E23  26566640.44727     -2723.68127        45.70027
E29  26669525.62226      -960.10826        41.40026
E31  24317835.16328     -1505.46528        48.90028
E33  26098656.92626      -481.79226        40.60026
C19  25300109.64827     -2982.14527        46.00027
C21  23108223.56028      2252.77528        53.10028
C22  21543992.85428      -688.64928        50.70028
C24  26053841.55126      -717.67526        36.20026
C26  25432878.73426     -1435.17926        40.30026
C29  25714789.47227     -1559.77927        42.10027
C35  22834666.53927       236.21327        43.80027
C38  38160609.51027     -1072.78927        46.80027
C40  37633724.26528      -150.62428        48.60028
C44  23110080.77428      1789.39928        50.00028
> 2026 03 11 12 17 28.5886034  0 40                      
G05  23069337.09527     -2929.19427        43.00027
G10  24915192.83626      2280.05126        37.90026
G11  25221338.79526     -1106.59626        38.90026
G12  23603197.61128     -3123.98328        47.50028
G13  21948621.15127      -509.67427        42.90027
G15  20404582.66628       717.49128        48.30028
G18  23721370.40228      1083.76528        47.80028
G20  21764932.61625      -858.89225        35.20025
G21  25393752.43626     -3105.45026        38.60026
G23  21927876.11228      1094.52928        51.00028
G24  24703114.55526      1234.53226        41.10026
G25  22106284.10328     -2053.05128        49.60028
G29  20810570.30728      1743.25528        50.00028
J02  37664060.77827      -592.96827        45.40027
J03  41155640.70826      1225.46126        38.90026
R06  20164760.39228      2843.17528        52.60028
R09  22792064.44726     -2615.70026        39.00026
R05  19579152.99927     -1063.10627        47.30027
R19  21878192.40826       177.88926        40.70026
R04  22840206.61928     -3824.92928        47.60028
E04  26195035.61927      2532.07927        45.70027
E10  26780777.91827       298.53827        45.00027
E12  25640903.43727        52.72927        43.20027
E16  25896401.25928       894.39028        48.50028
E18  20104788.70928      5959.04328        49.90028
E19  23803385.52426      1070.38426        39.00026
E23  26567147.31227     -2720.86027        45.50027
E29  26669698.51727      -957.61627        41.90027
E31  24318108.78928     -1502.91428        49.00028
E33  26098734.48726      -479.14626        40.70026
C19  25300667.47727     -2979.60327        45.50027
C21  23107775.58528      2255.28928        52.60028
C22  21544109.38828      -686.24228        50.80028
C24  26053969.17726      -714.92026        35.60026
C26  25433138.57026     -1432.46426        40.60026
C29  25715075.08927     -1557.42927        41.70027
C35  22834602.89827       238.82027        43.10027
C38  38160801.59227     -1070.12127        46.30027
C40  37633739.46928      -148.17228        48.90028
C44  23109721.53828      1792.15528        50.30028
> 2026 03 11 12 17 29.5806730  0 40                      
G05  23069881.29027     -2927.99027        42.60027
G10  24914745.31726      2281.20726        37.80026
G11  25221531.93326     -1104.92126        39.20026
G12  23603771.48528     -3122.64628        47.50028
G13  21948702.16627      -508.90227        43.10027
G15  20404436.13928       718.45828        49.10028
G18  23721152.52428      1085.19028        49.30028
G20  21765077.78726      -858.06426        36.40026
G21  25394330.50726     -3103.51026        39.00026
G23  21927658.53428      1095.56328        51.20028
G24  24702867.29726      1236.45626        40.20026
G25  22106659.21528     -2051.89328        50.20028
G29  20810230.71328      1744.40328        50.00028
J02  37664158.58227      -591.40827        45.30027
J03  41155385.95626      1227.23726        38.80026
R06  20164217.83928      2844.24428        52.50028
R09  22792540.88926     -2614.22126        38.90026
R05  19579338.04327     -1062.18827        47.40027
R19  21878143.31326       179.32326        40.70026
R04  22840898.01228     -3823.84528        47.60028
E04  26194546.42927      2533.64527        45.80027
E10  26780707.83827       300.27727        44.60027
E12  25640880.42427        54.58427        43.50027
E16  25896222.65528       895.66728        48.80028
E18  20103651.66828      5960.49428        50.20028
E19  23803169.44526      1071.52626        38.20026
E23  26567648.33627     -2719.26027        45.60027
E29  26669863.17427      -956.41327        42.20027
E31  24318380.47228     -1501.66728        48.90028
E33  26098813.40427      -477.06627        41.50027
C19  25301218.86727     -2978.12227        46.00027
C21  23107337.06028      2256.33728        52.60028
C22  21544229.67728      -685.29628        51.00028
C24  26054083.77025      -713.50325        34.50025
C26  25433394.36426     -1430.92826        40.70026
C29  25715352.16927     -1555.98127        42.30027
C35  22834545.70927       240.15827        42.80027
C38  38160991.43227     -1068.44527        46.40027
C40  37633753.93128      -146.68928        49.60028
C44  23109371.15228      1793.70628        50.70028
> 2026 03 11 12 17 30.5923156  0 40                      
G05  23070432.17327     -2929.48427        42.90027
G10  24914299.69026      2279.55326        37.60026
G11  25221744.95026     -1106.60726        38.90026
G12  23604366.43827     -3124.11527        47.30027
G13  21948790.76927      -511.12027        43.10027
G15  20404290.00428       716.31128        49.10028
G18  23720935.93828      1083.86328        49.20028
G20  21765242.83626      -859.85026        37.10026
G21  25394919.16426     -3104.59826        39.30026
G23  21927441.64928      1093.51328        52.30028
G24  24702626.12826      1235.48226        40.70026
G25  22107048.50928     -2053.63928        50.90028
G29  20809888.21528      1742.39728        50.30028
J02  37664266.37127      -592.95827        46.60027
J03  41155149.58326      1225.59326        39.30026
R06  20163671.48128      2841.85328        52.40028
R09  22793024.61826     -2615.84226        39.00026
R05  19579532.17228     -1064.83028        47.60028
R19  21878111.39926       177.64226        40.50026
R04  22841614.08028     -3825.83628        47.90028
E04  26194051.63627      2532.15627        45.80027
E10  26780643.84727       298.65327        44.30027
E12  25640862.60127        52.91127        43.30027
E16  25896043.54328       893.66228        48.90028
E18  20102495.83228      5958.52028        49.60028
E19  23802959.15526      1069.51826        38.30026
E23  26568164.14327     -2720.63127        45.50027
E29  26670041.71526      -958.21526        41.40026
E31  24318662.14128     -1503.47628        48.90028
E33  26098900.50826      -478.50826        40.70026
C19  25301783.84027     -2979.81727        46.10027
C21  23106895.92928      2254.42028        52.90028
C22  21544353.95528      -687.40028        51.10028
C24  26054217.64125      -715.67625        35.00025
C26  25433666.14026     -1431.84826        40.20026
C29  25715650.92627     -1557.84227        41.90027
C35  22834495.50827       238.25627        43.30027
C38  38161191.25827     -1070.01127        46.80027
C40  37633775.98028      -148.35828        49.30028
C44  23109019.95928      1792.11928        50.50028
> 2026 03 11 12 17 31.5847502  0 40                      
G05  23070991.83127     -2928.06127        42.30027
G10  24913874.82926      2280.51826        36.90026
G11  25221953.25126     -1105.62026        38.70026
G12  23604957.87428     -3122.91528        47.50028
G13  21948892.94427      -510.24527        42.70027
G15  20404155.04328       717.03528        49.00028
G18  23720735.92228      1085.07328        49.00028
G20  21765409.46626      -859.36726        36.80026
G21  25395509.40126     -3103.43526        39.40026
G23  21927236.23628      1094.38428        51.40028
G24  24702385.64026      1236.85926        39.50026
G25  22107437.58528     -2052.57028        50.40028
G29  20809560.78728      1743.26728        49.60028
J02  37664381.13727      -591.87127        45.60027
J03  41154912.99226      1227.22826        39.20026
R06  20163146.49028      2842.58228        52.90028
R09  22793503.63226     -2614.59726        38.90026
R05  19579734.17828     -1064.37828        47.50028
R19  21878069.97326       178.67126        40.50026
R04  22842324.53427     -3824.93627        47.40027
E04  26193573.11327      2533.44327        45.80027
E10  26780589.53027       299.99227        44.90027
E12  25640853.55227        54.35727        43.90027
E16  25895875.30428       894.54028        48.90028
E18  20101372.45528      5959.46228        50.50028
E19  23802755.84126      1070.39626        38.60026
E23  26568680.93127     -2719.40027        45.60027
E29  26670220.33727      -957.51327        41.50027
E31  24318946.88928     -1502.59828        48.80028
E33  26098990.09126      -477.18926        40.80026
C19  25302347.69527     -2978.75227        46.10027
C21  23106470.46928      2255.32028        53.00028
C22  21544484.31028      -686.73228        50.80028
C24  26054357.58925      -714.73225        35.10025
C26  25433936.19826     -1430.56126        39.70026
C29  25715944.96827     -1556.68927        42.10027
C35  22834448.68627       239.05127        43.40027
C38  38161392.36427     -1068.83027        46.80027
C40  37633805.90428      -147.26228        49.20028
C44  23108682.03828      1793.30628        50.20028
> 2026 03 11 12 17 32.5781892  0 40                      
G05  23071546.08927     -2926.22127        43.00027
G10  24913436.47526      2281.83526        37.10026
G11  25222163.94826     -1103.11226        39.40026
G12  23605548.70727     -3120.81427        46.50027
G13  21948990.31827      -508.97627        42.90027
G15  20404023.67728       718.38528        48.90028
G18  23720528.40828      1087.40528        47.90028
G20  21765562.30325      -857.78525        35.30025
G21  25396104.73126     -3101.25526        39.60026
G23  21927028.72228      1096.03828        51.30028
G24  24702162.83726      1239.15326        40.50026
G25  22107824.86028     -2050.83128        50.70028
G29  20809230.35828      1744.94628        49.80028
J02  37664488.40627      -589.86527        45.50027
J03  41154694.08626      1228.86026        38.70026
R06  20162614.90028      2844.02828        52.50028
R09  22794005.72626     -2612.41926        39.00026
R05  19579923.88928     -1063.05328        47.70028
R19  21878032.74126       180.45326        40.50026
R04  22843037.98228     -3823.19228        48.00028
E04  26193095.48627      2535.48927        45.70027
E10  26780530.11327       302.29827        44.80027
E12  25640844.80127        56.76527        43.30027
E16  25895706.46428       896.20928        48.80028
E18  20100246.07728      5961.30528        50.50028
E19  23802549.22626      1072.16926        37.70026
E23  26569195.91727     -2717.37727        45.60027
E29  26670405.85127      -955.96127        41.80027
E31  24319232.23428     -1500.78328        48.60028
E33  26099081.47026      -475.03026        40.40026
C19  25302909.14927     -2976.87827        45.70027
C21  23106046.50528      2256.98028        52.50028
C22  21544614.96228      -685.18428        51.00028
C24  26054487.34225      -712.64425        35.30025
C26  25434205.95426     -1428.81226        39.80026
C29  25716236.00927     -1554.96427        41.60027
C35  22834403.06027       241.26127        43.30027
C38  38161595.26627     -1066.51927        46.90027
C40  37633834.02728      -145.37828        49.20028
C44  23108343.21528      1795.45028        50.40028
> 2026 03 11 12 17 33.5895848  0 40                      
G05  23072095.04727     -2925.24427        43.20027
G10  24912976.63226      2282.59326        37.40026
G11  25222357.05226     -1102.62526        39.10026
G12  23606128.54428     -3119.85628        47.50028
G13  21949067.10327      -508.73427        43.00027
G15  20403865.72428       718.64728        49.50028
G18  23720300.30428      1088.43028        48.90028
G20  21765699.64626      -857.60226        36.60026
G21  25396671.37726     -3100.12126        38.60026
G23  21926797.32028      1096.48428        51.50028
G24  24701902.35526      1240.45526        40.80026
G25  22108199.33828     -2050.14928        50.40028
G29  20808875.44228      1745.34928        50.20028
J02  37664585.27727      -589.14827        45.30027
J03  41154433.00526      1229.93026        39.80026
R06  20162055.82628      2844.27428        52.30028
R09  22794472.24226     -2611.18326        38.10026
R05  19580109.49927     -1063.08027        47.40027
R19  21877976.41826       181.51326        40.40026
R04  22843740.43428     -3822.58928        47.60028
E04  26192586.17627      2536.37727        45.90027
E10  26780454.00427       303.30527        44.70027
E12  25640814.26027        57.74927        43.50027
E16  25895514.33528       896.66528        49.00028
E18  20099079.32328      5961.90428        50.10028
E19  23802328.61726      1073.01726        38.60026
E23  26569698.40727     -2716.52927        45.60027
E29  26670569.27527      -955.35927        41.60027
E31  24319501.18628     -1500.24928        49.20028
E33  26099153.45826      -473.95226        40.80026
C19  25303463.50327     -2976.24027        46.30027
C21  23105591.45828      2257.38128        52.90028
C22  21544726.82228      -684.83328        51.10028
C24  26054603.10025      -711.78925        34.70025
C26  25434460.21626     -1427.73826        39.80026
C29  25716518.45127     -1554.37827        42.40027
C35  22834339.84227       242.02827        43.20027
C38  38161781.17527     -1065.81327        47.20027
C40  37633841.56028      -144.70128        49.10028
C44  23107979.00528      1796.31528        50.80028
> 2026 03 11 12 17 34.5800124  0 40                      
G05  23072645.55627     -2921.53627        42.80027
G10  24912546.51926      2286.21826        36.90026
G11  25222568.79526     -1098.89226        38.40026
G12  23606724.32127     -3116.19027        47.10027
G13  21949165.52527      -505.68527        43.10027
G15  20403735.40428       721.54528        49.30028
G18  23720099.53328      1092.11128        48.30028
G20  21765870.91726      -854.23526        36.30026
G21  25397263.55626     -3096.38626        38.50026
G23  21926597.44928      1099.69928        52.00028
G24  24701666.80826      1244.22926        40.20026
G25  22108590.05828     -2046.85528        51.10028
G29  20808550.25728      1748.59528        50.00028
J02  37664701.68627      -585.50927        45.00027
J03  41154208.55026      1233.54726        38.80026
R06  20161532.77728      2847.31328        52.60028
R09  22794967.28926     -2607.64226        37.90026
R05  19580314.04727     -1060.20827        47.40027
R19  21877955.52326       184.90526        40.30026
R04  22844452.83028     -3819.32928        47.90028
E04  26192114.09327      2539.95527        45.90027
E10  26780401.93027       306.95127        44.70027
E12  25640807.45427        61.34527        42.80027
E16  25895350.13828       899.97328        49.20028
E18  20097960.28828      5965.25428        49.80028
E19  23802130.24426      1076.25926        38.80026
E23  26570215.63927     -2712.81827        45.20027
E29  26670755.23627      -952.13027        41.50027
E31  24319788.77728     -1496.83528        48.90028
E33  26099246.78426      -470.25526        40.70026
C19  25304028.10227     -2972.85727        45.80027
C21  23105170.63928      2260.70128        51.80028
C22  21544860.61928      -681.71928        50.90028
C24  26054744.69225      -708.22425        35.00025
C26  25434735.81526     -1423.86526        40.50026
C29  25716817.43427     -1550.85727        42.40027
C35  22834299.46027       245.23027        43.50027
C38  38161986.32327     -1062.22227        46.50027
C40  37633874.62728      -141.24628        49.10028
C44  23107643.92728      1799.93428        49.90028
> 2026 03 11 12 17 35.5935985  0 40                      
G05  23073194.43127     -2923.47927        43.00027
G10  24912092.88826      2283.97926        37.40026
G11  25222759.71826     -1100.80726        38.30026
G12  23607314.26827     -3118.00927        46.60027
G13  21949251.82127      -508.22227        42.70027
G15  20403581.86628       719.12928        49.00028
G18  23719879.74028      1090.44328        48.90028
G20  21766029.46326      -856.94626        35.70026
G21  25397848.70726     -3098.21826        39.10026
G23  21926373.45928      1097.36528        52.30028
G24  24701413.43926      1242.61326        40.30026
G25  22108973.44828     -2048.84328        50.40028
G29  20808201.25328      1746.26728        50.00028
J02  37664803.57027      -587.63927        45.80027
J03  41153961.77726      1231.92626        39.00026
