NMEA,$GPGSV,4,1,14,03,01,054,32,06,81,035,44,11,51,213,45,13,20,228,33,1*62,1772176775015
NMEA,$GPGSV,4,2,14,14,42,081,37,17,27,028,38,19,41,359,42,21,14,183,34,1*64,1772176775015
NMEA,$GPGSV,4,3,14,22,47,055,40,24,23,309,43,30,28,160,41,15,02,251,,1*60,1772176775015
NMEA,$GPGSV,4,4,14,40,00,000,46,41,00,000,45,1*63,1772176775015
NMEA,$GLGSV,2,1,06,86,54,248,40,73,13,135,26,76,03,332,30,75,49,005,35,1*72,1772176775015
NMEA,$GLGSV,2,2,06,87,18,222,24,85,45,004,33,1*74,1772176775015
NMEA,$GAGSV,3,1,10,02,47,024,40,03,17,189,33,07,05,289,22,08,22,241,33,7*78,1772176775015
NMEA,$GAGSV,3,2,10,14,50,344,44,15,25,207,36,25,26,089,33,30,21,326,39,7*7C,1772176775015
NMEA,$GAGSV,3,3,10,34,76,171,43,36,44,042,32,7*76,1772176775015
NMEA,$GQGSV,1,1,02,02,23,080,40,03,24,055,35,1*6B,1772176775015
NMEA,$GBGSV,7,1,25,60,72,171,42,59,18,099,37,43,05,041,39,41,08,149,38,1*73,1772176775015
NMEA,$GBGSV,7,2,25,40,26,034,33,39,30,156,39,38,30,114,39,37,66,347,45,1*71,1772176775015
NMEA,$GBGSV,7,3,25,32,04,200,26,30,12,239,31,28,52,005,42,27,57,281,46,1*7C,1772176775015
NMEA,$GBGSV,7,4,25,25,08,137,33,23,54,123,43,16,37,154,38,13,27,143,37,1*72,1772176775015
NMEA,$GBGSV,7,5,25,10,47,018,32,09,59,157,37,08,26,132,34,07,39,034,35,1*7C,1772176775015
NMEA,$GBGSV,7,6,25,06,44,155,39,05,61,230,41,03,49,111,33,02,68,159,38,1*7E,1772176775015
NMEA,$GBGSV,7,7,25,01,14,096,34,1*4D,1772176775015
NMEA,$GBGSV,3,1,11,23,54,123,46,25,08,137,35,27,57,281,48,28,52,005,46,3*72,1772176775015
NMEA,$GBGSV,3,2,11,30,12,239,33,37,66,347,47,38,30,114,41,39,30,156,39,3*72,1772176775015
NMEA,$GBGSV,3,3,11,40,26,034,36,41,08,149,40,43,05,041,41,3*41,1772176775015
NMEA,$GNGSA,A,3,06,11,13,14,17,19,21,22,24,30,,,0.6,0.4,0.5,1*3F,1772176775018
NMEA,$GNGSA,A,3,73,75,85,86,,,,,,,,,0.6,0.4,0.5,2*30,1772176775018
NMEA,$GNGSA,A,3,02,03,07,08,14,15,25,30,34,36,,,0.6,0.4,0.5,3*3D,1772176775018
NMEA,$GNGSA,A,3,02,03,05,06,07,09,10,13,16,23,25,27,0.6,0.4,0.5,4*38,1772176775018
NMEA,$GNGSA,A,3,02,03,,,,,,,,,,,0.6,0.4,0.5,5*33,1772176775018
NMEA,$GNVTG,,T,,M,0.0,N,0.0,K,A*3D,1772176775018
NMEA,$GNDTM,W84,,0000.000000,N,00000.000000,E,0.000,W84*41,1772176775018
NMEA,$GNRMC,071935.00,A,1304.091197,N,07735.506075,E,0.0,,270226,1.1,W,A,V*61,1772176775018
NMEA,$GNGNS,071935.00,1304.091197,N,07735.506075,E,AAAAAN,48,0.4,958.7,-85.8,,,V*01,1772176775018
NMEA,$GNGGA,071935.00,1304.091197,N,07735.506075,E,1,12,0.4,958.7,M,-85.8,M,,*51,1772176775018
NMEA,$GPGSV,4,1,14,03,01,054,33,06,81,035,44,11,51,213,45,13,20,228,33,1*63,1772176776015
NMEA,$GPGSV,4,2,14,14,42,081,38,17,27,028,38,19,41,359,42,21,14,183,34,1*6B,1772176776015
NMEA,$GPGSV,4,3,14,22,47,055,41,24,23,309,43,30,28,160,41,15,02,251,,1*61,1772176776015
NMEA,$GPGSV,4,4,14,40,00,000,46,41,00,000,45,1*63,1772176776015
NMEA,$GLGSV,2,1,06,86,54,248,40,73,13,135,28,76,03,332,30,75,49,005,35,1*7C,1772176776015
NMEA,$GLGSV,2,2,06,87,18,222,22,85,45,004,33,1*72,1772176776015
NMEA,$GAGSV,3,1,10,02,47,024,41,03,17,189,34,07,05,289,22,08,22,241,34,7*79,1772176776015
NMEA,$GAGSV,3,2,10,14,50,344,44,15,25,207,36,25,26,089,34,30,21,326,39,7*7B,1772176776015
NMEA,$GAGSV,3,3,10,34,76,171,44,36,44,042,33,7*70,1772176776015
NMEA,$GQGSV,1,1,02,02,23,080,40,03,24,055,35,1*6B,1772176776015
NMEA,$GBGSV,7,1,25,60,72,171,42,59,18,099,37,43,05,041,39,41,08,149,38,1*73,1772176776015
NMEA,$GBGSV,7,2,25,40,26,034,33,39,30,156,39,38,30,114,39,37,66,347,45,1*71,1772176776015
NMEA,$GBGSV,7,3,25,32,04,200,26,30,12,239,31,28,52,005,42,27,57,281,46,1*7C,1772176776015
NMEA,$GBGSV,7,4,25,25,08,137,33,23,54,123,43,16,37,154,38,13,27,143,37,1*72,1772176776015
NMEA,$GBGSV,7,5,25,10,47,018,32,09,59,157,37,08,26,132,34,07,39,034,35,1*7C,1772176776015
NMEA,$GBGSV,7,6,25,06,44,155,39,05,61,230,41,03,49,111,33,02,68,159,38,1*7E,1772176776015
NMEA,$GBGSV,7,7,25,01,14,096,34,1*4D,1772176776015
NMEA,$GBGSV,3,1,11,23,54,123,46,25,08,137,35,27,57,281,48,28,52,005,46,3*72,1772176776015
NMEA,$GBGSV,3,2,11,30,12,239,33,37,66,347,47,38,30,114,41,39,30,156,39,3*72,1772176776015
NMEA,$GBGSV,3,3,11,40,26,034,36,41,08,149,40,43,05,041,41,3*41,1772176776015
NMEA,$GNGSA,A,3,06,11,13,14,17,19,21,22,24,30,,,0.6,0.4,0.5,1*3F,1772176776018
NMEA,$GNGSA,A,3,73,75,85,86,,,,,,,,,0.6,0.4,0.5,2*30,1772176776018
NMEA,$GNGSA,A,3,02,03,07,08,14,15,25,30,34,36,,,0.6,0.4,0.5,3*3D,1772176776018
NMEA,$GNGSA,A,3,02,03,05,06,07,09,10,13,16,23,25,27,0.6,0.4,0.5,4*38,1772176776018
NMEA,$GNGSA,A,3,02,03,,,,,,,,,,,0.6,0.4,0.5,5*33,1772176776018
NMEA,$GNVTG,,T,,M,0.0,N,0.0,K,A*3D,1772176776018
NMEA,$GNDTM,W84,,0000.000000,N,00000.000000,E,0.000,W84*41,1772176776018
NMEA,$GNRMC,071936.00,A,1304.091197,N,07735.506075,E,0.0,,270226,1.1,W,A,V*62,1772176776018
NMEA,$GNGNS,071936.00,1304.091197,N,07735.506075,E,AAAAAN,48,0.4,958.7,-85.8,,,V*02,1772176776018
NMEA,$GNGGA,071936.00,1304.091197,N,07735.506075,E,1,12,0.4,958.7,M,-85.8,M,,*52,1772176776018
NMEA,$GPGSV,4,1,14,03,01,054,32,06,81,035,44,11,51,213,45,13,20,228,32,1*63,1772176777017
NMEA,$GPGSV,4,2,14,14,42,081,37,17,27,028,38,19,41,359,42,21,14,183,33,1*63,1772176777017
NMEA,$GPGSV,4,3,14,22,47,055,40,24,23,309,42,30,28,160,41,15,02,251,,1*61,1772176777017
NMEA,$GPGSV,4,4,14,40,00,000,47,41,00,000,45,1*62,1772176777017
NMEA,$GLGSV,2,1,06,86,54,248,39,73,13,135,27,76,03,332,30,75,49,005,35,1*7D,1772176777017
NMEA,$GLGSV,2,2,06,87,18,222,22,85,45,004,33,1*72,1772176777017
NMEA,$GAGSV,3,1,10,02,47,024,40,03,17,189,33,07,05,289,22,08,22,241,34,7*7F,1772176777017
NMEA,$GAGSV,3,2,10,14,50,344,43,15,25,207,35,25,26,089,33,30,21,326,39,7*78,1772176777017
NMEA,$GAGSV,3,3,10,34,76,171,44,36,44,042,33,7*70,1772176777017
NMEA,$GQGSV,1,1,02,02,23,080,40,03,24,055,35,1*6B,1772176777017
NMEA,$GBGSV,7,1,25,60,72,171,42,59,18,099,37,43,05,041,39,41,08,149,38,1*73,1772176777017
NMEA,$GBGSV,7,2,25,40,26,034,33,39,30,156,39,38,30,114,39,37,66,347,45,1*71,1772176777017
NMEA,$GBGSV,7,3,25,32,04,200,26,30,12,239,31,28,52,005,42,27,57,281,46,1*7C,1772176777017
NMEA,$GBGSV,7,4,25,25,08,137,33,23,54,123,43,16,37,154,38,13,27,143,37,1*72,1772176777017
NMEA,$GBGSV,7,5,25,10,47,018,32,09,59,157,37,08,26,132,34,07,39,034,35,1*7C,1772176777017
NMEA,$GBGSV,7,6,25,06,44,155,39,05,61,230,41,03,49,111,33,02,68,159,38,1*7E,1772176777017
NMEA,$GBGSV,7,7,25,01,14,096,34,1*4D,1772176777017
NMEA,$GBGSV,3,1,11,23,54,123,46,25,08,137,35,27,57,281,48,28,52,005,46,3*72,1772176777017
NMEA,$GBGSV,3,2,11,30,12,239,33,37,66,347,47,38,30,114,41,39,30,156,39,3*72,1772176777017
NMEA,$GBGSV,3,3,11,40,26,034,36,41,08,149,40,43,05,041,41,3*41,1772176777017
NMEA,$GNGSA,A,3,06,11,13,14,17,19,21,22,24,30,,,0.6,0.4,0.5,1*3F,1772176777020
NMEA,$GNGSA,A,3,73,75,85,86,,,,,,,,,0.6,0.4,0.5,2*30,1772176777020
NMEA,$GNGSA,A,3,02,03,07,08,14,15,25,30,34,36,,,0.6,0.4,0.5,3*3D,1772176777020
NMEA,$GNGSA,A,3,02,03,05,06,07,09,10,13,16,23,25,27,0.6,0.4,0.5,4*38,1772176777020
NMEA,$GNGSA,A,3,02,03,,,,,,,,,,,0.6,0.4,0.5,5*33,1772176777020
NMEA,$GNVTG,,T,,M,0.0,N,0.0,K,A*3D,1772176777020
NMEA,$GNDTM,W84,,0000.000000,N,00000.000000,E,0.000,W84*41,1772176777020
NMEA,$GNRMC,071937.00,A,1304.091198,N,07735.506075,E,0.0,,270226,1.1,W,A,V*6C,1772176777020
NMEA,$GNGNS,071937.00,1304.091198,N,07735.506075,E,AAAAAN,48,0.4,958.7,-85.8,,,V*0C,1772176777020
NMEA,$GNGGA,071937.00,1304.091198,N,07735.506075,E,1,12,0.4,958.7,M,-85.8,M,,*5C,1772176777020
NMEA,$GPGSV,4,1,14,03,01,054,33,06,81,035,45,11,51,213,45,13,20,228,33,1*62,1772176778017
NMEA,$GPGSV,4,2,14,14,42,081,38,17,27,028,39,19,41,359,43,21,14,183,34,1*6B,1772176778017
NMEA,$GPGSV,4,3,14,22,47,055,41,24,23,309,43,30,28,160,42,15,02,251,,1*62,1772176778017
NMEA,$GPGSV,4,4,14,40,00,000,48,41,00,000,46,1*6E,1772176778017
NMEA,$GLGSV,2,1,06,86,54,248,40,73,13,135,29,76,03,332,30,75,49,005,36,1*7E,1772176778017
NMEA,$GLGSV,2,2,06,87,18,222,24,85,45,004,34,1*73,1772176778017
NMEA,$GAGSV,3,1,10,02,47,024,40,03,17,189,33,07,05,289,22,08,22,241,34,7*7F,1772176778017
NMEA,$GAGSV,3,2,10,14,50,344,44,15,25,207,36,25,26,089,33,30,21,326,39,7*7C,1772176778017
NMEA,$GAGSV,3,3,10,34,76,171,43,36,44,042,33,7*77,1772176778017
NMEA,$GQGSV,1,1,02,02,23,080,41,03,24,055,36,1*69,1772176778017
NMEA,$GBGSV,7,1,25,60,72,171,42,59,18,099,37,43,05,041,39,41,08,149,38,1*73,1772176778017
NMEA,$GBGSV,7,2,25,40,26,034,33,39,30,156,39,38,30,114,39,37,66,347,45,1*71,1772176778017
NMEA,$GBGSV,7,3,25,32,04,200,26,30,12,239,31,28,52,005,42,27,57,281,46,1*7C,1772176778017
NMEA,$GBGSV,7,4,25,25,08,137,33,23,54,123,43,16,37,154,38,13,27,143,37,1*72,1772176778017
NMEA,$GBGSV,7,5,25,10,47,018,32,09,59,157,37,08,26,132,34,07,39,034,35,1*7C,1772176778017
NMEA,$GBGSV,7,6,25,06,44,155,39,05,61,230,41,03,49,111,33,02,68,159,38,1*7E,1772176778017
NMEA,$GBGSV,7,7,25,01,14,096,34,1*4D,1772176778017
NMEA,$GBGSV,3,1,11,23,54,123,46,25,08,137,35,27,57,281,48,28,52,005,46,3*72,1772176778017
NMEA,$GBGSV,3,2,11,30,12,239,32,37,66,347,47,38,30,114,41,39,30,156,40,3*7D,1772176778017
NMEA,$GBGSV,3,3,11,40,26,034,35,41,08,149,40,43,05,041,41,3*42,1772176778017
NMEA,$GNGSA,A,3,06,11,13,14,17,19,21,22,24,30,,,0.6,0.4,0.5,1*3F,1772176778020
NMEA,$GNGSA,A,3,73,75,85,86,,,,,,,,,0.6,0.4,0.5,2*30,1772176778020
NMEA,$GNGSA,A,3,02,03,07,08,14,15,25,30,34,36,,,0.6,0.4,0.5,3*3D,1772176778020
NMEA,$GNGSA,A,3,02,03,05,06,07,09,10,13,16,23,25,27,0.6,0.4,0.5,4*38,1772176778020
NMEA,$GNGSA,A,3,02,03,,,,,,,,,,,0.6,0.4,0.5,5*33,1772176778020
NMEA,$GNVTG,,T,,M,0.0,N,0.0,K,A*3D,1772176778020
NMEA,$GNDTM,W84,,0000.000000,N,00000.000000,E,0.000,W84*41,1772176778020
NMEA,$GNRMC,071938.00,A,1304.091198,N,07735.506075,E,0.0,,270226,1.1,W,A,V*63,1772176778020
NMEA,$GNGNS,071938.00,1304.091198,N,07735.506075,E,AAAAAN,48,0.4,958.7,-85.8,,,V*03,1772176778020
NMEA,$GNGGA,071938.00,1304.091198,N,07735.506075,E,1,12,0.4,958.7,M,-85.8,M,,*53,1772176778020
NMEA,$GPGSV,4,1,14,03,01,054,34,06,81,035,45,11,51,213,45,13,20,228,33,1*65,1772176779016
NMEA,$GPGSV,4,2,14,14,42,081,38,17,27,028,39,19,41,359,43,21,14,183,34,1*6B,1772176779016
NMEA,$GPGSV,4,3,14,22,47,055,41,24,23,309,43,30,28,160,41,15,02,251,,1*61,1772176779016
NMEA,$GPGSV,4,4,14,40,00,000,48,41,00,000,46,1*6E,1772176779016
NMEA,$GLGSV,2,1,06,86,54,248,41,73,13,135,29,76,03,332,30,75,49,005,37,1*7E,1772176779016
NMEA,$GLGSV,2,2,06,87,18,222,22,85,45,004,36,1*77,1772176779016
NMEA,$GAGSV,3,1,10,02,47,024,41,03,17,189,33,07,05,289,22,08,22,241,34,7*7E,1772176779016
NMEA,$GAGSV,3,2,10,14,50,344,44,15,25,207,36,25,26,089,34,30,21,326,39,7*7B,1772176779016
NMEA,$GAGSV,3,3,10,34,76,171,44,36,44,042,34,7*77,1772176779016
NMEA,$GQGSV,1,1,02,02,23,080,41,03,24,055,37,1*68,1772176779016
NMEA,$GBGSV,7,1,25,60,72,171,42,59,18,099,37,43,05,041,39,41,08,149,38,1*73,1772176779016
NMEA,$GBGSV,7,2,25,40,26,034,33,39,30,156,39,38,30,114,39,37,66,347,45,1*71,1772176779016
NMEA,$GBGSV,7,3,25,32,04,200,26,30,12,239,31,28,52,005,42,27,57,281,46,1*7C,1772176779016
NMEA,$GBGSV,7,4,25,25,08,137,33,23,54,123,43,16,37,154,38,13,27,143,37,1*72,1772176779016
NMEA,$GBGSV,7,5,25,10,47,018,32,09,59,157,37,08,26,132,34,07,39,034,35,1*7C,1772176779016
NMEA,$GBGSV,7,6,25,06,44,155,39,05,61,230,41,03,49,111,33,02,68,159,38,1*7E,1772176779016
NMEA,$GBGSV,7,7,25,01,14,096,34,1*4D,1772176779016
NMEA,$GBGSV,3,1,11,23,54,123,45,25,08,137,35,27,57,281,48,28,52,005,45,3*72,1772176779016
NMEA,$GBGSV,3,2,11,30,12,239,32,37,66,347,46,38,30,114,41,39,30,156,40,3*7C,1772176779016
NMEA,$GBGSV,3,3,11,40,26,034,35,41,08,149,40,43,05,041,41,3*42,1772176779016
NMEA,$GNGSA,A,3,06,11,13,14,17,19,21,22,24,30,,,0.6,0.4,0.5,1*3F,1772176779020
NMEA,$GNGSA,A,3,73,75,85,86,,,,,,,,,0.6,0.4,0.5,2*30,1772176779020
NMEA,$GNGSA,A,3,02,03,07,08,14,15,25,30,34,36,,,0.6,0.4,0.5,3*3D,1772176779020
NMEA,$GNGSA,A,3,02,05,06,07,09,10,13,16,23,25,27,28,0.6,0.4,0.5,4*31,1772176779020
NMEA,$GNGSA,A,3,02,03,,,,,,,,,,,0.6,0.4,0.5,5*33,1772176779020
NMEA,$GNVTG,,T,,M,0.0,N,0.0,K,A*3D,1772176779020
NMEA,$GNDTM,W84,,0000.000000,N,00000.000000,E,0.000,W84*41,1772176779020
NMEA,$GNRMC,071939.00,A,1304.091198,N,07735.506074,E,0.0,,270226,1.1,W,A,V*63,1772176779020
NMEA,$GNGNS,071939.00,1304.091198,N,07735.506074,E,AAAAAN,47,0.4,958.7,-85.8,,,V*0C,1772176779020
NMEA,$GNGGA,071939.00,1304.091198,N,07735.506074,E,1,12,0.4,958.7,M,-85.8,M,,*53,1772176779020
NMEA,$GPGSV,4,1,14,03,01,054,34,06,81,035,45,11,51,213,45,13,20,228,33,1*65,1772176780015
NMEA,$GPGSV,4,2,14,14,42,081,38,17,27,028,39,19,41,359,43,21,14,183,35,1*6A,1772176780015
NMEA,$GPGSV,4,3,14,22,47,055,41,24,23,309,43,30,28,160,42,15,02,251,,1*62,1772176780015
NMEA,$GPGSV,4,4,14,40,00,000,48,41,00,000,46,1*6E,1772176780015
NMEA,$GLGSV,2,1,06,86,54,248,42,73,13,135,30,76,03,332,30,75,49,005,38,1*7A,1772176780015
NMEA,$GLGSV,2,2,06,87,18,222,22,85,45,004,36,1*77,1772176780015
NMEA,$GAGSV,3,1,10,02,47,024,42,03,17,189,33,07,05,289,22,08,22,241,34,7*7D,1772176780015
NMEA,$GAGSV,3,2,10,14,50,344,44,15,25,207,37,25,26,089,34,30,21,326,39,7*7A,1772176780015
NMEA,$GAGSV,3,3,10,34,76,171,45,36,44,042,33,7*71,1772176780015
NMEA,$GQGSV,1,1,02,02,23,080,41,03,24,055,37,1*68,1772176780015
NMEA,$GBGSV,7,1,25,60,72,171,42,59,18,099,37,43,05,041,39,41,08,149,38,1*73,1772176780015
NMEA,$GBGSV,7,2,25,40,26,034,33,39,30,156,39,38,30,114,39,37,66,347,45,1*71,1772176780015
NMEA,$GBGSV,7,3,25,32,04,200,26,30,12,239,31,28,52,005,42,27,57,281,46,1*7C,1772176780015
NMEA,$GBGSV,7,4,25,25,08,137,33,23,54,123,43,16,37,154,38,13,27,143,37,1*72,1772176780015
NMEA,$GBGSV,7,5,25,10,47,018,32,09,59,157,37,08,26,132,34,07,39,034,35,1*7C,1772176780015
NMEA,$GBGSV,7,6,25,06,44,155,39,05,61,230,41,03,49,111,33,02,68,159,38,1*7E,1772176780015
NMEA,$GBGSV,7,7,25,01,14,096,34,1*4D,1772176780015
NMEA,$GBGSV,3,1,11,23,54,123,47,25,08,137,35,27,57,281,48,28,52,005,46,3*73,1772176780015
NMEA,$GBGSV,3,2,11,30,12,239,33,37,66,347,48,38,30,114,41,39,30,156,40,3*73,1772176780015
NMEA,$GBGSV,3,3,11,40,26,034,36,41,08,149,40,43,05,041,41,3*41,1772176780015
NMEA,$GNGSA,A,3,06,11,13,14,17,19,21,22,24,30,,,0.8,0.5,0.6,1*33,1772176780018
NMEA,$GNGSA,A,3,73,75,85,86,,,,,,,,,0.8,0.5,0.6,2*3C,1772176780018
NMEA,$GNGSA,A,3,02,03,08,14,15,25,30,34,36,,,,0.8,0.5,0.6,3*36,1772176780018
NMEA,$GNGSA,A,3,23,27,28,30,37,38,39,40,,,,,0.8,0.5,0.6,4*33,1772176780018
NMEA,$GNGSA,A,3,02,03,,,,,,,,,,,0.8,0.5,0.6,5*3F,1772176780018
NMEA,$GNVTG,,T,,M,0.0,N,0.0,K,A*3D,1772176780018
NMEA,$GNDTM,W84,,0000.000000,N,00000.000000,E,0.000,W84*41,1772176780018
NMEA,$GNRMC,071940.00,A,1304.091199,N,07735.506074,E,0.0,,270226,1.1,W,A,V*6C,1772176780018
NMEA,$GNGNS,071940.00,1304.091199,N,07735.506074,E,AAAAAN,33,0.5,958.8,-85.8,,,V*0E,1772176780018
NMEA,$GNGGA,071940.00,1304.091199,N,07735.506074,E,1,12,0.5,958.8,M,-85.8,M,,*52,1772176780018
NMEA,$GPGSV,4,1,14,03,01,054,33,06,81,035,44,11,51,213,45,13,20,228,33,1*63,1772176781014
NMEA,$GPGSV,4,2,14,14,42,081,37,17,27,028,38,19,41,359,42,21,14,183,34,1*64,1772176781014
NMEA,$GPGSV,4,3,14,22,47,055,41,24,23,309,43,30,28,160,41,15,02,251,,1*61,1772176781014
NMEA,$GPGSV,4,4,14,40,00,000,47,41,00,000,45,1*62,1772176781014
NMEA,$GLGSV,2,1,06,86,54,248,41,73,13,135,28,76,03,332,30,75,49,005,37,1*7F,1772176781014
NMEA,$GLGSV,2,2,06,87,18,222,22,85,45,004,34,1*75,1772176781014
NMEA,$GAGSV,3,1,10,02,47,024,40,03,17,189,33,07,05,289,22,08,22,241,34,7*7F,1772176781014
NMEA,$GAGSV,3,2,10,14,50,344,44,15,25,207,36,25,26,089,33,30,21,326,38,7*7D,1772176781014
NMEA,$GAGSV,3,3,10,34,76,171,43,36,44,042,33,7*77,1772176781014
NMEA,$GQGSV,1,1,02,02,23,080,40,03,24,055,36,1*68,1772176781014
NMEA,$GBGSV,7,1,25,60,72,171,42,59,18,099,37,43,05,041,39,41,08,149,38,1*73,1772176781014
NMEA,$GBGSV,7,2,25,40,26,034,33,39,30,156,39,38,30,114,39,37,66,347,45,1*71,1772176781014
NMEA,$GBGSV,7,3,25,32,04,200,26,30,12,239,31,28,52,005,42,27,57,281,46,1*7C,1772176781014
NMEA,$GBGSV,7,4,25,25,08,137,33,23,54,123,43,16,37,154,38,13,27,143,37,1*72,1772176781014
NMEA,$GBGSV,7,5,25,10,47,018,32,09,59,157,37,08,26,132,34,07,39,034,35,1*7C,1772176781014
NMEA,$GBGSV,7,6,25,06,44,155,39,05,61,230,41,03,49,111,33,02,68,159,38,1*7E,1772176781014
NMEA,$GBGSV,7,7,25,01,14,096,34,1*4D,1772176781014
NMEA,$GBGSV,3,1,11,23,54,123,46,25,08,137,35,27,57,281,47,28,52,005,45,3*7E,1772176781014
NMEA,$GBGSV,3,2,11,30,12,239,32,37,66,347,46,38,30,114,41,39,30,156,40,3*7C,1772176781014
NMEA,$GBGSV,3,3,11,40,26,034,35,41,08,149,40,43,05,041,41,3*42,1772176781014
NMEA,$GNGSA,A,3,06,11,13,14,17,19,21,22,24,30,,,0.8,0.5,0.6,1*33,1772176781017
NMEA,$GNGSA,A,3,73,75,85,86,,,,,,,,,0.8,0.5,0.6,2*3C,1772176781017
NMEA,$GNGSA,A,3,02,03,08,14,15,25,30,34,36,,,,0.8,0.5,0.6,3*36,1772176781017
NMEA,$GNGSA,A,3,23,27,28,30,37,38,39,40,,,,,0.8,0.5,0.6,4*33,1772176781017
NMEA,$GNGSA,A,3,02,03,,,,,,,,,,,0.8,0.5,0.6,5*3F,1772176781017
NMEA,$GNVTG,,T,,M,0.0,N,0.0,K,A*3D,1772176781017
NMEA,$GNDTM,W84,,0000.000000,N,00000.000000,E,0.000,W84*41,1772176781017
NMEA,$GNRMC,071941.00,A,1304.091204,N,07735.506061,E,0.0,,270226,1.1,W,A,V*6E,1772176781017
NMEA,$GNGNS,071941.00,1304.091204,N,07735.506061,E,AAAAAN,33,0.5,958.7,-85.8,,,V*03,1772176781017
NMEA,$GNGGA,071941.00,1304.091204,N,07735.506061,E,1,12,0.5,958.7,M,-85.8,M,,*5F,1772176781017
NMEA,$GPGSV,4,1,14,03,01,054,33,06,81,035,45,11,51,213,45,13,20,228,33,1*62,1772176782013
NMEA,$GPGSV,4,2,14,14,42,081,38,17,27,028,38,19,41,359,43,21,14,183,35,1*6B,1772176782013
NMEA,$GPGSV,4,3,14,22,47,055,41,24,23,309,43,30,28,160,41,15,02,251,,1*61,1772176782013
NMEA,$GPGSV,4,4,14,40,00,000,47,41,00,000,45,1*62,1772176782013
NMEA,$GLGSV,2,1,06,86,54,248,40,73,13,135,29,76,03,332,30,75,49,005,37,1*7F,1772176782013
NMEA,$GLGSV,2,2,06,87,18,222,23,85,45,004,35,1*75,1772176782013
NMEA,$GAGSV,3,1,10,02,47,024,40,03,17,189,33,07,05,289,22,08,22,241,34,7*7F,1772176782013
NMEA,$GAGSV,3,2,10,14,50,344,44,15,25,207,36,25,26,089,33,30,21,326,39,7*7C,1772176782013
NMEA,$GAGSV,3,3,10,34,76,171,43,36,44,042,32,7*76,1772176782013
NMEA,$GQGSV,1,1,02,02,23,080,41,03,24,055,37,1*68,1772176782013
NMEA,$GBGSV,7,1,25,60,72,171,42,59,18,099,37,43,05,041,39,41,08,149,38,1*73,1772176782013
NMEA,$GBGSV,7,2,25,40,26,034,33,39,30,156,39,38,30,114,39,37,66,347,45,1*71,1772176782013
NMEA,$GBGSV,7,3,25,32,04,200,26,30,12,239,31,28,52,005,42,27,57,281,46,1*7C,1772176782013
NMEA,$GBGSV,7,4,25,25,08,137,33,23,54,123,43,16,37,154,38,13,27,143,37,1*72,1772176782013
NMEA,$GBGSV,7,5,25,10,47,018,32,09,59,157,37,08,26,132,34,07,39,034,35,1*7C,1772176782013
NMEA,$GBGSV,7,6,25,06,44,155,39,05,61,230,41,03,49,111,33,02,68,159,38,1*7E,1772176782013
NMEA,$GBGSV,7,7,25,01,14,096,34,1*4D,1772176782013
NMEA,$GBGSV,3,1,11,23,54,123,45,25,08,137,35,27,57,281,47,28,52,005,46,3*7E,1772176782013
NMEA,$GBGSV,3,2,11,30,12,239,32,37,66,347,46,38,30,114,41,39,30,156,40,3*7C,1772176782013
NMEA,$GBGSV,3,3,11,40,26,034,35,41,08,149,40,43,05,041,41,3*42,1772176782013
NMEA,$GNGSA,A,3,06,11,13,14,17,19,21,22,24,30,,,0.8,0.5,0.6,1*33,1772176782016
NMEA,$GNGSA,A,3,73,75,85,86,,,,,,,,,0.8,0.5,0.6,2*3C,1772176782016
NMEA,$GNGSA,A,3,02,03,08,14,15,25,30,34,36,,,,0.8,0.5,0.6,3*36,1772176782016
NMEA,$GNGSA,A,3,23,27,28,30,37,38,39,40,,,,,0.8,0.5,0.6,4*33,1772176782016
NMEA,$GNGSA,A,3,02,03,,,,,,,,,,,0.8,0.5,0.6,5*3F,1772176782016
NMEA,$GNVTG,,T,,M,0.0,N,0.0,K,A*3D,1772176782016
NMEA,$GNDTM,W84,,0000.000000,N,00000.000000,E,0.000,W84*41,1772176782016
NMEA,$GNRMC,071942.00,A,1304.091203,N,07735.506061,E,0.0,,270226,1.1,W,A,V*6A,1772176782016
NMEA,$GNGNS,071942.00,1304.091203,N,07735.506061,E,AAAAAN,33,0.5,958.7,-85.8,,,V*07,1772176782016
NMEA,$GNGGA,071942.00,1304.091203,N,07735.506061,E,1,12,0.5,958.7,M,-85.8,M,,*5B,1772176782016
NMEA,$GPGSV,4,1,14,03,01,054,33,06,81,035,44,11,51,213,44,13,20,228,32,1*63,1772176783013
NMEA,$GPGSV,4,2,14,14,42,081,37,17,27,028,38,19,41,359,42,21,14,183,33,1*63,1772176783013
NMEA,$GPGSV,4,3,14,22,47,055,40,24,23,309,42,30,28,160,40,15,02,251,,1*60,1772176783013
NMEA,$GPGSV,4,4,14,40,00,000,46,41,00,000,44,1*62,1772176783013
NMEA,$GLGSV,2,1,06,86,54,248,39,73,13,135,28,76,03,332,30,75,49,005,36,1*71,1772176783013
NMEA,$GLGSV,2,2,06,87,18,222,23,85,45,004,34,1*74,1772176783013
NMEA,$GAGSV,3,1,10,02,47,024,41,03,17,189,33,07,05,289,22,08,22,241,34,7*7E,1772176783013
NMEA,$GAGSV,3,2,10,14,50,344,44,15,25,207,36,25,26,089,34,30,21,326,39,7*7B,1772176783013
NMEA,$GAGSV,3,3,10,34,76,171,44,36,44,042,33,7*70,1772176783013
NMEA,$GQGSV,1,1,02,02,23,080,40,03,24,055,36,1*68,1772176783013
NMEA,$GBGSV,7,1,25,60,72,171,42,59,18,099,37,43,05,041,39,41,08,149,38,1*73,1772176783013
NMEA,$GBGSV,7,2,25,40,26,034,33,39,30,156,39,38,30,114,39,37,66,347,45,1*71,1772176783013
NMEA,$GBGSV,7,3,25,32,04,200,26,30,12,239,31,28,52,005,42,27,57,281,46,1*7C,1772176783013
NMEA,$GBGSV,7,4,25,25,08,137,33,23,54,123,43,16,37,154,38,13,27,143,37,1*72,1772176783013
NMEA,$GBGSV,7,5,25,10,47,018,32,09,59,157,37,08,26,132,34,07,39,034,35,1*7C,1772176783013
NMEA,$GBGSV,7,6,25,06,44,155,39,05,61,230,41,03,49,111,33,02,68,159,38,1*7E,1772176783013
NMEA,$GBGSV,7,7,25,01,14,096,34,1*4D,1772176783013
NMEA,$GBGSV,3,1,11,23,54,123,46,25,08,137,35,27,57,281,48,28,52,005,46,3*72,1772176783013
NMEA,$GBGSV,3,2,11,30,12,239,32,37,66,347,47,38,30,114,42,39,30,156,40,3*7E,1772176783013
NMEA,$GBGSV,3,3,11,40,26,034,36,41,08,149,40,43,05,041,41,3*41,1772176783013
NMEA,$GNGSA,A,3,06,11,13,14,17,19,21,22,24,30,,,0.8,0.5,0.6,1*33,1772176783015
NMEA,$GNGSA,A,3,73,75,85,86,,,,,,,,,0.8,0.5,0.6,2*3C,1772176783015
NMEA,$GNGSA,A,3,02,03,08,14,15,25,30,34,36,,,,0.8,0.5,0.6,3*36,1772176783015
NMEA,$GNGSA,A,3,23,27,28,30,37,38,39,40,,,,,0.8,0.5,0.6,4*33,1772176783015
NMEA,$GNGSA,A,3,02,03,,,,,,,,,,,0.8,0.5,0.6,5*3F,1772176783015
NMEA,$GNVTG,,T,,M,0.0,N,0.0,K,A*3D,1772176783015
NMEA,$GNDTM,W84,,0000.000000,N,00000.000000,E,0.000,W84*41,1772176783015
NMEA,$GNRMC,071943.00,A,1304.091203,N,07735.506061,E,0.0,,270226,1.1,W,A,V*6B,1772176783015
NMEA,$GNGNS,071943.00,1304.091203,N,07735.506061,E,AAAAAN,33,0.5,958.7,-85.8,,,V*06,1772176783015
NMEA,$GNGGA,071943.00,1304.091203,N,07735.506061,E,1,12,0.5,958.7,M,-85.8,M,,*5A,1772176783015
NMEA,$GPGSV,4,1,14,03,01,054,31,06,81,035,43,11,51,213,43,13,20,228,31,1*62,1772176784013
NMEA,$GPGSV,4,2,14,14,42,081,36,17,27,028,36,19,41,359,41,21,14,183,32,1*6E,1772176784013
NMEA,$GPGSV,4,3,14,22,47,055,40,24,23,309,41,30,28,160,39,15,02,251,,1*6D,1772176784013
NMEA,$GPGSV,4,4,14,40,00,000,45,41,00,000,44,1*61,1772176784013
NMEA,$GLGSV,2,1,06,86,54,248,39,73,13,135,26,76,03,332,29,75,49,005,35,1*74,1772176784013
NMEA,$GLGSV,2,2,06,87,18,222,23,85,45,004,33,1*73,1772176784013
NMEA,$GAGSV,3,1,10,02,47,024,39,03,17,189,32,07,05,289,22,08,22,241,32,7*76,1772176784013
NMEA,$GAGSV,3,2,10,14,50,344,43,15,25,207,35,25,26,089,32,30,21,326,38,7*78,1772176784013
NMEA,$GAGSV,3,3,10,34,76,171,42,36,44,042,32,7*77,1772176784013
NMEA,$GQGSV,1,1,02,02,23,080,39,03,24,055,35,1*65,1772176784013
NMEA,$GBGSV,7,1,25,60,72,171,43,59,18,099,36,43,05,041,38,41,08,149,37,1*7D,1772176784013
NMEA,$GBGSV,7,2,25,40,26,034,31,39,30,156,38,38,30,114,38,37,66,347,44,1*72,1772176784013
NMEA,$GBGSV,7,3,25,32,04,200,24,30,12,239,29,28,52,005,41,27,57,281,45,1*77,1772176784013
NMEA,$GBGSV,7,4,25,25,08,137,32,23,54,123,43,16,37,154,37,13,27,143,36,1*7D,1772176784013
NMEA,$GBGSV,7,5,25,10,47,018,31,09,59,157,36,08,26,132,33,07,39,034,34,1*78,1772176784013
NMEA,$GBGSV,7,6,25,06,44,155,38,05,61,230,40,03,49,111,33,02,68,159,37,1*71,1772176784013
NMEA,$GBGSV,7,7,25,01,14,096,33,1*4A,1772176784013
NMEA,$GBGSV,3,1,11,23,54,123,45,25,08,137,33,27,57,281,47,28,52,005,45,3*7B,1772176784013
NMEA,$GBGSV,3,2,11,30,12,239,32,37,66,347,46,38,30,114,40,39,30,156,39,3*73,1772176784013
NMEA,$GBGSV,3,3,11,40,26,034,34,41,08,149,39,43,05,041,39,3*42,1772176784013
NMEA,$GNGSA,A,3,06,11,13,14,17,19,21,22,24,30,,,0.6,0.4,0.5,1*3F,1772176784015
NMEA,$GNGSA,A,3,73,75,85,86,,,,,,,,,0.6,0.4,0.5,2*30,1772176784015
NMEA,$GNGSA,A,3,02,03,08,14,15,25,30,34,36,,,,0.6,0.4,0.5,3*3A,1772176784015
NMEA,$GNGSA,A,3,02,05,06,07,09,10,13,16,23,25,27,28,0.6,0.4,0.5,4*31,1772176784015
NMEA,$GNGSA,A,3,02,03,,,,,,,,,,,0.6,0.4,0.5,5*33,1772176784015
NMEA,$GNVTG,,T,,M,0.0,N,0.0,K,A*3D,1772176784015
NMEA,$GNDTM,W84,,0000.000000,N,00000.000000,E,0.000,W84*41,1772176784015
NMEA,$GNRMC,071944.00,A,1304.091204,N,07735.506061,E,0.0,,270226,1.1,W,A,V*6B,1772176784015
NMEA,$GNGNS,071944.00,1304.091204,N,07735.506061,E,AAAAAN,46,0.4,958.8,-85.8,,,V*0A,1772176784015
NMEA,$GNGGA,071944.00,1304.091204,N,07735.506061,E,1,12,0.4,958.8,M,-85.8,M,,*54,1772176784015
NMEA,$GPGSV,4,1,14,03,01,054,33,06,81,035,45,11,51,213,46,13,20,228,33,1*61,1772176785013
NMEA,$GPGSV,4,2,14,14,42,081,39,17,27,028,39,19,41,359,43,21,14,183,35,1*6B,1772176785013
NMEA,$GPGSV,4,3,14,22,47,055,42,24,23,309,44,30,28,160,42,15,02,251,,1*66,1772176785013
NMEA,$GPGSV,4,4,14,40,00,000,47,41,00,000,46,1*61,1772176785013
NMEA,$GLGSV,2,1,06,86,54,248,41,73,13,135,29,76,03,332,30,75,49,005,37,1*7E,1772176785013
NMEA,$GLGSV,2,2,06,87,18,222,21,85,45,004,35,1*77,1772176785013
NMEA,$GAGSV,3,1,10,02,47,024,42,03,17,189,35,07,05,289,22,08,22,241,35,7*7A,1772176785013
NMEA,$GAGSV,3,2,10,14,50,344,45,15,25,207,37,25,26,089,34,30,21,326,40,7*75,1772176785013
NMEA,$GAGSV,3,3,10,34,76,171,45,36,44,042,34,7*76,1772176785013
NMEA,$GQGSV,1,1,02,02,23,080,41,03,24,055,37,1*68,1772176785013
NMEA,$GBGSV,7,1,25,60,72,171,43,59,18,099,38,43,05,041,41,41,08,149,40,1*7D,1772176785013
NMEA,$GBGSV,7,2,25,40,26,034,33,39,30,156,40,38,30,114,40,37,66,347,46,1*72,1772176785013
NMEA,$GBGSV,7,3,25,32,04,200,27,30,12,239,31,28,52,005,43,27,57,281,47,1*7D,1772176785013
NMEA,$GBGSV,7,4,25,25,08,137,34,23,54,123,45,16,37,154,39,13,27,143,39,1*7C,1772176785013
NMEA,$GBGSV,7,5,25,10,47,018,33,09,59,157,38,08,26,132,35,07,39,034,36,1*70,1772176785013
NMEA,$GBGSV,7,6,25,06,44,155,40,05,61,230,42,03,49,111,33,02,68,159,39,1*72,1772176785013
NMEA,$GBGSV,7,7,25,01,14,096,35,1*4C,1772176785013
NMEA,$GBGSV,3,1,11,23,54,123,46,25,08,137,35,27,57,281,49,28,52,005,47,3*72,1772176785013
NMEA,$GBGSV,3,2,11,30,12,239,33,37,66,347,47,38,30,114,42,39,30,156,41,3*7E,1772176785013
NMEA,$GBGSV,3,3,11,40,26,034,37,41,08,149,41,43,05,041,42,3*42,1772176785013
NMEA,$GNGSA,A,3,06,11,13,14,17,19,21,22,24,30,,,0.6,0.4,0.5,1*3F,1772176785017
NMEA,$GNGSA,A,3,73,75,85,86,,,,,,,,,0.6,0.4,0.5,2*30,1772176785017
NMEA,$GNGSA,A,3,02,03,08,14,15,25,30,34,36,,,,0.6,0.4,0.5,3*3A,1772176785017
NMEA,$GNGSA,A,3,02,03,05,06,07,09,10,13,16,23,25,27,0.6,0.4,0.5,4*38,1772176785017
NMEA,$GNGSA,A,3,02,03,,,,,,,,,,,0.6,0.4,0.5,5*33,1772176785017
NMEA,$GNVTG,,T,,M,0.0,N,0.0,K,A*3D,1772176785017
NMEA,$GNDTM,W84,,0000.000000,N,00000.000000,E,0.000,W84*41,1772176785017
NMEA,$GNRMC,071945.00,A,1304.091202,N,07735.506063,E,0.0,,270226,1.1,W,A,V*6E,1772176785017
NMEA,$GNGNS,071945.00,1304.091202,N,07735.506063,E,AAAAAN,47,0.4,958.8,-85.8,,,V*0E,1772176785017
NMEA,$GNGGA,071945.00,1304.091202,N,07735.506063,E,1,12,0.4,958.8,M,-85.8,M,,*51,1772176785017
NMEA,$GPGSV,4,1,14,03,01,054,32,06,81,035,45,11,51,213,45,13,20,228,33,1*63,1772176786015
NMEA,$GPGSV,4,2,14,14,42,081,38,17,27,028,38,19,41,359,43,21,14,183,35,1*6B,1772176786015
NMEA,$GPGSV,4,3,14,22,47,055,42,24,23,309,43,30,28,160,41,15,02,251,,1*62,1772176786015
NMEA,$GPGSV,4,4,14,40,00,000,47,41,00,000,46,1*61,1772176786015
NMEA,$GLGSV,2,1,06,86,54,248,41,73,13,135,29,76,03,332,30,75,49,005,37,1*7E,1772176786015
NMEA,$GLGSV,2,2,06,87,18,222,23,85,45,004,35,1*75,1772176786015
NMEA,$GAGSV,3,1,10,02,47,024,41,03,17,189,34,07,05,289,24,08,22,241,35,7*7E,1772176786015
NMEA,$GAGSV,3,2,10,14,50,344,45,15,25,207,37,25,26,089,35,30,21,326,40,7*74,1772176786015
NMEA,$GAGSV,3,3,10,34,76,171,44,36,44,042,34,7*77,1772176786015
NMEA,$GQGSV,1,1,02,02,23,080,41,03,24,055,37,1*68,1772176786015
NMEA,$GBGSV,7,1,25,60,72,171,43,59,18,099,38,43,05,041,41,41,08,149,39,1*73,1772176786015
NMEA,$GBGSV,7,2,25,40,26,034,33,39,30,156,40,38,30,114,40,37,66,347,46,1*72,1772176786015
NMEA,$GBGSV,7,3,25,32,04,200,27,30,12,239,32,28,52,005,43,27,57,281,47,1*7E,1772176786015
NMEA,$GBGSV,7,4,25,25,08,137,34,23,54,123,45,16,37,154,39,13,27,143,38,1*7D,1772176786015
NMEA,$GBGSV,7,5,25,10,47,018,33,09,59,157,38,08,26,132,35,07,39,034,36,1*70,1772176786015
NMEA,$GBGSV,7,6,25,06,44,155,40,05,61,230,42,03,49,111,34,02,68,159,39,1*75,1772176786015
NMEA,$GBGSV,7,7,25,01,14,096,35,1*4C,1772176786015
NMEA,$GBGSV,3,1,11,23,54,123,46,25,08,137,36,27,57,281,48,28,52,005,47,3*70,1772176786015
NMEA,$GBGSV,3,2,11,30,12,239,34,37,66,347,48,38,30,114,42,39,30,156,41,3*76,1772176786015
NMEA,$GBGSV,3,3,11,40,26,034,36,41,08,149,41,43,05,041,42,3*43,1772176786015
NMEA,$GNGSA,A,3,06,11,13,14,17,19,21,22,24,30,,,0.6,0.4,0.5,1*3F,1772176786019
NMEA,$GNGSA,A,3,73,75,85,86,,,,,,,,,0.6,0.4,0.5,2*30,1772176786019
NMEA,$GNGSA,A,3,02,03,07,08,14,15,25,30,34,36,,,0.6,0.4,0.5,3*3D,1772176786019
NMEA,$GNGSA,A,3,02,03,05,06,07,09,10,13,16,23,25,27,0.6,0.4,0.5,4*38,1772176786019
NMEA,$GNGSA,A,3,02,03,,,,,,,,,,,0.6,0.4,0.5,5*33,1772176786019
NMEA,$GNVTG,,T,,M,0.0,N,0.0,K,A*3D,1772176786019
NMEA,$GNDTM,W84,,0000.000000,N,00000.000000,E,0.000,W84*41,1772176786019
NMEA,$GNRMC,071946.00,A,1304.091203,N,07735.506063,E,0.0,,270226,1.1,W,A,V*6C,1772176786019
NMEA,$GNGNS,071946.00,1304.091203,N,07735.506063,E,AAAAAN,48,0.4,958.9,-85.8,,,V*02,1772176786019
NMEA,$GNGGA,071946.00,1304.091203,N,07735.506063,E,1,12,0.4,958.9,M,-85.8,M,,*52,1772176786019
NMEA,$GPGSV,4,1,14,03,01,054,32,06,81,035,45,11,51,213,45,13,20,228,33,1*63,1772176787014
NMEA,$GPGSV,4,2,14,14,42,081,38,17,27,028,39,19,41,359,43,21,14,183,35,1*6A,1772176787014
NMEA,$GPGSV,4,3,14,22,47,055,42,24,23,309,43,30,28,160,41,15,02,251,,1*62,1772176787014
NMEA,$GPGSV,4,4,14,40,00,000,47,41,00,000,46,1*61,1772176787014
NMEA,$GLGSV,2,1,06,86,54,248,41,73,13,135,28,76,03,332,29,75,49,005,37,1*77,1772176787014
NMEA,$GLGSV,2,2,06,87,18,222,24,85,45,004,35,1*72,1772176787014
NMEA,$GAGSV,3,1,10,02,47,024,41,03,17,189,34,07,05,289,23,08,22,241,35,7*79,1772176787014
NMEA,$GAGSV,3,2,10,14,50,344,45,15,25,207,37,25,26,089,35,30,21,326,40,7*74,1772176787014
NMEA,$GAGSV,3,3,10,34,76,171,45,36,44,042,34,7*76,1772176787014
NMEA,$GQGSV,1,1,02,02,23,080,41,03,24,055,37,1*68,1772176787014
NMEA,$GBGSV,7,1,25,60,72,171,43,59,18,099,38,43,05,041,40,41,08,149,39,1*72,1772176787014
NMEA,$GBGSV,7,2,25,40,26,034,34,39,30,156,40,38,30,114,40,37,66,347,46,1*75,1772176787014
NMEA,$GBGSV,7,3,25,32,04,200,27,30,12,239,31,28,52,005,43,27,57,281,47,1*7D,1772176787014
NMEA,$GBGSV,7,4,25,25,08,137,34,23,54,123,45,16,37,154,39,13,27,143,38,1*7D,1772176787014
NMEA,$GBGSV,7,5,25,10,47,018,33,09,59,157,38,08,26,132,35,07,39,034,35,1*73,1772176787014
NMEA,$GBGSV,7,6,25,06,44,155,40,05,61,230,42,03,49,111,33,02,68,159,39,1*72,1772176787014
NMEA,$GBGSV,7,7,25,01,14,096,35,1*4C,1772176787014
NMEA,$GBGSV,3,1,11,23,54,123,47,25,08,137,35,27,57,281,49,28,52,005,47,3*73,1772176787014
NMEA,$GBGSV,3,2,11,30,12,239,34,37,66,347,48,38,30,114,42,39,30,156,41,3*76,1772176787014
NMEA,$GBGSV,3,3,11,40,26,034,37,41,08,149,41,43,05,041,42,3*42,1772176787014
NMEA,$GNGSA,A,3,06,11,13,14,17,19,21,22,24,30,,,0.6,0.4,0.5,1*3F,1772176787018
NMEA,$GNGSA,A,3,73,75,85,86,,,,,,,,,0.6,0.4,0.5,2*30,1772176787018
NMEA,$GNGSA,A,3,02,03,07,08,14,15,25,30,34,36,,,0.6,0.4,0.5,3*3D,1772176787018
NMEA,$GNGSA,A,3,02,03,05,06,07,09,10,13,16,23,25,27,0.6,0.4,0.5,4*38,1772176787018
NMEA,$GNGSA,A,3,02,03,,,,,,,,,,,0.6,0.4,0.5,5*33,1772176787018
NMEA,$GNVTG,,T,,M,0.0,N,0.0,K,A*3D,1772176787018
NMEA,$GNDTM,W84,,0000.000000,N,00000.000000,E,0.000,W84*41,1772176787018
NMEA,$GNRMC,071947.00,A,1304.091206,N,07735.506062,E,0.0,,270226,1.1,W,A,V*69,1772176787018
NMEA,$GNGNS,071947.00,1304.091206,N,07735.506062,E,AAAAAN,48,0.4,958.9,-85.8,,,V*07,1772176787018
NMEA,$GNGGA,071947.00,1304.091206,N,07735.506062,E,1,12,0.4,958.9,M,-85.8,M,,*57,1772176787018
NMEA,$GPGSV,4,1,14,03,01,054,31,06,81,035,44,11,51,213,44,13,20,228,32,1*61,1772176788015
NMEA,$GPGSV,4,2,14,14,42,081,37,17,27,028,38,19,41,359,42,21,14,183,34,1*64,1772176788015
NMEA,$GPGSV,4,3,14,22,47,055,41,24,23,309,43,30,28,160,40,15,02,251,,1*60,1772176788015
NMEA,$GPGSV,4,4,14,40,00,000,47,41,00,000,45,1*62,1772176788015
NMEA,$GLGSV,2,1,06,86,54,248,40,73,13,135,27,76,03,332,30,75,49,005,36,1*70,1772176788015
NMEA,$GLGSV,2,2,06,87,18,222,24,85,45,004,34,1*73,1772176788015
NMEA,$GAGSV,3,1,10,02,47,024,40,03,17,189,33,07,05,289,22,08,22,241,34,7*7F,1772176788015
NMEA,$GAGSV,3,2,10,14,50,344,44,15,25,207,36,25,26,089,34,30,21,326,40,7*75,1772176788015
NMEA,$GAGSV,3,3,10,34,76,171,44,36,44,042,33,7*70,1772176788015
NMEA,$GQGSV,1,1,02,02,23,080,40,03,24,055,36,1*68,1772176788015
NMEA,$GBGSV,7,1,25,60,72,171,43,59,18,099,37,43,05,041,40,41,08,149,39,1*7D,1772176788015
NMEA,$GBGSV,7,2,25,40,26,034,32,39,30,156,39,38,30,114,39,37,66,347,45,1*70,1772176788015
NMEA,$GBGSV,7,3,25,32,04,200,25,30,12,239,30,28,52,005,42,27,57,281,46,1*7E,1772176788015
NMEA,$GBGSV,7,4,25,25,08,137,34,23,54,123,44,16,37,154,38,13,27,143,37,1*72,1772176788015
NMEA,$GBGSV,7,5,25,10,47,018,32,09,59,157,37,08,26,132,34,07,39,034,35,1*7C,1772176788015
NMEA,$GBGSV,7,6,25,06,44,155,39,05,61,230,41,03,49,111,33,02,68,159,38,1*7E,1772176788015
NMEA,$GBGSV,7,7,25,01,14,096,34,1*4D,1772176788015
NMEA,$GBGSV,3,1,11,23,54,123,46,25,08,137,35,27,57,281,48,28,52,005,46,3*72,1772176788015
NMEA,$GBGSV,3,2,11,30,12,239,32,37,66,347,47,38,30,114,42,39,30,156,40,3*7E,1772176788015
NMEA,$GBGSV,3,3,11,40,26,034,36,41,08,149,40,43,05,041,41,3*41,1772176788015
NMEA,$GNGSA,A,3,06,11,13,14,17,19,21,22,24,30,,,0.6,0.4,0.5,1*3F,1772176788019
NMEA,$GNGSA,A,3,73,75,85,86,,,,,,,,,0.6,0.4,0.5,2*30,1772176788019
NMEA,$GNGSA,A,3,02,03,07,08,14,15,25,30,34,36,,,0.6,0.4,0.5,3*3D,1772176788019
NMEA,$GNGSA,A,3,02,03,05,06,07,09,10,13,16,23,25,27,0.6,0.4,0.5,4*38,1772176788019
NMEA,$GNGSA,A,3,02,03,,,,,,,,,,,0.6,0.4,0.5,5*33,1772176788019
NMEA,$GNVTG,,T,,M,0.0,N,0.0,K,A*3D,1772176788019
NMEA,$GNDTM,W84,,0000.000000,N,00000.000000,E,0.000,W84*41,1772176788019
NMEA,$GNRMC,071948.00,A,1304.091205,N,07735.506061,E,0.0,,270226,1.1,W,A,V*66,1772176788019
NMEA,$GNGNS,071948.00,1304.091205,N,07735.506061,E,AAAAAN,48,0.4,958.9,-85.8,,,V*08,1772176788019
NMEA,$GNGGA,071948.00,1304.091205,N,07735.506061,E,1,12,0.4,958.9,M,-85.8,M,,*58,1772176788019
NMEA,$GPGSV,4,1,14,03,01,054,32,06,81,035,44,11,51,213,45,13,20,228,33,1*62,1772176789014
NMEA,$GPGSV,4,2,14,14,42,081,37,17,27,028,38,19,41,359,42,21,14,183,35,1*65,1772176789014
NMEA,$GPGSV,4,3,14,22,47,055,41,24,23,309,43,30,28,160,41,15,02,251,,1*61,1772176789014
NMEA,$GPGSV,4,4,14,40,00,000,47,41,00,000,45,1*62,1772176789014
NMEA,$GLGSV,2,1,06,86,54,248,41,73,13,135,29,76,03,332,31,75,49,005,38,1*70,1772176789014
NMEA,$GLGSV,2,2,06,87,18,222,22,85,45,004,35,1*74,1772176789014
NMEA,$GAGSV,3,1,10,02,47,024,41,03,17,189,33,07,05,289,23,08,22,241,34,7*7F,1772176789014
NMEA,$GAGSV,3,2,10,14,50,344,45,15,25,207,37,25,26,089,35,30,21,326,39,7*7A,1772176789014
NMEA,$GAGSV,3,3,10,34,76,171,44,36,44,042,34,7*77,1772176789014
NMEA,$GQGSV,1,1,02,02,23,080,40,03,24,055,36,1*68,1772176789014
NMEA,$GBGSV,7,1,25,60,72,171,42,59,18,099,37,43,05,041,40,41,08,149,39,1*7C,1772176789014
NMEA,$GBGSV,7,2,25,40,26,034,32,39,30,156,39,38,30,114,39,37,66,347,45,1*70,1772176789014
NMEA,$GBGSV,7,3,25,32,04,200,25,30,12,239,31,28,52,005,43,27,57,281,46,1*7E,1772176789014
NMEA,$GBGSV,7,4,25,25,08,137,34,23,54,123,45,16,37,154,39,13,27,143,37,1*72,1772176789014
NMEA,$GBGSV,7,5,25,10,47,018,32,09,59,157,37,08,26,132,34,07,39,034,35,1*7C,1772176789014
NMEA,$GBGSV,7,6,25,06,44,155,39,05,61,230,42,03,49,111,33,02,68,159,39,1*7C,1772176789014
NMEA,$GBGSV,7,7,25,01,14,096,35,1*4C,1772176789014
NMEA,$GBGSV,3,1,11,23,54,123,46,25,08,137,35,27,57,281,49,28,52,005,47,3*72,1772176789014
NMEA,$GBGSV,3,2,11,30,12,239,33,37,66,347,47,38,30,114,42,39,30,156,40,3*7F,1772176789014
NMEA,$GBGSV,3,3,11,40,26,034,36,41,08,149,40,43,05,041,41,3*41,1772176789014
NMEA,$GNGSA,A,3,06,11,13,14,17,19,21,22,24,30,,,0.6,0.4,0.5,1*3F,1772176789018
NMEA,$GNGSA,A,3,73,75,85,86,,,,,,,,,0.6,0.4,0.5,2*30,1772176789018
NMEA,$GNGSA,A,3,02,03,07,08,14,15,25,30,34,36,,,0.6,0.4,0.5,3*3D,1772176789018
NMEA,$GNGSA,A,3,02,03,05,06,07,09,10,13,16,23,25,27,0.6,0.4,0.5,4*38,1772176789018
NMEA,$GNGSA,A,3,02,03,,,,,,,,,,,0.6,0.4,0.5,5*33,1772176789018
NMEA,$GNVTG,,T,,M,0.0,N,0.0,K,A*3D,1772176789018
NMEA,$GNDTM,W84,,0000.000000,N,00000.000000,E,0.000,W84*41,1772176789018
NMEA,$GNRMC,071949.00,A,1304.091211,N,07735.506050,E,0.0,,270226,1.1,W,A,V*60,1772176789018
NMEA,$GNGNS,071949.00,1304.091211,N,07735.506050,E,AAAAAN,48,0.4,958.9,-85.8,,,V*0E,1772176789018
NMEA,$GNGGA,071949.00,1304.091211,N,07735.506050,E,1,12,0.4,958.9,M,-85.8,M,,*5E,1772176789018
NMEA,$GPGSV,4,1,14,03,01,054,33,06,81,035,45,11,51,213,45,13,20,228,33,1*62,1772176790013
NMEA,$GPGSV,4,2,14,14,42,081,37,17,27,028,39,19,41,359,43,21,14,183,35,1*65,1772176790013
NMEA,$GPGSV,4,3,14,22,47,055,42,24,23,309,43,30,28,160,41,15,02,251,,1*62,1772176790013
NMEA,$GPGSV,4,4,14,40,00,000,47,41,00,000,46,1*61,1772176790013
NMEA,$GLGSV,2,1,06,86,54,248,41,73,13,135,29,76,03,332,31,75,49,005,38,1*70,1772176790013
NMEA,$GLGSV,2,2,06,87,18,222,24,85,45,004,36,1*71,1772176790013
NMEA,$GAGSV,3,1,10,02,47,024,41,03,17,189,33,07,05,289,23,08,22,241,34,7*7F,1772176790013
NMEA,$GAGSV,3,2,10,14,50,344,45,15,25,207,37,25,26,089,35,30,21,326,40,7*74,1772176790013
NMEA,$GAGSV,3,3,10,34,76,171,44,36,44,042,34,7*77,1772176790013
NMEA,$GQGSV,1,1,02,02,23,080,41,03,24,055,37,1*68,1772176790013
NMEA,$GBGSV,7,1,25,60,72,171,43,59,18,099,38,43,05,041,40,41,08,149,40,1*7C,1772176790013
NMEA,$GBGSV,7,2,25,40,26,034,33,39,30,156,40,38,30,114,40,37,66,347,46,1*72,1772176790013
NMEA,$GBGSV,7,3,25,32,04,200,26,30,12,239,32,28,52,005,43,27,57,281,47,1*7F,1772176790013
NMEA,$GBGSV,7,4,25,25,08,137,35,23,54,123,45,16,37,154,39,13,27,143,38,1*7C,1772176790013
NMEA,$GBGSV,7,5,25,10,47,018,33,09,59,157,38,08,26,132,35,07,39,034,36,1*70,1772176790013
NMEA,$GBGSV,7,6,25,06,44,155,40,05,61,230,42,03,49,111,34,02,68,159,39,1*75,1772176790013
NMEA,$GBGSV,7,7,25,01,14,096,35,1*4C,1772176790013
NMEA,$GBGSV,3,1,11,23,54,123,46,25,08,137,35,27,57,281,48,28,52,005,47,3*73,1772176790013
NMEA,$GBGSV,3,2,11,30,12,239,33,37,66,347,47,38,30,114,42,39,30,156,40,3*7F,1772176790013
NMEA,$GBGSV,3,3,11,40,26,034,36,41,08,149,41,43,05,041,41,3*40,1772176790013
NMEA,$GNGSA,A,3,06,11,13,14,17,19,21,22,24,30,,,0.6,0.4,0.5,1*3F,1772176790017
NMEA,$GNGSA,A,3,73,75,85,86,,,,,,,,,0.6,0.4,0.5,2*30,1772176790017
NMEA,$GNGSA,A,3,02,03,07,08,14,15,25,30,34,36,,,0.6,0.4,0.5,3*3D,1772176790017
NMEA,$GNGSA,A,3,02,03,05,06,07,09,10,13,16,23,25,27,0.6,0.4,0.5,4*38,1772176790017
NMEA,$GNGSA,A,3,02,03,,,,,,,,,,,0.6,0.4,0.5,5*33,1772176790017
NMEA,$GNVTG,,T,,M,0.0,N,0.0,K,A*3D,1772176790017
NMEA,$GNDTM,W84,,0000.000000,N,00000.000000,E,0.000,W84*41,1772176790017
NMEA,$GNRMC,071950.00,A,1304.091210,N,07735.506051,E,0.0,,270226,1.1,W,A,V*68,1772176790017
NMEA,$GNGNS,071950.00,1304.091210,N,07735.506051,E,AAAAAN,48,0.4,958.9,-85.8,,,V*06,1772176790017
NMEA,$GNGGA,071950.00,1304.091210,N,07735.506051,E,1,12,0.4,958.9,M,-85.8,M,,*56,1772176790017
NMEA,$GPGSV,4,1,14,03,01,054,31,06,81,035,44,11,51,213,45,13,20,228,33,1*61,1772176791015
NMEA,$GPGSV,4,2,14,14,42,081,38,17,27,028,38,19,41,359,43,21,14,183,35,1*6B,1772176791015
NMEA,$GPGSV,4,3,14,22,47,055,42,24,23,309,43,30,28,160,41,15,02,251,,1*62,1772176791015
NMEA,$GPGSV,4,4,14,40,00,000,47,41,00,000,45,1*62,1772176791015
NMEA,$GLGSV,2,1,06,86,54,248,41,73,13,135,28,76,03,332,30,75,49,005,37,1*7F,1772176791015
NMEA,$GLGSV,2,2,06,87,18,222,23,85,45,004,35,1*75,1772176791015
NMEA,$GAGSV,3,1,10,02,47,024,42,03,17,189,34,07,05,289,22,08,22,241,35,7*7B,1772176791015
NMEA,$GAGSV,3,2,10,14,50,344,45,15,25,207,37,25,26,089,35,30,21,326,40,7*74,1772176791015
NMEA,$GAGSV,3,3,10,34,76,171,44,36,44,042,35,7*76,1772176791015
NMEA,$GQGSV,1,1,02,02,23,080,40,03,24,055,36,1*68,1772176791015
NMEA,$GBGSV,7,1,25,60,72,171,43,59,18,099,38,43,05,041,40,41,08,149,39,1*72,1772176791015
NMEA,$GBGSV,7,2,25,40,26,034,33,39,30,156,40,38,30,114,40,37,66,347,46,1*72,1772176791015
NMEA,$GBGSV,7,3,25,32,04,200,25,30,12,239,32,28,52,005,43,27,57,281,47,1*7C,1772176791015
NMEA,$GBGSV,7,4,25,25,08,137,34,23,54,123,45,16,37,154,39,13,27,143,38,1*7D,1772176791015
NMEA,$GBGSV,7,5,25,10,47,018,33,09,59,157,38,08,26,132,35,07,39,034,36,1*70,1772176791015
NMEA,$GBGSV,7,6,25,06,44,155,40,05,61,230,42,03,49,111,33,02,68,159,39,1*72,1772176791015
NMEA,$GBGSV,7,7,25,01,14,096,35,1*4C,1772176791015
NMEA,$GBGSV,3,1,11,23,54,123,47,25,08,137,35,27,57,281,49,28,52,005,46,3*72,1772176791015
NMEA,$GBGSV,3,2,11,30,12,239,34,37,66,347,47,38,30,114,42,39,30,156,41,3*79,1772176791015
NMEA,$GBGSV,3,3,11,40,26,034,37,41,08,149,41,43,05,041,41,3*41,1772176791015
NMEA,$GNGSA,A,3,06,11,13,14,17,19,21,22,24,30,,,0.6,0.4,0.5,1*3F,1772176791019
NMEA,$GNGSA,A,3,73,75,85,86,,,,,,,,,0.6,0.4,0.5,2*30,1772176791019
NMEA,$GNGSA,A,3,02,03,07,08,14,15,25,30,34,36,,,0.6,0.4,0.5,3*3D,1772176791019
NMEA,$GNGSA,A,3,02,03,05,06,07,09,10,13,16,23,25,27,0.6,0.4,0.5,4*38,1772176791019
NMEA,$GNGSA,A,3,02,03,,,,,,,,,,,0.6,0.4,0.5,5*33,1772176791019
NMEA,$GNVTG,,T,,M,0.0,N,0.0,K,A*3D,1772176791019
NMEA,$GNDTM,W84,,0000.000000,N,00000.000000,E,0.000,W84*41,1772176791019
NMEA,$GNRMC,071951.00,A,1304.091209,N,07735.506051,E,0.0,,270226,1.1,W,A,V*61,1772176791019
NMEA,$GNGNS,071951.00,1304.091209,N,07735.506051,E,AAAAAN,48,0.4,958.9,-85.8,,,V*0F,1772176791019
NMEA,$GNGGA,071951.00,1304.091209,N,07735.506051,E,1,12,0.4,958.9,M,-85.8,M,,*5F,1772176791019
NMEA,$GPGSV,4,1,14,03,01,054,31,06,81,035,44,11,51,213,45,13,20,228,33,1*61,1772176792014
NMEA,$GPGSV,4,2,14,14,42,081,37,17,27,028,38,19,41,359,42,21,14,183,35,1*65,1772176792014
NMEA,$GPGSV,4,3,14,22,47,055,41,24,23,309,43,30,28,160,41,15,02,251,,1*61,1772176792014
NMEA,$GPGSV,4,4,14,40,00,000,47,41,00,000,45,1*62,1772176792014
NMEA,$GLGSV,2,1,06,86,54,248,40,73,13,135,26,76,03,332,29,75,49,005,36,1*79,1772176792014
NMEA,$GLGSV,2,2,06,87,18,222,23,85,45,004,34,1*74,1772176792014
NMEA,$GAGSV,3,1,10,02,47,024,41,03,17,189,34,07,05,289,23,08,22,241,34,7*78,1772176792014
NMEA,$GAGSV,3,2,10,14,50,344,44,15,25,207,37,25,26,089,35,30,21,326,40,7*75,1772176792014
NMEA,$GAGSV,3,3,10,34,76,171,44,36,44,042,34,7*77,1772176792014
NMEA,$GQGSV,1,1,02,02,23,080,40,03,24,055,36,1*68,1772176792014
NMEA,$GBGSV,7,1,25,60,72,171,42,59,18,099,37,43,05,041,40,41,08,149,38,1*7D,1772176792014
NMEA,$GBGSV,7,2,25,40,26,034,32,39,30,156,39,38,30,114,39,37,66,347,45,1*70,1772176792014
NMEA,$GBGSV,7,3,25,32,04,200,24,30,12,239,31,28,52,005,42,27,57,281,46,1*7E,1772176792014
NMEA,$GBGSV,7,4,25,25,08,137,33,23,54,123,44,16,37,154,38,13,27,143,36,1*74,1772176792014
NMEA,$GBGSV,7,5,25,10,47,018,32,09,59,157,37,08,26,132,34,07,39,034,34,1*7D,1772176792014
NMEA,$GBGSV,7,6,25,06,44,155,38,05,61,230,41,03,49,111,33,02,68,159,38,1*7F,1772176792014
NMEA,$GBGSV,7,7,25,01,14,096,34,1*4D,1772176792014
NMEA,$GBGSV,3,1,11,23,54,123,46,25,08,137,35,27,57,281,48,28,52,005,46,3*72,1772176792014
NMEA,$GBGSV,3,2,11,30,12,239,32,37,66,347,47,38,30,114,42,39,30,156,41,3*7F,1772176792014
NMEA,$GBGSV,3,3,11,40,26,034,36,41,08,149,41,43,05,041,41,3*40,1772176792014
NMEA,$GNGSA,A,3,06,11,13,14,17,19,21,22,24,30,,,0.6,0.4,0.5,1*3F,1772176792017
NMEA,$GNGSA,A,3,73,75,85,86,,,,,,,,,0.6,0.4,0.5,2*30,1772176792017
NMEA,$GNGSA,A,3,02,03,07,08,14,15,25,30,34,36,,,0.6,0.4,0.5,3*3D,1772176792017
NMEA,$GNGSA,A,3,02,03,05,06,07,09,10,13,16,23,25,27,0.6,0.4,0.5,4*38,1772176792017
NMEA,$GNGSA,A,3,02,03,,,,,,,,,,,0.6,0.4,0.5,5*33,1772176792017
NMEA,$GNVTG,,T,,M,0.0,N,0.0,K,A*3D,1772176792017
NMEA,$GNDTM,W84,,0000.000000,N,00000.000000,E,0.000,W84*41,1772176792017
NMEA,$GNRMC,071952.00,A,1304.091206,N,07735.506051,E,0.0,,270226,1.1,W,A,V*6D,1772176792017
NMEA,$GNGNS,071952.00,1304.091206,N,07735.506051,E,AAAAAN,48,0.4,958.9,-85.8,,,V*03,1772176792017
NMEA,$GNGGA,071952.00,1304.091206,N,07735.506051,E,1,12,0.4,958.9,M,-85.8,M,,*53,1772176792017
NMEA,$GPGSV,4,1,14,03,01,054,31,06,81,035,44,11,51,213,44,13,20,228,32,1*61,1772176793014
NMEA,$GPGSV,4,2,14,14,42,081,37,17,27,028,37,19,41,359,42,21,14,183,34,1*6B,1772176793014
NMEA,$GPGSV,4,3,14,22,47,055,41,24,23,309,42,30,28,160,40,15,02,251,,1*61,1772176793014
NMEA,$GPGSV,4,4,14,40,00,000,47,41,00,000,45,1*62,1772176793014
NMEA,$GLGSV,2,1,06,86,54,248,39,73,13,135,27,76,03,332,29,75,49,005,35,1*75,1772176793014
NMEA,$GLGSV,2,2,06,87,18,222,23,85,45,004,33,1*73,1772176793014
NMEA,$GAGSV,3,1,10,02,47,024,41,03,17,189,33,07,05,289,23,08,22,241,33,7*78,1772176793014
NMEA,$GAGSV,3,2,10,14,50,344,44,15,25,207,36,25,26,089,34,30,21,326,39,7*7B,1772176793014
NMEA,$GAGSV,3,3,10,34,76,171,43,36,44,042,33,7*77,1772176793014
NMEA,$GQGSV,1,1,02,02,23,080,40,03,24,055,36,1*68,1772176793014
NMEA,$GBGSV,7,1,25,60,72,171,42,59,18,099,36,43,05,041,39,41,08,149,38,1*72,1772176793014
NMEA,$GBGSV,7,2,25,40,26,034,32,39,30,156,39,38,30,114,39,37,66,347,44,1*71,1772176793014
NMEA,$GBGSV,7,3,25,32,04,200,23,30,12,239,30,28,52,005,42,27,57,281,45,1*7B,1772176793014
NMEA,$GBGSV,7,4,25,25,08,137,32,23,54,123,44,16,37,154,37,13,27,143,37,1*7B,1772176793014
NMEA,$GBGSV,7,5,25,10,47,018,32,09,59,157,37,08,26,132,33,07,39,034,34,1*7A,1772176793014
NMEA,$GBGSV,7,6,25,06,44,155,38,05,61,230,40,03,49,111,32,02,68,159,38,1*7F,1772176793014
NMEA,$GBGSV,7,7,25,01,14,096,34,1*4D,1772176793014
NMEA,$GBGSV,3,1,11,23,54,123,45,25,08,137,35,27,57,281,48,28,52,005,46,3*71,1772176793014
NMEA,$GBGSV,3,2,11,30,12,239,32,37,66,347,47,38,30,114,41,39,30,156,40,3*7D,1772176793014
NMEA,$GBGSV,3,3,11,40,26,034,36,41,08,149,40,43,05,041,40,3*40,1772176793014
NMEA,$GNGSA,A,3,06,11,13,14,17,19,21,22,24,30,,,0.6,0.4,0.5,1*3F,1772176793017
NMEA,$GNGSA,A,3,73,75,85,86,,,,,,,,,0.6,0.4,0.5,2*30,1772176793017
NMEA,$GNGSA,A,3,02,03,07,08,14,15,25,30,34,36,,,0.6,0.4,0.5,3*3D,1772176793017
NMEA,$GNGSA,A,3,02,03,05,06,07,09,10,13,16,23,25,27,0.6,0.4,0.5,4*38,1772176793017
NMEA,$GNGSA,A,3,02,03,,,,,,,,,,,0.6,0.4,0.5,5*33,1772176793017
NMEA,$GNVTG,,T,,M,0.0,N,0.0,K,A*3D,1772176793017
NMEA,$GNDTM,W84,,0000.000000,N,00000.000000,E,0.000,W84*41,1772176793017
NMEA,$GNRMC,071953.00,A,1304.091204,N,07735.506051,E,0.0,,270226,1.1,W,A,V*6E,1772176793017
NMEA,$GNGNS,071953.00,1304.091204,N,07735.506051,E,AAAAAN,48,0.4,958.9,-85.8,,,V*00,1772176793017
NMEA,$GNGGA,071953.00,1304.091204,N,07735.506051,E,1,12,0.4,958.9,M,-85.8,M,,*50,1772176793017
NMEA,$GPGSV,4,1,14,03,01,054,30,06,81,035,44,11,51,213,44,13,20,228,32,1*60,1772176794015
NMEA,$GPGSV,4,2,14,14,42,081,37,17,27,028,37,19,41,359,42,21,14,183,34,1*6B,1772176794015
NMEA,$GPGSV,4,3,14,22,47,055,41,24,23,309,43,30,28,160,40,15,02,251,,1*60,1772176794015
NMEA,$GPGSV,4,4,14,40,00,000,47,41,00,000,45,1*62,1772176794015
NMEA,$GLGSV,2,1,06,86,54,248,39,73,13,135,25,76,03,332,30,75,49,005,36,1*7C,1772176794015
NMEA,$GLGSV,2,2,06,87,18,222,22,85,45,004,33,1*72,1772176794015
NMEA,$GAGSV,3,1,10,02,47,024,41,03,17,189,33,07,05,289,23,08,22,241,34,7*7F,1772176794015
NMEA,$GAGSV,3,2,10,14,50,344,44,15,25,207,37,25,26,089,34,30,21,326,39,7*7A,1772176794015
NMEA,$GAGSV,3,3,10,34,76,171,44,36,44,042,34,7*77,1772176794015
NMEA,$GQGSV,1,1,02,02,23,080,40,03,24,055,36,1*68,1772176794015
NMEA,$GBGSV,7,1,25,60,72,171,42,59,18,099,36,43,05,041,39,41,08,149,38,1*72,1772176794015
NMEA,$GBGSV,7,2,25,40,26,034,31,39,30,156,39,38,30,114,39,37,66,347,45,1*73,1772176794015
NMEA,$GBGSV,7,3,25,32,04,200,26,30,12,239,30,28,52,005,41,27,57,281,46,1*7E,1772176794015
NMEA,$GBGSV,7,4,25,25,08,137,33,23,54,123,44,16,37,154,38,13,27,143,37,1*75,1772176794015
NMEA,$GBGSV,7,5,25,10,47,018,32,09,59,157,37,08,26,132,33,07,39,034,34,1*7A,1772176794015
NMEA,$GBGSV,7,6,25,06,44,155,38,05,61,230,41,03,49,111,32,02,68,159,38,1*7E,1772176794015
NMEA,$GBGSV,7,7,25,01,14,096,34,1*4D,1772176794015
NMEA,$GBGSV,3,1,11,23,54,123,46,25,08,137,35,27,57,281,49,28,52,005,46,3*73,1772176794015
NMEA,$GBGSV,3,2,11,30,12,239,33,37,66,347,47,38,30,114,42,39,30,156,41,3*7E,1772176794015
NMEA,$GBGSV,3,3,11,40,26,034,36,41,08,149,40,43,05,041,41,3*41,1772176794015
NMEA,$GNGSA,A,3,06,11,13,14,17,19,21,22,24,30,,,0.6,0.4,0.5,1*3F,1772176794019
NMEA,$GNGSA,A,3,73,75,85,86,,,,,,,,,0.6,0.4,0.5,2*30,1772176794019
NMEA,$GNGSA,A,3,02,03,07,08,14,15,25,30,34,36,,,0.6,0.4,0.5,3*3D,1772176794019
NMEA,$GNGSA,A,3,02,03,05,06,07,09,10,13,16,23,25,27,0.6,0.4,0.5,4*38,1772176794019
NMEA,$GNGSA,A,3,02,03,,,,,,,,,,,0.6,0.4,0.5,5*33,1772176794019
NMEA,$GNVTG,,T,,M,0.0,N,0.0,K,A*3D,1772176794019
NMEA,$GNDTM,W84,,0000.000000,N,00000.000000,E,0.000,W84*41,1772176794019
NMEA,$GNRMC,071954.00,A,1304.091202,N,07735.506051,E,0.0,,270226,1.1,W,A,V*6F,1772176794019
NMEA,$GNGNS,071954.00,1304.091202,N,07735.506051,E,AAAAAN,48,0.4,958.9,-85.8,,,V*01,1772176794019
NMEA,$GNGGA,071954.00,1304.091202,N,07735.506051,E,1,12,0.4,958.9,M,-85.8,M,,*51,1772176794019
NMEA,$GPGSV,4,1,14,03,01,053,30,06,81,035,44,11,51,213,44,13,20,228,32,1*67,1772176795013
NMEA,$GPGSV,4,2,14,14,42,081,36,17,27,028,37,19,41,359,42,21,14,183,34,1*6A,1772176795013
NMEA,$GPGSV,4,3,14,22,47,055,40,24,23,309,42,30,28,160,40,15,02,251,,1*60,1772176795013
NMEA,$GPGSV,4,4,14,40,00,000,46,41,00,000,45,1*63,1772176795013
NMEA,$GLGSV,2,1,06,86,54,248,39,73,13,135,26,76,03,332,29,75,49,005,35,1*74,1772176795013
NMEA,$GLGSV,2,2,06,87,18,222,22,85,45,004,33,1*72,1772176795013
NMEA,$GAGSV,3,1,10,02,47,024,40,03,17,189,33,07,05,289,22,08,22,241,34,7*7F,1772176795013
NMEA,$GAGSV,3,2,10,14,50,344,44,15,25,207,36,25,26,089,34,30,21,326,39,7*7B,1772176795013
NMEA,$GAGSV,3,3,10,34,76,171,43,36,44,042,34,7*70,1772176795013
NMEA,$GQGSV,1,1,02,02,23,080,40,03,24,055,36,1*68,1772176795013
NMEA,$GBGSV,7,1,25,60,72,171,42,59,18,099,37,43,05,041,39,41,08,149,38,1*73,1772176795013
NMEA,$GBGSV,7,2,25,40,26,034,32,39,30,156,39,38,30,114,39,37,66,347,44,1*71,1772176795013
NMEA,$GBGSV,7,3,25,32,04,200,23,30,12,239,30,28,52,005,42,27,57,281,45,1*7B,1772176795013
NMEA,$GBGSV,7,4,25,25,08,137,33,23,54,123,44,16,37,154,38,13,27,143,37,1*75,1772176795013
NMEA,$GBGSV,7,5,25,10,47,018,32,09,59,157,37,08,26,132,34,07,39,034,34,1*7D,1772176795013
NMEA,$GBGSV,7,6,25,06,44,155,38,05,61,230,41,03,49,111,32,02,68,159,38,1*7E,1772176795013
NMEA,$GBGSV,7,7,25,01,14,096,34,1*4D,1772176795013
NMEA,$GBGSV,3,1,11,23,54,123,46,25,08,137,35,27,57,281,48,28,52,005,46,3*72,1772176795013
NMEA,$GBGSV,3,2,11,30,12,239,33,37,66,347,47,38,30,114,41,39,30,156,40,3*7C,1772176795013
NMEA,$GBGSV,3,3,11,40,26,034,36,41,08,149,40,43,05,041,40,3*40,1772176795013
NMEA,$GNGSA,A,3,06,11,13,14,17,19,21,22,24,30,,,0.6,0.4,0.5,1*3F,1772176795020
NMEA,$GNGSA,A,3,73,75,85,86,,,,,,,,,0.6,0.4,0.5,2*30,1772176795020
NMEA,$GNGSA,A,3,02,03,07,08,14,15,25,30,34,36,,,0.6,0.4,0.5,3*3D,1772176795020
NMEA,$GNGSA,A,3,02,03,05,06,07,09,10,13,16,23,25,27,0.6,0.4,0.5,4*38,1772176795020
NMEA,$GNGSA,A,3,02,03,,,,,,,,,,,0.6,0.4,0.5,5*33,1772176795020
NMEA,$GNVTG,,T,,M,0.0,N,0.0,K,A*3D,1772176795020
NMEA,$GNDTM,W84,,0000.000000,N,00000.000000,E,0.000,W84*41,1772176795020
NMEA,$GNRMC,071955.00,A,1304.091200,N,07735.506045,E,0.0,,270226,1.1,W,A,V*69,1772176795020
NMEA,$GNGNS,071955.00,1304.091200,N,07735.506045,E,AAAAAN,48,0.4,958.9,-85.8,,,V*07,1772176795020
NMEA,$GNGGA,071955.00,1304.091200,N,07735.506045,E,1,12,0.4,958.9,M,-85.8,M,,*57,1772176795020
NMEA,$GPGSV,4,1,14,03,01,053,30,06,81,035,43,11,51,213,44,13,20,228,32,1*60,1772176796015
NMEA,$GPGSV,4,2,14,14,42,081,36,17,27,028,37,19,41,359,42,21,14,183,34,1*6A,1772176796015
NMEA,$GPGSV,4,3,14,22,47,055,41,24,23,309,42,30,28,160,40,15,02,251,,1*61,1772176796015
NMEA,$GPGSV,4,4,14,40,00,000,46,41,00,000,44,1*62,1772176796015
NMEA,$GLGSV,2,1,06,86,54,248,39,73,13,135,26,76,03,332,29,75,49,005,36,1*77,1772176796015
NMEA,$GLGSV,2,2,06,87,18,222,22,85,45,004,34,1*75,1772176796015
NMEA,$GAGSV,3,1,10,02,47,024,40,03,17,189,33,07,05,289,24,08,22,241,34,7*79,1772176796015
NMEA,$GAGSV,3,2,10,14,50,344,44,15,25,207,36,25,26,089,34,30,21,326,39,7*7B,1772176796015
NMEA,$GAGSV,3,3,10,34,76,171,43,36,44,042,33,7*77,1772176796015
NMEA,$GQGSV,1,1,02,02,23,080,40,03,24,055,35,1*6B,1772176796015
NMEA,$GBGSV,7,1,25,60,72,171,42,59,18,099,37,43,05,041,39,41,08,149,38,1*73,1772176796015
NMEA,$GBGSV,7,2,25,40,26,034,32,39,30,156,39,38,30,114,39,37,66,347,45,1*70,1772176796015
NMEA,$GBGSV,7,3,25,32,04,200,23,30,12,239,31,28,52,005,42,27,57,281,46,1*79,1772176796015
NMEA,$GBGSV,7,4,25,25,08,137,32,23,54,123,44,16,37,154,38,13,27,143,37,1*74,1772176796015
NMEA,$GBGSV,7,5,25,10,47,018,32,09,59,157,37,08,26,132,34,07,39,034,35,1*7C,1772176796015
NMEA,$GBGSV,7,6,25,06,44,155,39,05,61,230,41,03,49,111,32,02,68,159,38,1*7F,1772176796015
NMEA,$GBGSV,7,7,25,01,14,096,34,1*4D,1772176796015
NMEA,$GBGSV,3,1,11,23,54,123,46,25,08,137,35,27,57,281,48,28,52,005,46,3*72,1772176796015
NMEA,$GBGSV,3,2,11,30,12,239,33,37,66,347,47,38,30,114,41,39,30,156,40,3*7C,1772176796015
NMEA,$GBGSV,3,3,11,40,26,034,36,41,08,149,40,43,05,041,40,3*40,1772176796015
NMEA,$GNGSA,A,3,06,11,13,14,17,19,21,22,24,30,,,0.6,0.4,0.5,1*3F,1772176796018
NMEA,$GNGSA,A,3,73,75,85,86,,,,,,,,,0.6,0.4,0.5,2*30,1772176796018
NMEA,$GNGSA,A,3,02,03,07,08,14,15,25,30,34,36,,,0.6,0.4,0.5,3*3D,1772176796018
NMEA,$GNGSA,A,3,02,03,05,06,07,09,10,13,16,23,25,27,0.6,0.4,0.5,4*38,1772176796018
NMEA,$GNGSA,A,3,02,03,,,,,,,,,,,0.6,0.4,0.5,5*33,1772176796018
NMEA,$GNVTG,,T,,M,0.0,N,0.0,K,A*3D,1772176796018
NMEA,$GNDTM,W84,,0000.000000,N,00000.000000,E,0.000,W84*41,1772176796018
NMEA,$GNRMC,071956.00,A,1304.091200,N,07735.506045,E,0.0,,270226,1.1,W,A,V*6A,1772176796018
NMEA,$GNGNS,071956.00,1304.091200,N,07735.506045,E,AAAAAN,48,0.4,958.9,-85.8,,,V*04,1772176796018
NMEA,$GNGGA,071956.00,1304.091200,N,07735.506045,E,1,12,0.4,958.9,M,-85.8,M,,*54,1772176796018
NMEA,$GPGSV,4,1,14,03,01,053,30,06,81,035,44,11,51,213,45,13,20,228,32,1*66,1772176797015
NMEA,$GPGSV,4,2,14,14,42,081,36,17,27,028,37,19,41,359,42,21,14,183,35,1*6B,1772176797015
NMEA,$GPGSV,4,3,14,22,47,055,41,24,23,309,42,30,28,160,40,15,02,251,,1*61,1772176797015
NMEA,$GPGSV,4,4,14,40,00,000,47,41,00,000,45,1*62,1772176797015
NMEA,$GLGSV,2,1,06,86,54,248,40,73,13,135,27,76,03,332,31,75,49,005,37,1*70,1772176797015
NMEA,$GLGSV,2,2,06,87,18,222,23,85,45,004,35,1*75,1772176797015
NMEA,$GAGSV,3,1,10,02,47,024,41,03,17,189,34,07,05,289,23,08,22,241,34,7*78,1772176797015
NMEA,$GAGSV,3,2,10,14,50,344,44,15,25,207,36,25,26,089,35,30,21,326,39,7*7A,1772176797015
NMEA,$GAGSV,3,3,10,34,76,171,44,36,44,042,34,7*77,1772176797015
NMEA,$GQGSV,1,1,02,02,23,080,40,03,24,055,36,1*68,1772176797015
NMEA,$GBGSV,7,1,25,60,72,171,43,59,18,099,38,43,05,041,40,41,08,149,39,1*72,1772176797015
NMEA,$GBGSV,7,2,25,40,26,034,33,39,30,156,40,38,30,114,40,37,66,347,46,1*72,1772176797015
NMEA,$GBGSV,7,3,25,32,04,200,24,30,12,239,32,28,52,005,42,27,57,281,46,1*7D,1772176797015
NMEA,$GBGSV,7,4,25,25,08,137,34,23,54,123,45,16,37,154,39,13,27,143,38,1*7D,1772176797015
NMEA,$GBGSV,7,5,25,10,47,018,33,09,59,157,38,08,26,132,35,07,39,034,36,1*70,1772176797015
NMEA,$GBGSV,7,6,25,06,44,155,39,05,61,230,42,03,49,111,34,02,68,159,39,1*7B,1772176797015
NMEA,$GBGSV,7,7,25,01,14,096,35,1*4C,1772176797015
NMEA,$GBGSV,3,1,11,23,54,123,46,25,08,137,35,27,57,281,48,28,52,005,46,3*72,1772176797015
NMEA,$GBGSV,3,2,11,30,12,239,33,37,66,347,47,38,30,114,42,39,30,156,41,3*7E,1772176797015
NMEA,$GBGSV,3,3,11,40,26,034,36,41,08,149,41,43,05,041,40,3*41,1772176797015
NMEA,$GNGSA,A,3,06,11,13,14,17,19,21,22,24,30,,,0.6,0.4,0.5,1*3F,1772176797019
NMEA,$GNGSA,A,3,73,75,85,86,,,,,,,,,0.6,0.4,0.5,2*30,1772176797019
NMEA,$GNGSA,A,3,02,03,07,08,14,15,25,30,34,36,,,0.6,0.4,0.5,3*3D,1772176797019
NMEA,$GNGSA,A,3,02,03,05,06,07,09,10,13,16,23,25,27,0.6,0.4,0.5,4*38,1772176797019
NMEA,$GNGSA,A,3,02,03,,,,,,,,,,,0.6,0.4,0.5,5*33,1772176797019
NMEA,$GNVTG,,T,,M,0.0,N,0.0,K,A*3D,1772176797019
NMEA,$GNDTM,W84,,0000.000000,N,00000.000000,E,0.000,W84*41,1772176797019
NMEA,$GNRMC,071957.00,A,1304.091199,N,07735.506045,E,0.0,,270226,1.1,W,A,V*68,1772176797019
NMEA,$GNGNS,071957.00,1304.091199,N,07735.506045,E,AAAAAN,48,0.4,958.9,-85.8,,,V*06,1772176797019
NMEA,$GNGGA,071957.00,1304.091199,N,07735.506045,E,1,12,0.4,958.9,M,-85.8,M,,*56,1772176797019
NMEA,$GPGSV,4,1,14,03,01,053,30,06,81,035,43,11,51,213,44,13,20,228,32,1*60,1772176798014
NMEA,$GPGSV,4,2,14,14,42,081,36,17,27,028,37,19,41,359,41,21,14,183,34,1*69,1772176798014
NMEA,$GPGSV,4,3,14,22,47,055,40,24,23,309,42,30,28,160,40,15,02,251,,1*60,1772176798014
NMEA,$GPGSV,4,4,14,40,00,000,46,41,00,000,44,1*62,1772176798014
NMEA,$GLGSV,2,1,06,86,54,248,39,73,13,135,26,76,03,332,30,75,49,005,36,1*7F,1772176798014
NMEA,$GLGSV,2,2,06,87,18,222,23,85,45,004,34,1*74,1772176798014
NMEA,$GAGSV,3,1,10,02,47,024,40,03,17,189,33,07,05,289,24,08,22,241,33,7*7E,1772176798014
NMEA,$GAGSV,3,2,10,14,50,344,44,15,25,207,36,25,26,089,34,30,21,326,39,7*7B,1772176798014
NMEA,$GAGSV,3,3,10,34,76,171,43,36,44,042,33,7*77,1772176798014
NMEA,$GQGSV,1,1,02,02,23,080,39,03,24,055,35,1*65,1772176798014
NMEA,$GBGSV,7,1,25,60,72,171,43,59,18,099,37,43,05,041,39,41,08,149,38,1*72,1772176798014
NMEA,$GBGSV,7,2,25,40,26,034,32,39,30,156,39,38,30,114,39,37,66,347,44,1*71,1772176798014
NMEA,$GBGSV,7,3,25,32,04,200,24,30,12,239,30,28,52,005,41,27,57,281,45,1*7F,1772176798014
NMEA,$GBGSV,7,4,25,25,08,137,32,23,54,123,44,16,37,154,38,13,27,143,36,1*75,1772176798014
NMEA,$GBGSV,7,5,25,10,47,018,31,09,59,157,36,08,26,132,33,07,39,034,34,1*78,1772176798014
NMEA,$GBGSV,7,6,25,06,44,155,38,05,61,230,40,03,49,111,32,02,68,159,38,1*7F,1772176798014
NMEA,$GBGSV,7,7,25,01,14,096,34,1*4D,1772176798014
NMEA,$GBGSV,3,1,11,23,54,123,46,25,08,137,35,27,57,281,48,28,52,005,46,3*72,1772176798014
NMEA,$GBGSV,3,2,11,30,12,239,32,37,66,347,47,38,30,114,41,39,30,156,40,3*7D,1772176798014
NMEA,$GBGSV,3,3,11,40,26,034,36,41,08,149,40,43,05,041,40,3*40,1772176798014
NMEA,$GNGSA,A,3,06,11,13,14,17,19,21,22,24,30,,,0.6,0.4,0.5,1*3F,1772176798019
NMEA,$GNGSA,A,3,73,75,85,86,,,,,,,,,0.6,0.4,0.5,2*30,1772176798019
NMEA,$GNGSA,A,3,02,03,07,08,14,15,25,30,34,36,,,0.6,0.4,0.5,3*3D,1772176798019
NMEA,$GNGSA,A,3,02,03,05,06,07,09,10,13,16,23,25,27,0.6,0.4,0.5,4*38,1772176798019
NMEA,$GNGSA,A,3,02,03,,,,,,,,,,,0.6,0.4,0.5,5*33,1772176798019
NMEA,$GNVTG,,T,,M,0.0,N,0.0,K,A*3D,1772176798019
NMEA,$GNDTM,W84,,0000.000000,N,00000.000000,E,0.000,W84*41,1772176798019
NMEA,$GNRMC,071958.00,A,1304.091198,N,07735.506045,E,0.0,,270226,1.1,W,A,V*66,1772176798019
NMEA,$GNGNS,071958.00,1304.091198,N,07735.506045,E,AAAAAN,48,0.4,959.0,-85.8,,,V*00,1772176798019
NMEA,$GNGGA,071958.00,1304.091198,N,07735.506045,E,1,12,0.4,959.0,M,-85.8,M,,*50,1772176798019
NMEA,$GPGSV,4,1,14,03,01,053,32,06,81,035,44,11,51,213,44,13,20,228,32,1*65,1772176799015
NMEA,$GPGSV,4,2,14,14,42,081,36,17,27,028,37,19,41,359,41,21,14,183,33,1*6E,1772176799015
NMEA,$GPGSV,4,3,14,22,47,055,40,24,23,309,42,30,28,160,40,15,02,251,,1*60,1772176799015
NMEA,$GPGSV,4,4,14,40,00,000,46,41,00,000,45,1*63,1772176799015
NMEA,$GLGSV,2,1,06,86,54,248,39,73,13,135,24,76,03,332,31,75,49,005,35,1*7F,1772176799015
NMEA,$GLGSV,2,2,06,87,18,222,21,85,45,004,34,1*76,1772176799015
NMEA,$GAGSV,3,1,10,02,47,024,40,03,17,189,33,07,05,289,22,08,22,241,34,7*7F,1772176799015
NMEA,$GAGSV,3,2,10,14,50,344,43,15,25,207,35,25,26,089,34,30,21,326,39,7*7F,1772176799015
NMEA,$GAGSV,3,3,10,34,76,171,43,36,44,042,33,7*77,1772176799015
NMEA,$GQGSV,1,1,02,02,23,080,40,03,24,055,36,1*68,1772176799015
NMEA,$GBGSV,7,1,25,60,72,171,42,59,18,099,37,43,05,041,40,41,08,149,38,1*7D,1772176799015
NMEA,$GBGSV,7,2,25,40,26,034,31,39,30,156,39,38,30,114,39,37,66,347,44,1*72,1772176799015
NMEA,$GBGSV,7,3,25,32,04,200,22,30,12,239,31,28,52,005,42,27,57,281,46,1*78,1772176799015
NMEA,$GBGSV,7,4,25,25,08,137,32,23,54,123,44,16,37,154,38,13,27,143,37,1*74,1772176799015
NMEA,$GBGSV,7,5,25,10,47,018,32,09,59,157,37,08,26,132,34,07,39,034,34,1*7D,1772176799015
NMEA,$GBGSV,7,6,25,06,44,155,39,05,61,230,41,03,49,111,33,02,68,159,38,1*7E,1772176799015
NMEA,$GBGSV,7,7,25,01,14,096,34,1*4D,1772176799015
NMEA,$GBGSV,3,1,11,23,54,123,46,25,08,137,35,27,57,281,48,28,52,005,45,3*71,1772176799015
NMEA,$GBGSV,3,2,11,30,12,239,32,37,66,347,46,38,30,114,42,39,30,156,40,3*7F,1772176799015
NMEA,$GBGSV,3,3,11,40,26,034,36,41,08,149,40,43,05,041,40,3*40,1772176799015
NMEA,$GNGSA,A,3,06,11,13,14,17,19,21,22,24,30,,,0.6,0.4,0.5,1*3F,1772176799019
NMEA,$GNGSA,A,3,73,75,85,86,,,,,,,,,0.6,0.4,0.5,2*30,1772176799019
NMEA,$GNGSA,A,3,02,03,07,08,14,15,25,30,34,36,,,0.6,0.4,0.5,3*3D,1772176799019
NMEA,$GNGSA,A,3,02,03,05,06,07,09,10,13,16,23,25,27,0.6,0.4,0.5,4*38,1772176799019
