     4.01           OBSERVATION DATA    M                   RINEX VERSION / TYPE
GnssLogger          Sony 16             20260227 071952 UTC PGM / RUN BY / DATE
Google GnssLogger                                           MARKER NAME
Unknown                                                     MARKER NUMBER
Unknown             Unknown                                 OBSERVER / AGENCY
Unknown             GnssLogger          v3.1.1.2            REC # / TYPE / VERS
Unknown             Unknown                                 ANT # / TYPE
        0.0000        0.0000        0.0000                  ANTENNA: DELTA H/E/N
G    3 C1C D1C S1C                                          SYS / # / OBS TYPES
R    3 C1C D1C S1C                                          SYS / # / OBS TYPES
J    3 C1C D1C S1C                                          SYS / # / OBS TYPES
C    6 C1P D1P S1P C2I D2I S2I                              SYS / # / OBS TYPES
E    3 C1C D1C S1C                                          SYS / # / OBS TYPES
  2026    02    27    07    19   52.0000000     GPS         TIME OF FIRST OBS
 6 R09 -2 R11  0 R12 -1 R21  4 R22 -3 R23  3                GLONASS SLOT / FRQ #
Sony XQ-GE54 (Android 16) HW Year: 2023 HW Model:           COMMENT
qcom;MPSS.DE.9.0.c2-00076.1-KAANAPALI_GEN_PACK-1.141244.8;  COMMENT
                                                            END OF HEADER
> 2026 02 27 07 19 52.4196190  0 28                      
G03  25380775.78525     -1426.54225        32.00025
G06  20369277.47327      -910.77127        43.80027
G11  21431607.63727      1907.29227        44.60027
G13  23706436.40625     -1927.90825        33.20025
G14  21498187.64526      -719.42126        37.40026
G17  23421635.07026     -2011.90926        38.30026
G19  21772659.63227     -1344.36727        42.10027
G21  24162668.06325      2172.32525        34.00025
G22  21834617.13926       109.84526        40.40026
G24  23173799.64327      1807.17727        42.70027
G30  22662476.02526     -3607.65726        40.70026
J02  40368229.08726      1144.39726        40.30026
J03  42007460.37125      -882.93725        35.30025
R22  20008807.92126       751.04026        39.50026
R09  23183057.83324     -3434.65024        26.30024
R11  20354235.38625      2380.60025        35.20025
R23  22866978.55024      2866.45024        23.80024
R21  20725336.47825     -3325.21225        33.00025
E02  24598739.87726       606.72526        40.30026
E03  27147340.01825     -1975.88225        32.90025
E08  26667405.27025     -1661.04025        33.40025
E14  21649870.33727      2245.01827        43.90027
E15  26337483.37026      2462.92226        35.70026
E25  26239736.63925      -781.89025        33.00025
E30  26886531.37226      1351.33226        39.00026
E34  23432403.61527       538.29127        43.40027
E36  24996028.14025     -2089.26025        32.20025
C39  38417053.55826     -1497.49626        39.40026
> 2026 02 27 07 19 53.4196190  0 28                      
G03  25381048.89625     -1431.02925        32.60025
G06  20369452.25227      -915.44127        44.00027
G11  21431244.28927      1902.78127        44.60027
G13  23706797.65625     -1931.86725        33.00025
G14  21498325.84926      -723.82026        37.50026
G17  23422014.60726     -2015.79326        38.40026
G19  21772917.45327     -1348.36027        42.30027
G21  24162253.15125      2168.44225        33.90025
G22  21834598.85226       105.59826        40.50026
G24  23173456.68027      1802.64327        42.80027
G30  22663162.54926     -3611.89026        40.80026
J02  40368011.73726      1140.45126        40.30026
J03  42007625.85625      -886.94925        35.10025
R22  20008666.11926       746.19326        39.80026
R09  23183691.59524     -3434.50024        27.70024
R11  20353786.29725      2376.10725        35.00025
R23  22866423.93423      2857.20023        22.20023
R21  20725936.06325     -3329.72425        33.30025
E02  24598626.25626       602.72626        40.60026
E03  27147717.75625     -1979.62825        33.50025
E08  26667721.85125     -1665.07625        34.10025
E14  21649444.03227      2241.15827        44.10027
E15  26337017.79226      2458.85826        35.90026
E25  26239890.73225      -786.07725        33.60025
E30  26886274.45026      1347.47926        39.00026
E34  23432301.68527       533.85827        43.80027
E36  24996429.86225     -2093.66125        32.70025
C39  38417338.66026     -1501.71526        39.30026
> 2026 02 27 07 19 54.4196190  0 28                      
G03  25381319.90825     -1432.14325        32.20025
G06  20369627.63127      -916.68527        43.50027
G11  21430885.13727      1901.71327        44.70027
G13  23707173.29625     -1932.35125        32.40025
G14  21498464.65326      -724.73126        36.90026
G17  23422396.54326     -2016.18326        37.90026
G19  21773175.57527     -1348.93627        42.10027
G21  24161845.73325      2167.91325        33.10025
G22  21834582.66326       104.89326        40.20026
G24  23173114.61727      1801.61327        42.20027
G30  22663855.67026     -3612.67626        40.50026
J02  40367794.98726      1139.87426        40.00026
J03  42007796.13825      -887.42925        35.10025
R22  20008533.91126       744.83326        39.10026
R09  23184311.86524     -3438.10024        27.00024
R11  20353354.29625      2375.25225        35.40025
R23  22865864.22223      2861.85023        22.20023
R21  20726587.21325     -3330.58025        32.80025
E02  24598510.83626       601.88726        40.30026
E03  27148091.89725     -1980.25025        33.00025
E08  26668038.73125     -1665.91325        34.00025
E14  21649018.02727      2240.49227        43.30027
E15  26336549.51625      2457.92325        35.40025
E25  26240044.52525      -786.96425        32.90025
E30  26886017.22826      1346.90926        38.50026
E34  23432200.35627       532.64327        43.90027
E36  24996829.48525     -2094.78825        32.70025
C39  38417626.16126     -1502.81626        39.40026
> 2026 02 27 07 19 55.4196190  0 35                      
G03  25381591.22025     -1434.53725        33.40025
G06  20369800.31127      -919.23927        44.50027
G11  21430516.69227      1899.33027        44.90027
G13  23707538.44325     -1934.35525        33.30025
G14  21498604.95626      -726.98626        37.70026
G17  23422782.67526     -2017.87226        38.50026
G19  21773432.79627     -1350.81627        42.80027
G21  24161430.52025      2166.31825        33.90025
G22  21834557.18126       102.76126        41.00026
G24  23172771.05527      1799.25127        43.10027
G30  22664541.29527     -3614.74027        41.50027
J02  40367576.43926      1138.02626        40.60026
J03  42007963.12326      -889.18526        36.20026
R22  20008395.40626       742.14526        40.30026
R09  23184970.80924     -3441.65024        28.80024
R11  20352915.40026      2372.85626        35.90026
R23  22865387.85224      2857.20024        23.60024
R21  20727207.78325     -3332.89425        34.00025
E02  24598396.91426       600.32626        40.20026
E03  27148467.53725     -1981.47825        33.30025
E08  26668357.11125     -1667.46725        34.20025
E14  21648591.12327      2239.15227        43.60027
E15  26336081.84026      2456.19626        35.90026
E25  26240193.82225      -788.74125        33.30025
E30  26885762.40426      1345.56326        39.20026
E34  23432099.02627       530.59427        43.40027
E36  24997224.01225     -2096.81125        32.50025
C23  22656113.52927     -1635.40027        46.00027
C27  22132604.84728      -201.90028        48.00028
C28  22475371.05527     -2109.10027        45.90027
C30  25748862.76425      1742.45025        32.40025
C37  22261523.39827      1131.00027        46.90027
C38  38599540.22526      1317.25026        40.90026
C39  38417911.26426     -1504.26926        40.10026
C40  39049744.55525      -593.65025        35.40025
> 2026 02 27 07 19 56.4196190  0 35                      
G03  25381860.73425     -1434.59225        33.80025
G06  20369978.08827      -919.54527        44.80027
G11  21430159.34027      1899.16127        45.00027
G13  23707909.88625     -1933.89525        33.30025
G14  21498743.16026      -726.98726        38.10026
G17  23423167.60926     -2017.44626        38.50026
G19  21773687.62027     -1350.54227        42.70027
G21  24161017.10625      2166.82525        34.40025
G22  21834540.39326       102.90426        40.80026
G24  23172427.49327      1799.14027        43.30027
G30  22665221.82426     -3614.60726        41.40026
J02  40367357.29026      1138.38626        40.50026
J03  42008137.60226      -888.94726        36.60026
R22  20008255.70326       741.72826        41.00026
R09  23185632.15124     -3439.50024        28.80024
R11  20352472.00726      2372.81926        36.90026
R23  22864800.85823      2860.25023        22.10023
R21  20727819.65926     -3332.96926        35.60026
E02  24598282.39426       600.42326        40.60026
E03  27148845.57625     -1981.14425        33.00025
E08  26668673.69225     -1667.46125        33.60025
E14  21648165.11727      2239.34027        44.00027
E15  26335612.96526      2456.15426        35.70026
E25  26240341.62025      -788.84325        33.90025
E30  26885506.68126      1345.79626        39.30026
E34  23431997.99627       530.31627        43.80027
E36  24997625.43425     -2096.86925        33.60025
C23  22656425.61327     -1635.95027        45.10027
C27  22132643.52028      -202.55028        47.60028
C28  22475773.07627     -2109.50027        44.60027
C30  25748531.79325      1741.80025        32.30025
C37  22261308.44727      1130.65027        46.20027
C38  38599289.89826      1317.15026        41.00026
C39  38418198.46526     -1504.19526        39.80026
C40  39049853.37925      -593.85025        35.30025
> 2026 02 27 07 19 57.4196190  0 35                      
G03  25382137.44225     -1433.36625        33.90025
G06  20370153.46627      -918.53127        44.90027
G11  21429798.09027      1900.38227        45.40027
G13  23708273.83425     -1932.27825        33.30025
G14  21498877.76726      -725.69126        38.40026
G17  23423549.24526     -2015.60126        38.90026
G19  21773944.54227     -1348.83627        42.80027
G21  24160603.09325      2168.70225        34.90025
G22  21834518.80726       104.38326        41.30026
G24  23172087.52827      1800.28427        43.10027
G30  22665913.14527     -3613.12127        41.80027
J02  40367140.84026      1140.07926        40.80026
J03  42008305.18626      -887.24026        36.80026
R22  20008116.00027       742.80727        42.20027
R09  23186256.91925     -3439.35525        29.80025
R11  20352023.51826      2374.21426        37.90026
R23  22864259.43323      2857.15023        22.20023
R21  20728450.42326     -3331.46326        35.70026
E02  24598169.67227       602.06827        41.60027
E03  27149221.51525     -1979.32425        33.30025
E08  26668991.17225     -1665.96725        34.10025
E14  21647739.41227      2241.09527        43.70027
E15  26335146.48826      2457.63126        36.70026
E25  26240491.51625      -787.28825        34.10025
E30  26885250.05926      1347.58226        39.20026
E34  23431897.26527       531.49427        44.60027
E36  24998025.05825     -2095.66225        33.10025
C23  22656736.79827     -1634.20227        46.60027
C27  22132681.89328      -200.54428        47.60028
C28  22476172.40027     -2107.30527        46.10027
C30  25748201.12225      1744.04525        32.90025
C37  22261093.49628      1132.46828        47.50028
C38  38599040.47126      1319.47526        41.40026
C39  38418484.46726     -1502.67526        40.20026
C40  39049969.69926      -591.45526        35.90026
> 2026 02 27 07 19 58.4196190  0 35                      
G03  25382413.25125     -1431.45325        33.30025
G06  20370326.44727      -916.79827        44.00027
G11  21429436.24027      1902.21827        44.60027
G13  23708642.57925     -1929.91025        32.70025
G14  21499018.66926      -723.63826        37.30026
G17  23423932.67926     -2013.14226        37.90026
G19  21774205.06227     -1346.49127        42.30027
G21  24160192.97725      2171.31125        34.20025
G22  21834499.32126       106.51026        41.10026
G24  23171742.16727      1802.15327        42.50027
G30  22666603.26726     -3610.97626        40.70026
J02  40366928.88726      1142.43626        40.20026
J03  42008470.97126      -884.82926        35.60026
R22  20007975.09726       744.30726        40.50026
R09  23186901.47224     -3438.50024        27.70024
R11  20351578.92526      2376.15526        36.90026
R23  22863693.42523      2859.30023        21.90023
R21  20729073.39125     -3329.55725        34.20025
E02  24598055.45126       604.44826        40.00026
E03  27149598.35425     -1976.71625        32.80025
E08  26669306.85325     -1663.66025        33.60025
E14  21647313.70727      2243.60727        43.80027
E15  26334680.31026      2459.85526        35.80026
E25  26240645.01025      -785.06525        33.20025
E30  26884994.63626      1350.03326        38.40026
E34  23431796.23527       533.38027        42.80027
E36  24998426.48025     -2093.73125        32.50025
C23  22657048.58227     -1632.12027        45.60027
C27  22132719.96727      -198.41727        46.80027
C28  22476574.42227     -2104.96327        44.80027
C30  25747868.05225      1746.20325        31.60025
C37  22260877.64527      1134.60027        46.00027
C38  38598788.34526      1321.89026        40.80026
C39  38418770.46926     -1500.22226        39.70026
C40  39050087.81725      -588.96225        34.90025
> 2026 02 27 07 19 59.4196190  0 35                      
G03  25382688.16125     -1457.25025        33.40025
G06  20370505.42327      -943.15027        44.70027
G11  21429076.48927      1875.80027        44.70027
G13  23709004.72825     -1955.60025        32.80025
G14  21499156.27426      -750.80026        37.70026
G17  23424316.71326     -2038.95026        38.20026
G19  21774461.38427     -1372.95027        42.50027
G21  24159785.85925      2145.65025        34.50025
G22  21834482.83226        81.15026        41.10026
G24  23171404.30127      1775.65027        42.90027
G30  22667292.79026     -3636.95026        41.00026
J02  40366714.23626      1116.95026        40.50026
J03  42008647.84926      -910.20026        36.60026
R22  20007842.88926       716.75026        40.40026
R09  23187541.82924     -3463.85024        28.80024
R11  20351134.93326      2349.25026        36.70026
R23  22863262.62323      2834.60023        22.70023
R21  20729701.45725     -3357.70025        34.80025
E02  24597942.12926       578.94026        40.30026
E03  27149980.89025     -2001.97225        33.10025
E08  26669627.93125     -1689.13025        33.60025
E14  21646889.20127      2218.32527        44.00027
E15  26334213.83326      2434.15426        35.80026
E25  26240796.10525      -810.86525        33.40025
E30  26884741.01126      1324.75826        38.90026
E34  23431697.90327       507.51227        43.40027
E36  24998824.30425     -2119.61325        32.10025
C23  22657361.56527     -1657.95827        45.20027
C27  22132760.73927      -224.13427        47.10027
C28  22476977.94227     -2130.52327        45.50027
C30  25747539.77925      1720.48125        32.30025
C37  22260664.49327      1108.83627        46.40027
C38  38598540.41726      1296.38526        41.10026
C39  38419058.86926     -1525.71326        39.50026
C40  39050191.54525      -614.08625        34.60025
> 2026 02 27 07 20 00.4196189  0 35                      
G03  25382957.67425     -1461.74525        32.50025
G06  20370686.19827      -947.48127        43.80027
G11  21428719.73627      1871.83727        44.20027
G13  23709379.46825     -1959.35125        32.10025
G14  21499303.47226      -753.85926        37.30026
G17  23424705.54426     -2042.27426        37.80026
G19  21774722.50427     -1375.96527        41.60027
G21  24159377.54125      2142.40425        33.20025
G22  21834465.74426        76.67526        40.40026
G24  23171066.73527      1771.68627        42.40027
G30  22667982.61226     -3640.80726        40.40026
J02  40366499.28426      1113.07726        40.00026
J03  42008813.63426      -914.32926        35.50026
R22  20007700.78726       712.97526        39.10026
R09  23188212.76524     -3468.05024        27.50024
R11  20350711.62626      2345.47526        35.50026
R23  22862683.72423      2832.65023        22.70023
R21  20730326.82425     -3360.17225        33.50025
E02  24597831.50626       574.96626        40.80026
E03  27150357.72925     -2005.75725        33.20025
E08  26669951.10725     -1693.14725        33.50025
E14  21646465.89427      2214.44727        44.40027
E15  26333752.45326      2430.08026        36.20026
E25  26240949.89925      -814.87925        34.20025
E30  26884488.58626      1320.89526        39.30026
E34  23431600.47127       503.11127        43.90027
E36  24999225.72625     -2123.67725        32.80025
C23  22657678.14627     -1662.36427        45.80027
C27  22132803.30928      -228.46928        47.70028
C28  22477383.56127     -2134.65827        46.00027
C30  25747209.10825      1716.43625        32.20025
C37  22260454.03927      1104.49827        46.70027
C38  38598290.69027      1292.35927        41.70027
C39  38419349.06826     -1529.85126        39.80026
C40  39050312.06226      -617.85326        35.50026
> 2026 02 27 07 20 01.4196190  0 51                      
G03  25383242.47725     -1465.80425        31.10025
G06  20370866.37327      -951.65627        42.50027
G11  21428364.18227      1867.83027        43.00027
G13  23709752.11025     -1962.90325        30.60025
G14  21499447.37326      -757.70326        36.00026
G17  23425097.97226     -2045.63326        36.40026
G19  21774985.72126     -1379.49026        40.60026
G21  24158961.72925      2139.10925        32.40025
G22  21834451.35426        73.00026        39.50026
G24  23170730.66726      1767.69226        41.10026
G30  22668676.63226     -3644.53926        39.30026
J02  40366287.33126      1109.51626        38.80026
J03  42008989.91225      -917.86325        34.50025
R22  20007566.18026       708.71526        38.90026
R09  23188892.69424     -3473.35024        26.10024
R12  24396991.54524      3429.05024        28.70024
R11  20350248.44625      2341.63425        35.10025
R21  20730956.08825     -3364.28325        33.30025
C60                                                  36046237.24027      -301.95027        42.50027
C59                                                  39770784.68926      -282.60026        36.00026
C43  26565498.31926     -2911.75026        39.30026  26565501.01726     -2885.75026        37.90026
C41  26490802.03026       540.15026        38.70026  26490804.12826       533.90026        36.90026
C40  39050431.07925      -622.77125        34.40025  39050428.98125      -616.45025        30.90025
C39  38419640.76626     -1533.62326        39.20026  38419641.06626     -1519.50026        37.80026
C38  38598048.75726      1288.77126        39.70026  38598048.45726      1276.40026        38.00026
C37  22260242.98527      1100.51227        45.80027  22260245.38327      1090.85027        43.50027
C32                                                  26964828.16824       -35.50024        24.20024
C30  25746883.53425      1712.54425        31.80025  25746890.42924      1698.55024        29.40024
C28  22477790.38027     -2138.43227        45.00027  22477790.97926     -2119.20026        40.70026
C27  22132847.97827      -232.45927        46.50027  22132848.87827      -230.05027        44.50027
C25  26093676.25425     -3153.35025        32.70025  26093678.35325     -3124.85025        32.10025
C23  22657994.12727     -1666.43527        44.50027  22657993.82827     -1651.35027        42.50027
C16                                                  37863465.19926     -1350.65026        36.90026
C13                                                  38937677.63726      1297.60026        35.80026
C10                                                  37602092.64325      -455.10025        30.70025
C09                                                  35939656.22426      -930.30026        35.80026
C08                                                  39242794.40925      1476.05025        32.70025
C07                                                  37764535.48625      -435.40025        33.60025
C06                                                  37256506.88726     -1290.95026        37.70026
C05                                                  36599016.75826      -318.40026        39.60026
C02                                                  35858196.31826      -304.35026        36.70026
C01                                                  40249203.68625      -309.60025        33.00025
E02  24597724.18026       571.29826        39.30026
E03  27150741.76325     -2009.24225        32.10025
E08  26670271.58525     -1696.93825        32.40025
E14  21646046.18427      2210.92727        43.30027
E15  26333288.97425      2426.25725        34.80025
E25  26241105.79125      -818.66025        31.70025
E30  26884237.96026      1317.38426        37.70026
E34  23431506.33627       499.03927        42.30027
E36  24999635.84325     -2127.61425        32.00025
> 2026 02 27 07 20 02.4196190  0 53                      
G03  25383528.17925     -1468.84025        33.40025
G06  20371047.44827      -954.85727        45.10027
G11  21428009.82827      1864.76727        45.50027
G13  23710129.24925     -1965.38825        33.10025
G14  21499590.97326      -760.60626        38.50026
G17  23425483.80526     -2048.00426        38.80026
G19  21775248.93927     -1382.06127        43.20027
G21  24158561.80625      2136.73025        35.10025
G22  21834436.36527        70.20627        42.10027
G24  23170394.00027      1764.64827        43.60027
G30  22669369.75227     -3647.28827        41.70027
J02  40366077.77626      1106.97926        41.30026
J03  42009164.99126      -920.39626        37.00026
R22  20007438.16926       705.40726        41.10026
R09  23189506.36924     -3475.30024        29.30024
R12  24396339.79625      3424.95025        30.40025
R11  20349828.43726      2338.60126        37.10026
R23  22861671.02523      2829.30023        21.30023
R21  20731580.55625     -3366.96625        35.40025
C60                                                  36046293.60127      -289.35027        43.40027
C59                                                  39770842.84926      -291.35026        38.30026
C43  26566055.63327     -2914.70027        41.80027  26566055.33326     -2888.45026        40.90026
C41  26490700.70026       537.15026        40.60026  26490702.49926       531.60026        39.70026
C40  39050551.89626      -624.02926        36.80026  39050548.59825      -618.10025        33.20025
C39  38419932.16526     -1536.45926        40.80026  38419934.86326     -1522.85026        40.10026
C38  38597803.22727      1286.00127        42.40027  38597802.92726      1274.15026        40.30026
C37  22260035.52827      1097.39127        47.40027  22260036.42827      1087.15027        45.90027
C32                                                  26964844.65724       -40.70024        26.80024
C30  25746561.55725      1709.44625        33.20025  25746564.55525      1694.15025        31.40025
C28  22478196.89827     -2141.37227        47.00027  22478198.39727     -2122.55027        43.30027
C27  22132892.34828      -235.56328        48.90028  22132894.74627      -233.65027        47.10027
C25  26094282.43425     -3156.75025        35.10025  26094278.53725     -3128.50025        34.10025
C23  22658311.90727     -1669.57827        46.30027  22658313.40627     -1654.70027        45.10027
C16                                                  37863722.72126     -1353.95026        39.30026
C13                                                  38937429.70926      1295.60026        38.50026
C10                                                  37602181.08225      -458.85025        32.50025
C09                                                  35939836.10026      -932.90026        38.00026
C08                                                  39242510.80525      1472.75025        34.60025
C07                                                  37764620.62726      -438.20026        35.50026
C06                                                  37256754.51626     -1294.70026        39.90026
C05                                                  36599079.71527      -326.80027        42.10027
C03                                                  36893539.46425      -309.40025        32.50025
C02                                                  35858251.77926      -296.60026        39.20026
C01                                                  40249259.74825      -299.30025        35.30025
E02  24597614.45627       568.60027        41.70027
E03  27151124.89825     -2011.69925        34.60025
E08  26670598.35925     -1699.62125        34.50025
E14  21645625.57627      2208.39027        44.90027
E15  26332827.59326      2423.40726        37.00026
E25  26241264.38125      -821.50825        34.10025
E30  26883987.63326      1314.91826        40.10026
E34  23431410.40227       495.89227        44.80027
E36  25000038.46425     -2130.76925        34.00025
> 2026 02 27 07 20 03.4196190  0 54                      
G03  25383796.49425     -1470.80625        32.20025
G06  20371227.02327      -957.04327        44.90027
G11  21427653.97427      1862.76727        45.00027
G13  23710497.99425     -1966.85725        32.50025
G14  21499737.27226      -762.51126        38.00026
G17  23425875.63426     -2049.36026        38.20026
G19  21775509.45927     -1383.59327        42.90027
G21  24158152.28925      2135.44725        34.70025
G22  21834426.17227        68.52127        41.80027
G24  23170057.33327      1762.66327        43.30027
G30  22670064.97126     -3649.01426        41.40026
J02  40365867.32226      1105.50826        41.00026
J03  42009337.37126      -921.84926        36.60026
R22  20007310.15826       703.14626        40.70026
R09  23190153.92124     -3477.00024        28.80024
R12  24395696.14125      3425.14725        30.00025
R11  20349378.74926      2336.66026        36.90026
R23  22861098.12123      2823.30023        23.10023
R21  20732217.01525     -3368.85325        35.00025
C60                                                  36046350.86127      -297.10027        43.20027
C59                                                  39770900.10926      -290.70026        37.90026
C43  26566607.55127     -2915.96527        41.50027  26566608.15026     -2889.67526        40.70026
C41  26490597.87126       536.21126        40.70026  26490599.07026       531.17726        39.10026
C40  39050672.11326      -625.18326        35.80026  39050669.71425      -619.87525        33.00025
C39  38420225.66226     -1537.83526        41.10026  38420226.86126     -1524.09126        40.00026
C38  38597558.89627      1284.55427        42.00027  38597557.09826      1272.64426        40.10026
C37  22259825.07428      1095.66128        48.00028  22259827.77227      1085.41327        45.80027
C32                                                  26964853.35124       -39.90024        27.10024
C30  25746230.88625      1707.99425        33.50025  25746238.98025      1692.05025        32.00025
C28  22478604.61627     -2142.91627        46.90027  22478605.51627     -2123.69227        43.20027
C27  22132936.11728      -237.23228        48.40028  22132939.41527      -235.38927        46.90027
C25  26094871.82626     -3158.28826        35.50026  26094880.22125     -3129.82325        34.20025
C23  22658628.78827     -1671.36927        46.40027  22658630.58727     -1656.38727        44.90027
C16                                                  37863982.94026     -1354.94526        39.00026
C13                                                  38937181.78026      1293.38326        37.90026
C10                                                  37602266.82325      -458.97425        32.90025
C09                                                  35940013.27726      -934.59626        37.70026
C08                                                  39242230.49925      1471.06625        34.50025
C07                                                  37764703.67026      -439.40726        35.50026
C06                                                  37257003.64326     -1296.36626        39.50026
C05                                                  36599142.97127      -317.75027        41.80027
C03                                                  36893588.03125      -300.85025        33.60025
C02                                                  35858310.53826      -300.70026        38.70026
C01                                                  40249319.40625      -314.80025        35.20025
E02  24597505.93126       567.08026        41.30026
E03  27151510.43125     -2012.86625        33.50025
E07  28363089.87224      -501.85024        23.50024
E08  26670917.93825     -1701.13325        34.70025
E14  21645205.26727      2207.01827        44.80027
E15  26332364.41426      2421.70026        36.80026
E25  26241419.37425      -823.23925        34.80025
E30  26883737.00626      1313.55826        40.00026
E34  23431316.26827       493.93227        44.30027
E36  25000443.18425     -2132.67625        33.50025
> 2026 02 27 07 20 04.4196190  0 54                      
G03  25384081.59625     -1474.88025        32.00025
G06  20371411.99527      -961.29327        44.70027
G11  21427299.61927      1858.63627        45.30027
G13  23710876.93225     -1970.51725        33.00025
G14  21499879.07426      -766.48226        38.10026
G17  23426264.76526     -2052.82426        38.50026
G19  21775773.87627     -1387.16827        42.80027
G21  24157744.57225      2132.03325        34.80025
G22  21834413.58027        64.71227        41.80027
G24  23169721.86627      1758.56227        43.30027
G30  22670761.08926     -3652.80126        41.20026
J02  40365655.66826      1101.93326        40.70026
J03  42009517.54626      -925.38026        36.60026
R22  20007171.05426       698.76826        40.50026
R09  23190831.45224     -3480.55024        28.10024
R12  24395057.58324      3421.69024        29.20024
R11  20348939.85226      2332.66926        37.00026
R23  22860543.20624      2822.90024        23.90024
R21  20732831.59025     -3372.94225        34.80025
C60                                                  36046405.72327      -295.20027        43.20027
C59                                                  39770956.17026      -302.35026        37.90026
C43  26567162.16727     -2919.47327        41.50027  26567164.26526     -2893.09126        40.40026
C41  26490498.34026       532.84826        40.80026  26490496.54126       527.85426        39.20026
C40  39050785.43426      -628.73526        36.60026  39050792.03025      -623.21525        33.70025
C39  38420517.65926     -1541.49626        40.70026  38420520.35826     -1527.73226        40.10026
C38  38597313.66627      1280.89027        42.30027  38597312.46726      1269.06026        40.00026
C37  22259617.01828      1091.65528        47.60028  22259619.11727      1081.50827        45.80027
C32                                                  26964869.24024       -43.10024        26.60024
C30  25745912.20625      1704.01725        33.50025  25745922.39925      1688.38725        31.40025
C28  22479013.53327     -2146.64127        46.80027  22479013.83327     -2127.40627        43.10027
C27  22132983.18528      -241.24528        48.60028  22132984.98427      -239.27927        46.90027
C25  26095480.10525     -3162.05525        34.90025  26095482.50425     -3133.51725        34.30025
C23  22658948.06727     -1675.39827        46.70027  22658948.66727     -1660.42227        45.20027
C16                                                  37864246.45826     -1358.61926        39.00026
C13                                                  38936930.85426      1289.93826        38.20026
C10                                                  37602356.46125      -462.44625        33.20025
C09                                                  35940197.05026      -938.27326        37.80026
C08                                                  39241950.19325      1467.56725        34.60025
C07                                                  37764790.31025      -442.95225        35.40025
C06                                                  37257253.07126     -1300.03726        39.70026
C05                                                  36599204.12927      -329.35027        42.10027
C03                                                  36893646.79025      -309.10025        33.40025
C02                                                  35858369.29826      -303.70026        39.20026
C01                                                  40249380.86425      -304.95025        35.10025
E02  24597398.30626       563.54926        41.40026
E03  27151889.06925     -2016.20425        33.70025
E07  28363197.19723      -505.05023        22.90023
E08  26671242.01425     -1704.69025        35.00025
E14  21644784.95727      2203.63527        44.90027
E15  26331903.63326      2418.01926        37.10026
E25  26241574.66625      -826.81425        34.60025
E30  26883487.87926      1310.20026        40.00026
E34  23431223.03227       490.00727        44.60027
E36  25000848.50325     -2136.37525        34.10025
> 2026 02 27 07 20 05.4196190  0 53                      
G03  25384364.00125     -1480.51425        31.40025
G06  20371593.66927      -967.00627        44.30027
G11  21426945.56527      1853.10227        44.40027
G13  23711247.17525     -1975.63225        32.10025
G14  21500024.17326      -771.90026        37.10026
G17  23426658.39226     -2057.83426        37.60026
G19  21776037.39327     -1392.28527        41.90027
G21  24157339.25225      2127.20425        34.30025
G22  21834401.58926        59.39226        40.80026
G24  23169386.39827      1752.98227        42.50027
G30  22671452.11126     -3658.13326        40.40026
J02  40365448.51226      1096.85626        39.80026
J03  42009690.82726      -930.50726        36.10026
R22  20007040.64426       692.85126        40.00026
R09  23191451.42324     -3486.30024        27.00024
R12  24394420.22525      3416.89825        29.50025
R11  20348505.15326      2327.10226        35.90026
R21  20733483.63825     -3378.42425        33.60025
C60                                                  36046466.58127      -308.85027        43.00027
C59                                                  39771009.23426      -293.50026        37.30026
C43  26567718.58126     -2924.22326        40.90026  26567720.98026     -2897.95426        39.70026
C41  26490395.21126       528.21326        39.90026  26490397.61026       523.04826        38.50026
C40  39050910.74726      -633.52926        35.50026  39050911.04725      -628.26825        32.40025
C39  38420809.65726     -1546.41126        39.70026  38420813.55526     -1532.83326        39.30026
C38  38597068.43627      1275.90627        41.50027  38597069.63526      1263.93126        39.40026
C37  22259410.16127      1086.43027        47.40027  22259412.26027      1076.08327        45.00027
C32                                                  26964866.54224       -45.10024        25.30024
C30  25745584.23325      1698.75825        32.10025  25745588.43025      1683.01525        30.30025
C28  22479420.65127     -2151.74827        46.10027  22479423.34927     -2132.64327        42.40027
C27  22133028.45428      -246.49028        47.60028  22133030.25227      -244.72927        46.00027
C25  26096082.38825     -3167.18625        35.00025  26096082.98825     -3138.59725        34.00025
C23  22659265.84727     -1680.73427        45.80027  22659269.74427     -1665.91327        44.20027
C16                                                  37864505.47926     -1363.70126        37.90026
C13                                                  38936683.52526      1284.88926        37.40026
C10                                                  37602450.59525      -467.39225        31.80025
C09                                                  35940378.12426      -943.58326        37.20026
C08                                                  39241666.29025      1462.53125        33.70025
C07                                                  37764873.05325      -447.90325        34.70025
C06                                                  37257503.39726     -1305.20426        39.10026
C05                                                  36599267.38526      -326.75026        41.20026
C03                                                  36893707.34825      -329.40025        32.50025
C02                                                  35858429.25626      -304.60026        38.00026
C01                                                  40249443.22125      -296.50025        34.30025
E02  24597290.38126       558.66926        40.40026
E03  27152275.50125     -2020.83025        33.40025
E07  28363279.64023      -512.00023        22.30023
E08  26671567.58825     -1709.60825        34.00025
E14  21644365.54827      2198.92527        44.00027
E15  26331444.95026      2413.05826        35.90026
E25  26241734.45625      -831.85025        34.30025
E30  26883237.85226      1305.50426        39.50026
E34  23431129.79727       484.69727        43.50027
E36  25001257.42025     -2141.59425        33.10025
> 2026 02 27 07 20 06.4196190  0 54                      
G03  25384647.30525     -1485.57625        32.30025
G06  20371778.64127      -972.26927        44.40027
G11  21426594.80727      1848.00627        44.90027
G13  23711630.91025     -1980.24725        32.70025
G14  21500169.87226      -776.89626        37.40026
G17  23427046.32426     -2062.23626        38.10026
G19  21776301.81027     -1396.85827        42.30027
G21  24156932.43425      2122.72425        34.50025
G22  21834391.69526        54.62226        41.40026
G24  23169053.92827      1747.92727        42.80027
G30  22672151.82626     -3662.92626        40.80026
J02  40365237.75826      1092.28026        40.30026
J03  42009871.90126      -935.12126        36.10026
R22  20006910.53426       687.39726        40.90026
R09  23192115.76324     -3491.32724        29.00024
R12  24393766.67725      3412.24925        30.60025
R11  20348080.34726      2321.97226        37.60026
R23  22859489.13523      2808.00023        21.80023
R21  20734097.91325     -3383.50925        34.90025
C60                                                  36046523.54127      -316.75027        41.50027
C59                                                  39771070.09126      -304.90026        37.40026
C43  26568277.09526     -2928.87426        41.10026  26568279.49326     -2902.33326        39.70026
C41  26490295.98026       523.64726        40.40026  26490298.07926       518.78326        38.70026
C40  39051030.66426      -638.28826        35.90026  39051027.66625      -632.59925        32.20025
C39  38421107.35126     -1551.36926        40.40026  38421109.45026     -1537.48026        39.20026
C38  38596827.10327      1271.04227        42.00027  38596828.60226      1259.35726        39.30026
C37  22259203.90427      1081.19627        47.20027  22259206.90227      1071.16427        45.10027
C32                                                  26964877.03424       -51.80024        25.20024
C30  25745264.65425      1693.62325        32.90025  25745268.85225      1678.68925        30.60025
C28  22479831.66727     -2156.77027        46.50027  22479832.86627     -2137.33327        42.60027
C27  22133076.12128      -251.73528        48.60028  22133079.11827      -249.59227        46.40027
C25  26096681.37425     -3172.01925        35.20025  26096686.77025     -3143.38225        33.70025
C23  22659586.02527     -1686.00427        46.30027  22659589.32327     -1670.87627        44.50027
C16                                                  37864766.89826     -1368.39726        38.60026
C13                                                  38936438.29526      1280.35826        37.40026
C10                                                  37602540.53325      -471.86325        32.40025
C09                                                  35940556.80126      -948.28326        37.30026
C08                                                  39241382.68625      1458.01725        34.30025
C07                                                  37764961.19225      -452.32525        35.20025
C06                                                  37257754.92326     -1309.89826        39.10026
C05                                                  36599331.84027      -334.95027        41.50027
C03                                                  36893769.40525      -320.55025        33.00025
C02                                                  35858490.11426      -325.15026        38.50026
C01                                                  40249504.07825      -328.95025        34.70025
E02  24597186.35326       553.85826        41.30026
E03  27152661.03425     -2025.53625        33.40025
E07  28363366.28023      -514.70023        22.90023
E08  26671896.46125     -1714.50525        34.00025
E14  21643948.83627      2194.19927        44.60027
E15  26330983.57026      2408.11226        36.80026
E25  26241893.94525      -836.81225        34.80025
E30  26882989.32426      1300.85526        39.40026
E34  23431038.96027       479.43627        44.30027
E36  25001666.63725     -2146.72725        34.00025
> 2026 02 27 07 20 07.4196190  0 54                      
G03  25384927.61125     -1492.00725        32.60025
G06  20371962.71427      -978.94127        44.80027
G11  21426243.45127      1841.44627        45.20027
G13  23712006.85025     -1986.33125        33.20025
G14  21500320.06826      -783.26326        37.40026
G17  23427439.35226     -2068.16526        38.50026
G19  21776570.12527     -1402.93927        42.80027
G21  24156530.11225      2116.98725        35.10025
G22  21834378.80427        48.34427        41.80027
G24  23168722.65727      1741.33227        43.10027
G30  22672850.34326     -3669.19726        41.20026
J02  40365031.50026      1086.23726        40.80026
J03  42010049.67826      -941.14926        36.70026
R22  20006786.42026       680.57726        41.30026
R09  23192766.31224     -3500.90024        28.60024
R12  24393111.63125      3406.49425        30.50025
R11  20347643.55026      2315.49726        37.60026
R23  22859001.67324      2801.30024        24.10024
R21  20734732.57426     -3389.95426        35.90026
C60                                                  36046582.60027      -306.90027        43.20027
C59                                                  39771126.75226      -314.20026        37.90026
C43  26568832.91026     -2934.46426        41.00026  26568835.90826     -2908.21726        40.40026
C41  26490194.65026       518.17026        40.80026  26490197.04826       513.01326        39.60026
C40  39051152.68026      -643.85326        36.20026  39051148.18325      -638.52825        33.00025
C39  38421400.84826     -1557.11026        40.40026  38421404.14626     -1543.55726        40.10026
C38  38596589.36727      1265.30927        42.20027  38596586.96926      1253.29026        40.30026
C37  22258998.84627      1075.14227        47.30027  22259000.64527      1064.77427        45.90027
C32                                                  26964883.93024       -56.30024        26.00024
C30  25744945.97525      1687.71525        32.70025  25744945.67525      1671.86725        32.00025
C28  22480241.78327     -2162.60527        46.50027  22480243.58227     -2143.54927        43.00027
C27  22133125.28728      -257.74928        47.90028  22133127.68527      -256.00527        46.90027
C25  26097286.65525     -3178.09225        35.00025  26097289.65325     -3149.64825        34.70025
C23  22659908.60227     -1692.13927        46.00027  22659911.00027     -1677.37127        45.20027
C16                                                  37865029.51626     -1374.51426        39.10026
C13                                                  38936192.76526      1274.38526        38.20026
C10                                                  37602629.27225      -477.76025        33.10025
C09                                                  35940741.77326      -954.53626        38.20026
C08                                                  39241108.07625      1452.04425        35.20025
C07                                                  37765046.63326      -458.20426        35.80026
C06                                                  37258006.44926     -1315.98226        39.80026
C05                                                  36599396.29527      -347.85027        42.20027
C03                                                  36893824.86725      -289.30025        34.20025
C02                                                  35858548.57426      -314.20026        39.30026
C01                                                  40249563.43725      -325.10025        35.20025
E02  24597079.62626       548.02826        40.90026
E03  27153045.96825     -2031.00825        33.40025
E07  28363486.79723      -523.40023        23.00023
E08  26672222.63525     -1720.30725        34.30025
E14  21643531.22527      2188.55927        44.50027
E15  26330528.78526      2402.06626        36.50026
E25  26242048.63825      -842.79925        34.60025
E30  26882741.99526      1295.19926        39.60026
E34  23430946.92327       473.17027        43.90027
E36  25002076.15325     -2152.89225        33.80025
> 2026 02 27 07 20 08.4196190  0 54                      
G03  25385213.01325     -1500.76525        31.00025
G06  20372150.68427      -987.91827        44.40027
G11  21425893.89327      1832.64227        44.90027
G13  23712382.19025     -1994.59125        33.30025
G14  21500471.16426      -791.97026        37.60026
G17  23427835.37726     -2076.33926        38.00026
G19  21776837.83927     -1411.29127        42.50027
G21  24156125.39325      2108.86825        34.70025
G22  21834370.11027        39.81027        41.60027
G24  23168390.48727      1732.52327        43.00027
G30  22673549.15926     -3677.69126        41.00026
J02  40364824.64426      1077.89026        40.40026
J03  42010230.75326      -949.49126        36.40026
R22  20006662.60626       671.37326        40.70026
R09  23193406.36924     -3505.35024        28.30024
R12  24392468.27625      3398.11925        30.30025
R11  20347212.14826      2306.66626        37.20026
R23  22858474.63823      2797.55023        23.10023
R21  20735379.52625     -3398.70225        35.00025
C60                                                  36046645.85727      -326.10027        43.30027
C59                                                  39771188.50926      -324.05026        38.00026
C43  26569394.72126     -2942.70726        41.30026  26569393.52226     -2916.33526        40.30026
C41  26490097.21826       510.04426        40.70026  26490100.21626       504.96226        39.30026
C40  39051272.89726      -652.15226        36.60026  39051274.69525      -646.65125        33.00025
C39  38421698.24226     -1565.66826        40.90026  38421701.84026     -1551.91726        40.00026
C38  38596348.03527      1256.87027        42.20027  38596348.03526      1244.97126        40.10026
C37  22258794.98727      1066.34727        47.20027  22258797.98527      1056.15427        45.60027
C32                                                  26964903.71624       -67.00024        25.20024
C30  25744622.79925      1679.07025        33.70025  25744626.09725      1663.43525        31.90025
C28  22480654.59727     -2171.18627        46.30027  22480656.99527     -2151.95427        43.00027
C27  22133174.15328      -266.51128        48.70028  22133177.15127      -264.60527        46.80027
C25  26097893.13525     -3186.60025        35.20025  26097897.63225     -3158.00325        33.80025
C23  22660231.47827     -1701.00827        46.70027  22660235.07627     -1686.07027        44.90027
C16                                                  37865295.43226     -1382.95026        38.80026
C13                                                  38935951.13226      1266.15826        37.70026
C10                                                  37602725.80525      -485.93225        32.80025
C09                                                  35940924.34626      -963.00026        37.50026
C08                                                  39240831.96825      1443.83525        34.70025
C07                                                  37765135.37126      -466.36526        35.50026
C06                                                  37258258.57526     -1324.42126        39.60026
C05                                                  36599462.55027      -349.90027        41.80027
C03                                                  36893889.02225      -321.10025        33.00025
C02                                                  35858610.63126      -333.45026        38.90026
C01                                                  40249629.99125      -336.20025        35.10025
E02  24596977.39727       539.53327        41.50027
E03  27153430.30225     -2039.31525        34.30025
E07  28363576.73523      -528.80023        21.50023
E08  26672546.11125     -1728.91625        34.80025
E14  21643116.01327      2180.20727        44.90027
E15  26330074.89926      2393.39226        36.70026
E25  26242211.72525      -851.43725        35.30025
E30  26882497.36526      1286.81826        39.90026
E34  23430857.88527       464.26127        44.10027
E36  25002484.77025     -2161.75025        34.50025
> 2026 02 27 07 20 09.4196190  0 54                      
G03  25385503.81225     -1507.32825        30.90025
G06  20372338.05427      -994.59127        43.90027
G11  21425545.83427      1826.12927        44.60027
G13  23712767.72325     -2000.55825        32.60025
G14  21500624.65826      -798.36126        37.10026
G17  23428233.50226     -2082.17326        37.90026
G19  21777109.45127     -1417.29427        42.40027
G21  24155725.47025      2102.90625        34.80025
G22  21834366.51326        33.61326        41.00026
G24  23168060.71627      1726.05727        42.70027
G30  22674248.27526     -3683.91226        40.60026
J02  40364621.68426      1071.94226        40.40026
J03  42010410.02926      -955.40926        36.30026
R22  20006529.19826       664.53126        39.70026
R09  23194041.33024     -3513.15024        25.90024
R12  24391852.20224      3390.20024        28.80024
R11  20346780.44726      2300.22126        35.90026
R23  22857969.48723      2788.80023        23.40023
R21  20736003.39425     -3405.24725        33.90025
C60                                                  36046705.81527      -326.20027        41.80027
C59                                                  39771251.76626      -323.00026        37.00026
C43  26569955.03326     -2948.74726        41.10026  26569955.63326     -2922.09126        39.50026
C41  26490002.78326       504.07326        40.80026  26490001.88426       499.32426        38.30026
C40  39051397.61026      -658.07426        36.10026  39051399.10925      -652.53425        31.70025
C39  38421999.23426     -1571.94326        40.50026  38422000.13326     -1557.89626        39.00026
C38  38596109.10027      1250.56327        42.20027  38596109.99926      1239.01926        39.30026
C37  22258592.92727      1059.80127        47.20027  22258595.92527      1049.82527        44.60027
C32                                                  26964904.01624       -67.15024        24.00024
C30  25744302.02125      1672.56325        32.40025  25744307.71725      1657.18325        30.80025
C28  22481068.31127     -2177.56027        46.30027  22481070.10927     -2158.05527        42.20027
C27  22133226.91628      -273.08528        48.30028  22133227.51627      -270.89027        45.70027
C25  26098504.11225     -3193.06525        35.40025  26098500.21525     -3164.18825        32.90025
C23  22660555.55427     -1707.60727        46.10027  22660557.65327     -1692.41327        44.10027
C16                                                  37865559.24926     -1389.01626        38.00026
C13                                                  38935703.20426      1260.24026        36.40026
C10                                                  37602818.74125      -491.84925        32.00025
C09                                                  35941109.91826      -969.01226        36.80026
C08                                                  39240556.15925      1437.79825        33.50025
C07                                                  37765227.10825      -472.17625        34.40025
C06                                                  37258516.39626     -1330.49526        38.40026
C05                                                  36599530.60326      -360.10026        40.90026
C03                                                  36893957.07525      -344.40025        32.80025
C02                                                  35858673.58726      -332.40026        38.10026
C01                                                  40249690.54925      -335.35025        34.30025
E02  24596876.06726       533.40226        40.90026
E03  27153819.43225     -2045.26325        33.50025
E07  28363671.76923      -536.75123        23.40023
E08  26672878.28125     -1735.11825        34.40025
E14  21642701.99927      2174.17127        44.40027
E15  26329615.61726      2387.10626        36.50026
E25  26242375.71225      -857.70425        34.50025
E30  26882253.33426      1280.84626        39.50026
E34  23430769.74627       457.66727        43.70027
E36  25002897.58425     -2168.18225        33.70025
> 2026 02 27 07 20 10.4196190  0 53                      
G03  25385783.21825     -1514.28425        30.60025
G06  20372528.12327     -1001.67227        43.90027
G11  21425199.27327      1819.18527        44.30027
G13  23713140.96425     -2007.00525        32.10025
G14  21500774.85426      -805.18626        36.80026
G17  23428628.32826     -2088.55026        37.20026
G19  21777376.26627     -1423.75727        41.90027
G21  24155328.84425      2096.77525        34.30025
G22  21834361.41626        26.95326        40.70026
G24  23167734.84127      1719.07227        42.40027
G30  22674947.39126     -3690.61326        40.40026
J02  40364418.72526      1065.50926        39.70026
J03  42010595.00126      -961.91026        36.00026
R22  20006406.88326       657.24926        38.90026
R09  23194738.34724     -3522.05024        26.60024
R12  24391215.14324      3385.85924        29.30024
R11  20346351.14525      2293.30525        35.10025
R21  20736638.65425     -3412.13125        33.20025
C60                                                  36046769.97127      -318.55027        41.70027
C59                                                  39771315.02226      -338.45026        36.40026
C43  26570515.34526     -2954.80026        39.80026  26570514.74626     -2928.39526        38.90026
C41  26489908.64826       498.16426        39.80026  26489907.14926       493.18626        37.80026
C40  39051528.02026      -664.14526        35.50026  39051520.82525      -658.75925        31.60025
C39  38422297.82726     -1578.12826        40.20026  38422299.62626     -1564.36026        38.60026
C38  38595869.86626      1244.34926        41.00026  38595871.66426      1232.53426        38.60026
C37  22258392.36627      1053.23827        46.50027  22258394.46427      1043.02027        44.30027
C32                                                  26964915.40823       -72.85023        22.80023
C30  25743987.23925      1666.09825        31.90025  25743987.83825      1650.59025        30.40025
C28  22481483.82327     -2183.90027        45.50027  22481485.32227     -2164.64827        41.60027
C27  22133279.08028      -279.58728        47.50028  22133281.17927      -277.69127        45.30027
C25  26099110.59225     -3199.34125        34.70025  26099104.89625     -3170.76225        32.40025
C23  22660881.42927     -1714.19527        45.30027  22660882.92727     -1699.24527        43.70027
C16                                                  37865828.46326     -1395.48426        37.20026
C13                                                  38935464.26926      1253.92726        36.70026
C10                                                  37602913.47525      -498.03225        31.80025
C09                                                  35941299.38626      -975.66426        36.60026
C08                                                  39240274.95325      1431.41625        33.30025
C07                                                  37765315.84625      -478.54325        34.00025
C06                                                  37258770.02126     -1336.96726        38.00026
C05                                                  36599600.15426      -367.95026        40.30026
C03                                                  36894020.93125      -311.20025        31.70025
C02                                                  35858738.64226      -342.80026        37.70026
C01                                                  40249757.40325      -350.00025        33.90025
E02  24596775.03726       527.27126        40.50026
E03  27154211.26125     -2051.10625        33.10025
E07  28363788.38823      -543.35023        23.00023
E08  26673209.85125     -1741.33125        33.40025
E14  21642288.28627      2168.24827        43.90027
E15  26329163.53026      2380.91226        35.60026
E25  26242539.09925      -863.97325        33.80025
E30  26882009.60226      1274.92426        38.80026
E34  23430683.10627       451.11327        43.10027
E36  25003310.69825     -2174.60725        32.50025
> 2026 02 27 07 20 11.4196190  0 54                      
G03  25386074.01725     -1519.49525        30.40025
G06  20372719.99027     -1007.07927        43.90027
G11  21424853.61327      1813.95427        44.30027
G13  23713529.79525     -2011.69725        31.60025
G14  21500930.44626      -810.25126        36.60026
G17  23429027.05226     -2093.06626        37.20026
G19  21777649.07827     -1428.50427        42.20027
G21  24154923.52525      2092.20725        34.30025
G22  21834355.12126        22.06126        40.80026
G24  23167406.56827      1713.89827        42.60027
G30  22675651.90326     -3695.49926        40.30026
J02  40364215.46526      1060.80626        39.80026
J03  42010778.17426      -966.59426        35.70026
R22  20006280.67026       651.64926        39.40026
R09  23195380.80224     -3524.10024        25.20024
R12  24390617.35725      3381.25425        30.20025
R11  20345922.14126      2288.08626        35.60026
R23  22856981.97123      2773.95023        22.00023
R21  20737279.31125     -3417.37625        33.00025
C60                                                  36046836.82427      -349.35027        41.70027
C59                                                  39771380.67626      -326.05026        36.30026
C43  26571079.55526     -2959.55726        40.60026  26571081.35326     -2932.94226        38.80026
C41  26489815.11326       493.41926        40.20026  26489813.91426       488.75026        38.00026
C40  39051650.93526      -669.18126        35.80026  39051652.13425      -663.32625        31.30025
C39  38422599.41826     -1583.26626        40.80026  38422602.11626     -1569.21426        38.50026
C38  38595636.32727      1239.30427        41.60027  38595632.43026      1227.79026        39.10026
C37  22258192.40427      1047.85527        46.80027  22258194.50327      1038.00627        44.50027
C32                                                  26964937.29324       -81.40024        25.60024
C30  25743668.85925      1661.02425        32.80025  25743674.85525      1645.46925        30.20025
C28  22481899.63527     -2189.06027        46.00027  22481901.43426     -2169.47326        41.40026
C27  22133333.64228      -284.95528        48.50028  22133334.84127      -282.71327        45.50027
C25  26099719.17125     -3204.51425        34.80025  26099716.77225     -3175.58125        32.90025
C23  22661208.20227     -1719.65427        46.20027  22661210.30127     -1704.36327        44.10027
